{
"type": "FeatureCollection",
"features": [
{ "type": "Feature", "properties": { "strassenschluessel": "05358000000404301", "bezeichnung": "A 44" }, "geometry": null },
{ "type": "Feature", "properties": { "strassenschluessel": "05358000000404302", "bezeichnung": "B 56" }, "geometry": null },
{ "type": "Feature", "properties": { "strassenschluessel": "05358000000404303", "bezeichnung": "K 12" }, "geometry": null },
{ "type": "Feature", "properties": { "strassenschluessel": "05358000000404304", "bezeichnung": "L 228" }, "geometry": null },
{ "type": "Feature", "properties": { "strassenschluessel": "05358000000404305", "bezeichnung": "L 136" }, "geometry": null },
{ "type": "Feature", "properties": { "strassenschluessel": "05358000000404306", "bezeichnung": "L 238" }, "geometry": null },
{ "type": "Feature", "properties": { "strassenschluessel": "05358000000404307", "bezeichnung": "Place d'Albert" }, "geometry": null },
{ "type": "Feature", "properties": { "strassenschluessel": "05358000000404308", "bezeichnung": "Uhlweg" }, "geometry": null },
{ "type": "Feature", "properties": { "strassenschluessel": "05358000000404309", "bezeichnung": "Judengasse" }, "geometry": null },
{ "type": "Feature", "properties": { "strassenschluessel": "05358000000404310", "bezeichnung": "L 11" }, "geometry": null },
{ "type": "Feature", "properties": { "strassenschluessel": "05358000000404311", "bezeichnung": "Auf dem Heerweg" }, "geometry": null },
{ "type": "Feature", "properties": { "strassenschluessel": "05358000000404350", "bezeichnung": "Alte Turmstraße" }, "geometry": { "type": "Point", "coordinates": [ 6.287207327515212, 50.894663018945472 ] } },
{ "type": "Feature", "properties": { "strassenschluessel": "05358000000404351", "bezeichnung": "Am Köttenicher Weiher" }, "geometry": { "type": "Point", "coordinates": [ 6.288416340273605, 50.899631949975486 ] } },
{ "type": "Feature", "properties": { "strassenschluessel": "05358000000404352", "bezeichnung": "Am Stippchen" }, "geometry": { "type": "Point", "coordinates": [ 6.28069333086958, 50.897269567782864 ] } },
{ "type": "Feature", "properties": { "strassenschluessel": "05358000000404353", "bezeichnung": "Am Wasserturm" }, "geometry": { "type": "Point", "coordinates": [ 6.282070562666918, 50.892544225348736 ] } },
{ "type": "Feature", "properties": { "strassenschluessel": "05358000000404354", "bezeichnung": "Am Wehrgang" }, "geometry": { "type": "Point", "coordinates": [ 6.285825451158465, 50.895305552886896 ] } },
{ "type": "Feature", "properties": { "strassenschluessel": "05358000000404355", "bezeichnung": "An der Bleiche" }, "geometry": { "type": "Point", "coordinates": [ 6.288769230825702, 50.898080450619915 ] } },
{ "type": "Feature", "properties": { "strassenschluessel": "05358000000404356", "bezeichnung": "Auf der Komm" }, "geometry": { "type": "Point", "coordinates": [ 6.284245324121337, 50.89304413267822 ] } },
{ "type": "Feature", "properties": { "strassenschluessel": "05358000000404357", "bezeichnung": "Auf dem Wall" }, "geometry": { "type": "Point", "coordinates": [ 6.286636802493278, 50.896189898344701 ] } },
{ "type": "Feature", "properties": { "strassenschluessel": "05358000000404358", "bezeichnung": "Barbarastraße" }, "geometry": { "type": "Point", "coordinates": [ 6.285290959470293, 50.897155041368315 ] } },
{ "type": "Feature", "properties": { "strassenschluessel": "05358000000404359", "bezeichnung": "Blumenstraße" }, "geometry": { "type": "Point", "coordinates": [ 6.280748650729316, 50.893470611851946 ] } },
{ "type": "Feature", "properties": { "strassenschluessel": "05358000000404360", "bezeichnung": "Bourheimer Weg" }, "geometry": { "type": "Point", "coordinates": [ 6.293613560710444, 50.895597220696921 ] } },
{ "type": "Feature", "properties": { "strassenschluessel": "05358000000404361", "bezeichnung": "Breslauer Straße" }, "geometry": { "type": "Point", "coordinates": [ 6.294264519716515, 50.894242705109747 ] } },
{ "type": "Feature", "properties": { "strassenschluessel": "05358000000404362", "bezeichnung": "Dietrich-Mülfahrt-Straße" }, "geometry": { "type": "Point", "coordinates": [ 6.283006738483339, 50.894111479750002 ] } },
{ "type": "Feature", "properties": { "strassenschluessel": "05358000000404363", "bezeichnung": "Eichendorffstraße" }, "geometry": { "type": "Point", "coordinates": [ 6.284813518047359, 50.89958641003961 ] } },
{ "type": "Feature", "properties": { "strassenschluessel": "05358000000404364", "bezeichnung": "Engelsdorfer Weg" }, "geometry": { "type": "Point", "coordinates": [ 6.291079093094801, 50.899005479708613 ] } },
{ "type": "Feature", "properties": { "strassenschluessel": "05358000000404365", "bezeichnung": "Frauenrather Straße" }, "geometry": { "type": "Point", "coordinates": [ 6.281783588113149, 50.898449916158427 ] } },
{ "type": "Feature", "properties": { "strassenschluessel": "05358000000404366", "bezeichnung": "Gartenstraße" }, "geometry": { "type": "Point", "coordinates": [ 6.278363360200503, 50.897228411898972 ] } },
{ "type": "Feature", "properties": { "strassenschluessel": "05358000000404367", "bezeichnung": "Gerberstraße" }, "geometry": { "type": "Point", "coordinates": [ 6.288306883013675, 50.896679751754235 ] } },
{ "type": "Feature", "properties": { "strassenschluessel": "05358000000404368", "bezeichnung": "Glückaufstraße" }, "geometry": { "type": "Point", "coordinates": [ 6.284696677251763, 50.89643555727217 ] } },
{ "type": "Feature", "properties": { "strassenschluessel": "05358000000404369", "bezeichnung": "Hans-Böckler-Weg" }, "geometry": { "type": "Point", "coordinates": [ 6.286283512374008, 50.8993055098057 ] } },
{ "type": "Feature", "properties": { "strassenschluessel": "05358000000404370", "bezeichnung": "Im Dümpel" }, "geometry": { "type": "Point", "coordinates": [ 6.288498398892232, 50.894970862862429 ] } },
{ "type": "Feature", "properties": { "strassenschluessel": "05358000000404371", "bezeichnung": "Im Graben" }, "geometry": { "type": "Point", "coordinates": [ 6.284022236136277, 50.89445508650163 ] } },
{ "type": "Feature", "properties": { "strassenschluessel": "05358000000404372", "bezeichnung": "Industriestraße" }, "geometry": { "type": "Point", "coordinates": [ 6.309727300565037, 50.903238638699094 ] } },
{ "type": "Feature", "properties": { "strassenschluessel": "05358000000404373", "bezeichnung": "Jahnstraße" }, "geometry": { "type": "Point", "coordinates": [ 6.279125388216241, 50.894400407468567 ] } },
{ "type": "Feature", "properties": { "strassenschluessel": "05358000000404374", "bezeichnung": "Jülicher Straße" }, "geometry": { "type": "Point", "coordinates": [ 6.293959276925868, 50.89890379657956 ] } },
{ "type": "Feature", "properties": { "strassenschluessel": "05358000000404375", "bezeichnung": "Kapellenplatz" }, "geometry": { "type": "Point", "coordinates": [ 6.281904308346105, 50.894904310157287 ] } },
{ "type": "Feature", "properties": { "strassenschluessel": "05358000000404376", "bezeichnung": "Kapuzinerstraße" }, "geometry": { "type": "Point", "coordinates": [ 6.27874628844881, 50.893276757900139 ] } },
{ "type": "Feature", "properties": { "strassenschluessel": "05358000000404377", "bezeichnung": "Knappenstraße" }, "geometry": { "type": "Point", "coordinates": [ 6.286349954538849, 50.898086418502501 ] } },
{ "type": "Feature", "properties": { "strassenschluessel": "05358000000404378", "bezeichnung": "Königsberger Straße" }, "geometry": { "type": "Point", "coordinates": [ 6.290745408612061, 50.897661243357973 ] } },
{ "type": "Feature", "properties": { "strassenschluessel": "05358000000404379", "bezeichnung": "Köttenicher Mühle" }, "geometry": { "type": "Point", "coordinates": [ 6.289036847063598, 50.903423823796722 ] } },
{ "type": "Feature", "properties": { "strassenschluessel": "05358000000404380", "bezeichnung": "Marienstraße" }, "geometry": { "type": "Point", "coordinates": [ 6.281660313480591, 50.896397092348536 ] } },
{ "type": "Feature", "properties": { "strassenschluessel": "05358000000404381", "bezeichnung": "Markfestehaus" }, "geometry": null },
{ "type": "Feature", "properties": { "strassenschluessel": "05358000000404382", "bezeichnung": "Markfestestraße" }, "geometry": { "type": "Point", "coordinates": [ 6.288256469759257, 50.894954095087144 ] } },
{ "type": "Feature", "properties": { "strassenschluessel": "05358000000404383", "bezeichnung": "Martin-Luther-Straße" }, "geometry": { "type": "Point", "coordinates": [ 6.285455916910493, 50.899026174041907 ] } },
{ "type": "Feature", "properties": { "strassenschluessel": "05358000000404384", "bezeichnung": "Martinusstraße" }, "geometry": { "type": "Point", "coordinates": [ 6.282722553507778, 50.896938360817316 ] } },
{ "type": "Feature", "properties": { "strassenschluessel": "05358000000404385", "bezeichnung": "Mittelweg" }, "geometry": { "type": "Point", "coordinates": [ 6.294952707151732, 50.89450704422643 ] } },
{ "type": "Feature", "properties": { "strassenschluessel": "05358000000404386", "bezeichnung": "Niedermerzer Straße" }, "geometry": { "type": "Point", "coordinates": [ 6.282156918124183, 50.892956621734001 ] } },
{ "type": "Feature", "properties": { "strassenschluessel": "05358000000404387", "bezeichnung": "Ostring" }, "geometry": { "type": "Point", "coordinates": [ 6.297385818921913, 50.896924365428582 ] } },
{ "type": "Feature", "properties": { "strassenschluessel": "05358000000404388", "bezeichnung": "An der Bergmühle" }, "geometry": { "type": "Point", "coordinates": [ 6.2808884231681, 50.887073577278542 ] } },
{ "type": "Feature", "properties": { "strassenschluessel": "05358000000404389", "bezeichnung": "Pestalozziring" }, "geometry": { "type": "Point", "coordinates": [ 6.293495801997115, 50.898085374837059 ] } },
{ "type": "Feature", "properties": { "strassenschluessel": "05358000000404390", "bezeichnung": "Probsteistraße" }, "geometry": { "type": "Point", "coordinates": [ 6.282737305921197, 50.898904257931477 ] } },
{ "type": "Feature", "properties": { "strassenschluessel": "05358000000404391", "bezeichnung": "Pützdorfer Straße" }, "geometry": { "type": "Point", "coordinates": [ 6.29013902797452, 50.893659758685359 ] } },
{ "type": "Feature", "properties": { "strassenschluessel": "05358000000404392", "bezeichnung": "Saarstraße" }, "geometry": { "type": "Point", "coordinates": [ 6.293950089974865, 50.89915610977431 ] } },
{ "type": "Feature", "properties": { "strassenschluessel": "05358000000404393", "bezeichnung": "Sudetenstraße" }, "geometry": { "type": "Point", "coordinates": [ 6.294834759406365, 50.897405281655956 ] } },
{ "type": "Feature", "properties": { "strassenschluessel": "05358000000404394", "bezeichnung": "Schwanenstraße" }, "geometry": { "type": "Point", "coordinates": [ 6.287857377805588, 50.898196865911565 ] } },
{ "type": "Feature", "properties": { "strassenschluessel": "05358000000404395", "bezeichnung": "Theodor-Hürth-Straße" }, "geometry": { "type": "Point", "coordinates": [ 6.278730235859284, 50.895588821028603 ] } },
{ "type": "Feature", "properties": { "strassenschluessel": "05358000000404396", "bezeichnung": "Uhlandstraße" }, "geometry": { "type": "Point", "coordinates": [ 6.285112214881405, 50.899306582840445 ] } },
{ "type": "Feature", "properties": { "strassenschluessel": "05358000000404397", "bezeichnung": "Urweg" }, "geometry": { "type": "Point", "coordinates": [ 6.295513221582707, 50.894811261289306 ] } },
{ "type": "Feature", "properties": { "strassenschluessel": "05358000000404398", "bezeichnung": "Von-Pforzheim-Straße" }, "geometry": { "type": "Point", "coordinates": [ 6.279498322367544, 50.896389708315127 ] } },
{ "type": "Feature", "properties": { "strassenschluessel": "05358000000404399", "bezeichnung": "Westring" }, "geometry": { "type": "Point", "coordinates": [ 6.292111058291026, 50.895127262905284 ] } },
{ "type": "Feature", "properties": { "strassenschluessel": "05358000000404400", "bezeichnung": "Wiesenstraße" }, "geometry": { "type": "Point", "coordinates": [ 6.288044072531375, 50.897585140055575 ] } },
{ "type": "Feature", "properties": { "strassenschluessel": "05358000000404401", "bezeichnung": "Zehnthofstraße" }, "geometry": { "type": "Point", "coordinates": [ 6.287304241685973, 50.8900872922788 ] } },
{ "type": "Feature", "properties": { "strassenschluessel": "05358000000404402", "bezeichnung": "Fritz-Erler-Ring" }, "geometry": { "type": "Point", "coordinates": [ 6.290611875574888, 50.893132704536363 ] } },
{ "type": "Feature", "properties": { "strassenschluessel": "05358000000404403", "bezeichnung": "Patterner Ring" }, "geometry": { "type": "Point", "coordinates": [ 6.276870651459164, 50.887850907315404 ] } },
{ "type": "Feature", "properties": { "strassenschluessel": "05358000000404404", "bezeichnung": "Konrad-Adenauer-Straße" }, "geometry": { "type": "Point", "coordinates": [ 6.273589977566018, 50.890646174487387 ] } },
{ "type": "Feature", "properties": { "strassenschluessel": "05358000000404405", "bezeichnung": "Am Alten Bahnhof" }, "geometry": { "type": "Point", "coordinates": [ 6.275954510699407, 50.890098549342504 ] } },
{ "type": "Feature", "properties": { "strassenschluessel": "05358000000404406", "bezeichnung": "Geusenstraße" }, "geometry": { "type": "Point", "coordinates": [ 6.274091360369035, 50.889627417566125 ] } },
{ "type": "Feature", "properties": { "strassenschluessel": "05358000000404407", "bezeichnung": "Geuenicher Straße" }, "geometry": { "type": "Point", "coordinates": [ 6.274507608251702, 50.889840379621326 ] } },
{ "type": "Feature", "properties": { "strassenschluessel": "05358000000404408", "bezeichnung": "Karl-Arnold-Ring" }, "geometry": { "type": "Point", "coordinates": [ 6.27522759637875, 50.888058834865291 ] } },
{ "type": "Feature", "properties": { "strassenschluessel": "05358000000404409", "bezeichnung": "Matthäus Straße" }, "geometry": { "type": "Point", "coordinates": [ 6.277266392675926, 50.890198903136792 ] } },
{ "type": "Feature", "properties": { "strassenschluessel": "05358000000404410", "bezeichnung": "Hof Küpper" }, "geometry": null },
{ "type": "Feature", "properties": { "strassenschluessel": "05358000000404411", "bezeichnung": "Neu Patterner Hof" }, "geometry": null },
{ "type": "Feature", "properties": { "strassenschluessel": "05358000000404412", "bezeichnung": "Am Römerpark" }, "geometry": { "type": "Point", "coordinates": [ 6.280740043303915, 50.88778593771395 ] } },
{ "type": "Feature", "properties": { "strassenschluessel": "05358000000404416", "bezeichnung": "An den Pferdsbenden" }, "geometry": { "type": "Point", "coordinates": [ 6.269040471158565, 50.884466696850069 ] } },
{ "type": "Feature", "properties": { "strassenschluessel": "05358000000404417", "bezeichnung": "Am Feldrain" }, "geometry": { "type": "Point", "coordinates": [ 6.263531541540484, 50.884533356336021 ] } },
{ "type": "Feature", "properties": { "strassenschluessel": "05358000000404418", "bezeichnung": "Am Wiesenhang" }, "geometry": { "type": "Point", "coordinates": [ 6.26400033286231, 50.884005521185003 ] } },
{ "type": "Feature", "properties": { "strassenschluessel": "05358000000404419", "bezeichnung": "Feldkamp" }, "geometry": { "type": "Point", "coordinates": [ 6.266272216047083, 50.884947738083646 ] } },
{ "type": "Feature", "properties": { "strassenschluessel": "05358000000404420", "bezeichnung": "Postgasse" }, "geometry": { "type": "Point", "coordinates": [ 6.267605301417162, 50.883739133720887 ] } },
{ "type": "Feature", "properties": { "strassenschluessel": "05358000000404421", "bezeichnung": "Weiler Langweiler" }, "geometry": { "type": "Point", "coordinates": [ 6.238491737753868, 50.875166609046438 ] } },
{ "type": "Feature", "properties": { "strassenschluessel": "05358000000404422", "bezeichnung": "Am Biemerhof" }, "geometry": { "type": "Point", "coordinates": [ 6.252689476803142, 50.904199482850316 ] } },
{ "type": "Feature", "properties": { "strassenschluessel": "05358000000404423", "bezeichnung": "Burgstraße" }, "geometry": { "type": "Point", "coordinates": [ 6.257006347382691, 50.904947853082504 ] } },
{ "type": "Feature", "properties": { "strassenschluessel": "05358000000404424", "bezeichnung": "Geilenkirchener Straße" }, "geometry": { "type": "Point", "coordinates": [ 6.262138740182424, 50.90548927302649 ] } },
{ "type": "Feature", "properties": { "strassenschluessel": "05358000000404425", "bezeichnung": "Germaniaplatz" }, "geometry": { "type": "Point", "coordinates": [ 6.256061215814238, 50.905339197795172 ] } },
{ "type": "Feature", "properties": { "strassenschluessel": "05358000000404426", "bezeichnung": "Gut Ungershausen" }, "geometry": { "type": "Point", "coordinates": [ 6.261939383786031, 50.915542249861218 ] } },
{ "type": "Feature", "properties": { "strassenschluessel": "05358000000404427", "bezeichnung": "Heerstraße" }, "geometry": { "type": "Point", "coordinates": [ 6.259942751435427, 50.904560218219906 ] } },
{ "type": "Feature", "properties": { "strassenschluessel": "05358000000404428", "bezeichnung": "Maarstraße" }, "geometry": { "type": "Point", "coordinates": [ 6.256661223566762, 50.907785884441196 ] } },
{ "type": "Feature", "properties": { "strassenschluessel": "05358000000404429", "bezeichnung": "St.-Ursula-Straße" }, "geometry": { "type": "Point", "coordinates": [ 6.253230749026452, 50.907358881607784 ] } },
{ "type": "Feature", "properties": { "strassenschluessel": "05358000000404430", "bezeichnung": "Engelsdorfer Burg" }, "geometry": { "type": "Point", "coordinates": [ 6.299069951581351, 50.91658868416161 ] } },
{ "type": "Feature", "properties": { "strassenschluessel": "05358000000404431", "bezeichnung": "Koslarer Straße" }, "geometry": { "type": "Point", "coordinates": [ 6.300745673485979, 50.916256710626968 ] } },
{ "type": "Feature", "properties": { "strassenschluessel": "05358000000404432", "bezeichnung": "Lerchenweg" }, "geometry": { "type": "Point", "coordinates": [ 6.300308374684835, 50.915260039658783 ] } },
{ "type": "Feature", "properties": { "strassenschluessel": "05358000000404433", "bezeichnung": "Althoffstraße" }, "geometry": { "type": "Point", "coordinates": [ 6.24438198119201, 50.928502293445185 ] } },
{ "type": "Feature", "properties": { "strassenschluessel": "05358000000404434", "bezeichnung": "Am Münsterhof" }, "geometry": { "type": "Point", "coordinates": [ 6.250065597991051, 50.929591284143704 ] } },
{ "type": "Feature", "properties": { "strassenschluessel": "05358000000404435", "bezeichnung": "Am Sportplatz" }, "geometry": { "type": "Point", "coordinates": [ 6.251253335695474, 50.932155027308355 ] } },
{ "type": "Feature", "properties": { "strassenschluessel": "05358000000404436", "bezeichnung": "Dorfstraße" }, "geometry": { "type": "Point", "coordinates": [ 6.24424194390066, 50.926751469257383 ] } },
{ "type": "Feature", "properties": { "strassenschluessel": "05358000000404437", "bezeichnung": "Ederener Straße" }, "geometry": { "type": "Point", "coordinates": [ 6.248915380376756, 50.930412789099194 ] } },
{ "type": "Feature", "properties": { "strassenschluessel": "05358000000404438", "bezeichnung": "Friedhofstraße" }, "geometry": { "type": "Point", "coordinates": [ 6.252551230470848, 50.928863282151056 ] } },
{ "type": "Feature", "properties": { "strassenschluessel": "05358000000404439", "bezeichnung": "Hüsgenstraße" }, "geometry": { "type": "Point", "coordinates": [ 6.253085176847685, 50.926568002720018 ] } },
{ "type": "Feature", "properties": { "strassenschluessel": "05358000000404440", "bezeichnung": "Im Hühnerkamp" }, "geometry": { "type": "Point", "coordinates": [ 6.246972471382445, 50.926423042792251 ] } },
{ "type": "Feature", "properties": { "strassenschluessel": "05358000000404441", "bezeichnung": "Im Weidenpesch" }, "geometry": { "type": "Point", "coordinates": [ 6.245873277639739, 50.927278435583823 ] } },
{ "type": "Feature", "properties": { "strassenschluessel": "05358000000404442", "bezeichnung": "Mauritiusstraße" }, "geometry": { "type": "Point", "coordinates": [ 6.252104549919228, 50.928719633039961 ] } },
{ "type": "Feature", "properties": { "strassenschluessel": "05358000000404443", "bezeichnung": "Pastoratsstraße" }, "geometry": { "type": "Point", "coordinates": [ 6.251601671074122, 50.92844824656715 ] } },
{ "type": "Feature", "properties": { "strassenschluessel": "05358000000404444", "bezeichnung": "Römerstraße" }, "geometry": { "type": "Point", "coordinates": [ 6.254712413041227, 50.926109708270339 ] } },
{ "type": "Feature", "properties": { "strassenschluessel": "05358000000404445", "bezeichnung": "Sandgracht" }, "geometry": { "type": "Point", "coordinates": [ 6.246135703874481, 50.927413622912191 ] } },
{ "type": "Feature", "properties": { "strassenschluessel": "05358000000404446", "bezeichnung": "Schanzstraße" }, "geometry": { "type": "Point", "coordinates": [ 6.251210311102716, 50.92946397778163 ] } },
{ "type": "Feature", "properties": { "strassenschluessel": "05358000000404447", "bezeichnung": "Schugweg" }, "geometry": { "type": "Point", "coordinates": [ 6.24759608683026, 50.930015591846107 ] } },
{ "type": "Feature", "properties": { "strassenschluessel": "05358000000404448", "bezeichnung": "Schulstraße" }, "geometry": { "type": "Point", "coordinates": [ 6.255544299171155, 50.928408208544809 ] } },
{ "type": "Feature", "properties": { "strassenschluessel": "05358000000404449", "bezeichnung": "Vikariestraße" }, "geometry": { "type": "Point", "coordinates": [ 6.251161079206499, 50.927456812608625 ] } },
{ "type": "Feature", "properties": { "strassenschluessel": "05358000000404450", "bezeichnung": "Am Merzbach" }, "geometry": { "type": "Point", "coordinates": [ 6.262848381494837, 50.879817245734834 ] } },
{ "type": "Feature", "properties": { "strassenschluessel": "05358000000404451", "bezeichnung": "Driesch" }, "geometry": { "type": "Point", "coordinates": [ 6.269461419548358, 50.883784323523088 ] } },
{ "type": "Feature", "properties": { "strassenschluessel": "05358000000404452", "bezeichnung": "Dürboslarer Straße" }, "geometry": { "type": "Point", "coordinates": [ 6.265754220460021, 50.88432143517511 ] } },
{ "type": "Feature", "properties": { "strassenschluessel": "05358000000404453", "bezeichnung": "Hausener Weg" }, "geometry": { "type": "Point", "coordinates": [ 6.265185200416988, 50.877973638446626 ] } },
{ "type": "Feature", "properties": { "strassenschluessel": "05358000000404454", "bezeichnung": "Hofbongardstraße" }, "geometry": { "type": "Point", "coordinates": [ 6.264139603598999, 50.880253876490606 ] } },
{ "type": "Feature", "properties": { "strassenschluessel": "05358000000404455", "bezeichnung": "In der Gracht" }, "geometry": { "type": "Point", "coordinates": [ 6.26867732732287, 50.88036876222143 ] } },
{ "type": "Feature", "properties": { "strassenschluessel": "05358000000404456", "bezeichnung": "Johannesstraße" }, "geometry": { "type": "Point", "coordinates": [ 6.266280463450354, 50.883405509400703 ] } },
{ "type": "Feature", "properties": { "strassenschluessel": "05358000000404457", "bezeichnung": "Langweilerstraße" }, "geometry": { "type": "Point", "coordinates": [ 6.265335875485203, 50.88322613129921 ] } },
{ "type": "Feature", "properties": { "strassenschluessel": "05358000000404458", "bezeichnung": "Laurenzberger Straße" }, "geometry": { "type": "Point", "coordinates": [ 6.264484148352864, 50.878119969080146 ] } },
{ "type": "Feature", "properties": { "strassenschluessel": "05358000000404459", "bezeichnung": "Teutonenstraße" }, "geometry": { "type": "Point", "coordinates": [ 6.266796226926908, 50.882904974805406 ] } },
{ "type": "Feature", "properties": { "strassenschluessel": "05358000000404460", "bezeichnung": "Von-Paland-Straße" }, "geometry": { "type": "Point", "coordinates": [ 6.270476420199862, 50.885641020604943 ] } },
{ "type": "Feature", "properties": { "strassenschluessel": "05358000000404461", "bezeichnung": "Altdorfer Straße" }, "geometry": null },
{ "type": "Feature", "properties": { "strassenschluessel": "05358000000404462", "bezeichnung": "Dürener Straße" }, "geometry": null },
{ "type": "Feature", "properties": { "strassenschluessel": "05358000000404463", "bezeichnung": "Eschweiler Landstraße" }, "geometry": null },
{ "type": "Feature", "properties": { "strassenschluessel": "05358000000404464", "bezeichnung": "Geuenicher Weg" }, "geometry": null },
{ "type": "Feature", "properties": { "strassenschluessel": "05358000000404465", "bezeichnung": "Geusenstraße" }, "geometry": null },
{ "type": "Feature", "properties": { "strassenschluessel": "05358000000404466", "bezeichnung": "Indener Straße" }, "geometry": null },
{ "type": "Feature", "properties": { "strassenschluessel": "05358000000404467", "bezeichnung": "Kochsgasse" }, "geometry": null },
{ "type": "Feature", "properties": { "strassenschluessel": "05358000000404468", "bezeichnung": "St.-Matthäus-Straße" }, "geometry": null },
{ "type": "Feature", "properties": { "strassenschluessel": "05358000000404469", "bezeichnung": "Am Krichelberg" }, "geometry": { "type": "Point", "coordinates": [ 6.240512487129064, 50.884317979669312 ] } },
{ "type": "Feature", "properties": { "strassenschluessel": "05358000000404470", "bezeichnung": "Am Nonnenhof" }, "geometry": { "type": "Point", "coordinates": [ 6.246216209947723, 50.884755471601743 ] } },
{ "type": "Feature", "properties": { "strassenschluessel": "05358000000404471", "bezeichnung": "Birkenweg" }, "geometry": { "type": "Point", "coordinates": [ 6.243840174471345, 50.886015347943143 ] } },
{ "type": "Feature", "properties": { "strassenschluessel": "05358000000404472", "bezeichnung": "Buchenweg" }, "geometry": { "type": "Point", "coordinates": [ 6.243423884381584, 50.886394689092576 ] } },
{ "type": "Feature", "properties": { "strassenschluessel": "05358000000404473", "bezeichnung": "Dreilindenstraße" }, "geometry": { "type": "Point", "coordinates": [ 6.23961598697737, 50.882662124328618 ] } },
{ "type": "Feature", "properties": { "strassenschluessel": "05358000000404474", "bezeichnung": "Große Heide" }, "geometry": { "type": "Point", "coordinates": [ 6.248515619494873, 50.886394793637976 ] } },
{ "type": "Feature", "properties": { "strassenschluessel": "05358000000404475", "bezeichnung": "Im Doppeland" }, "geometry": { "type": "Point", "coordinates": [ 6.241220947467417, 50.885306265604783 ] } },
{ "type": "Feature", "properties": { "strassenschluessel": "05358000000404476", "bezeichnung": "Landstraße" }, "geometry": { "type": "Point", "coordinates": [ 6.244410368946015, 50.882387005638662 ] } },
{ "type": "Feature", "properties": { "strassenschluessel": "05358000000404477", "bezeichnung": "Mörserstraße" }, "geometry": { "type": "Point", "coordinates": [ 6.238764064004974, 50.887502807106131 ] } },
{ "type": "Feature", "properties": { "strassenschluessel": "05358000000404478", "bezeichnung": "Nikolausstraße" }, "geometry": { "type": "Point", "coordinates": [ 6.243844941036308, 50.885169571981088 ] } },
{ "type": "Feature", "properties": { "strassenschluessel": "05358000000404479", "bezeichnung": "Obermerzer Straße" }, "geometry": { "type": "Point", "coordinates": [ 6.245316572842428, 50.882848039363886 ] } },
{ "type": "Feature", "properties": { "strassenschluessel": "05358000000404480", "bezeichnung": "Siersdorfer Straße" }, "geometry": { "type": "Point", "coordinates": [ 6.237943353509426, 50.885982585282171 ] } },
{ "type": "Feature", "properties": { "strassenschluessel": "05358000000404481", "bezeichnung": "Schützenstraße" }, "geometry": { "type": "Point", "coordinates": [ 6.240468172450782, 50.887798341855635 ] } },
{ "type": "Feature", "properties": { "strassenschluessel": "05358000000404482", "bezeichnung": "Albert-Schweitzer-Straße" }, "geometry": { "type": "Point", "coordinates": [ 6.224694307645957, 50.899883544010621 ] } },
{ "type": "Feature", "properties": { "strassenschluessel": "05358000000404483", "bezeichnung": "Altenbiesenstraße" }, "geometry": { "type": "Point", "coordinates": [ 6.23117628297495, 50.901779481181983 ] } },
{ "type": "Feature", "properties": { "strassenschluessel": "05358000000404484", "bezeichnung": "Am Steinacker" }, "geometry": { "type": "Point", "coordinates": [ 6.22471056513262, 50.895275718114114 ] } },
{ "type": "Feature", "properties": { "strassenschluessel": "05358000000404485", "bezeichnung": "Am Wittstock" }, "geometry": { "type": "Point", "coordinates": [ 6.232406143138117, 50.901537020850739 ] } },
{ "type": "Feature", "properties": { "strassenschluessel": "05358000000404486", "bezeichnung": "Bettendorfer Straße" }, "geometry": { "type": "Point", "coordinates": [ 6.22063030397746, 50.894215977591507 ] } },
{ "type": "Feature", "properties": { "strassenschluessel": "05358000000404487", "bezeichnung": "Elsa-Brändström-Straße" }, "geometry": { "type": "Point", "coordinates": [ 6.230906658425813, 50.895860610758952 ] } },
{ "type": "Feature", "properties": { "strassenschluessel": "05358000000404488", "bezeichnung": "Englerthstraße" }, "geometry": { "type": "Point", "coordinates": [ 6.230786204730924, 50.899658792702837 ] } },
{ "type": "Feature", "properties": { "strassenschluessel": "05358000000404489", "bezeichnung": "Auf dem Schimmel" }, "geometry": { "type": "Point", "coordinates": [ 6.219803640826356, 50.894631898309086 ] } },
{ "type": "Feature", "properties": { "strassenschluessel": "05358000000404490", "bezeichnung": "Friedensstraße" }, "geometry": { "type": "Point", "coordinates": [ 6.232353058264001, 50.896309918976584 ] } },
{ "type": "Feature", "properties": { "strassenschluessel": "05358000000404491", "bezeichnung": "Fronhofstraße" }, "geometry": { "type": "Point", "coordinates": [ 6.221288580051825, 50.898699079617579 ] } },
{ "type": "Feature", "properties": { "strassenschluessel": "05358000000404492", "bezeichnung": "Gerhard-Heusch-Platz" }, "geometry": { "type": "Point", "coordinates": [ 6.230179336680778, 50.901407483291301 ] } },
{ "type": "Feature", "properties": { "strassenschluessel": "05358000000404493", "bezeichnung": "Graeserstraße" }, "geometry": { "type": "Point", "coordinates": [ 6.232074352844238, 50.899501506362363 ] } },
{ "type": "Feature", "properties": { "strassenschluessel": "05358000000404494", "bezeichnung": "Grünstr." }, "geometry": { "type": "Point", "coordinates": [ 6.22507602774853, 50.894693416736018 ] } },
{ "type": "Feature", "properties": { "strassenschluessel": "05358000000404495", "bezeichnung": "Heidgasse" }, "geometry": { "type": "Point", "coordinates": [ 6.224234710018997, 50.903851894029103 ] } },
{ "type": "Feature", "properties": { "strassenschluessel": "05358000000404496", "bezeichnung": "Heim Heidgasse" }, "geometry": null },
{ "type": "Feature", "properties": { "strassenschluessel": "05358000000404497", "bezeichnung": "Heinrich-Franken-Straße" }, "geometry": { "type": "Point", "coordinates": [ 6.22935643024675, 50.899708361702864 ] } },
{ "type": "Feature", "properties": { "strassenschluessel": "05358000000404498", "bezeichnung": "Hoengener Weg" }, "geometry": { "type": "Point", "coordinates": [ 6.218396287160638, 50.893278736282255 ] } },
{ "type": "Feature", "properties": { "strassenschluessel": "05358000000404499", "bezeichnung": "Honigmannstraße" }, "geometry": { "type": "Point", "coordinates": [ 6.232717246242141, 50.900081037569997 ] } },
{ "type": "Feature", "properties": { "strassenschluessel": "05358000000404500", "bezeichnung": "Kampstraße" }, "geometry": { "type": "Point", "coordinates": [ 6.223880310853587, 50.894924009568015 ] } },
{ "type": "Feature", "properties": { "strassenschluessel": "05358000000404501", "bezeichnung": "Kirchstraße" }, "geometry": { "type": "Point", "coordinates": [ 6.22332820519626, 50.899667983657423 ] } },
{ "type": "Feature", "properties": { "strassenschluessel": "05358000000404502", "bezeichnung": "Lanzenweg" }, "geometry": { "type": "Point", "coordinates": [ 6.219882726681355, 50.896843756606934 ] } },
{ "type": "Feature", "properties": { "strassenschluessel": "05358000000404503", "bezeichnung": "Lindenstraße" }, "geometry": { "type": "Point", "coordinates": [ 6.226469596293271, 50.894819293962108 ] } },
{ "type": "Feature", "properties": { "strassenschluessel": "05358000000404504", "bezeichnung": "Marktstraße" }, "geometry": { "type": "Point", "coordinates": [ 6.225789301450606, 50.897544421454704 ] } },
{ "type": "Feature", "properties": { "strassenschluessel": "05358000000404505", "bezeichnung": "Mühlenstraße" }, "geometry": { "type": "Point", "coordinates": [ 6.22616693152404, 50.89743673841997 ] } },
{ "type": "Feature", "properties": { "strassenschluessel": "05358000000404506", "bezeichnung": "Oidtweiler Weg" }, "geometry": { "type": "Point", "coordinates": [ 6.219585032585803, 50.89519390162765 ] } },
{ "type": "Feature", "properties": { "strassenschluessel": "05358000000404507", "bezeichnung": "Pützgracht" }, "geometry": { "type": "Point", "coordinates": [ 6.225654453973836, 50.897154482775548 ] } },
{ "type": "Feature", "properties": { "strassenschluessel": "05358000000404508", "bezeichnung": "St.-Georg-Str." }, "geometry": { "type": "Point", "coordinates": [ 6.222984367925595, 50.896286771345139 ] } },
{ "type": "Feature", "properties": { "strassenschluessel": "05358000000404509", "bezeichnung": "Stanislaus-Klemme-Straße" }, "geometry": { "type": "Point", "coordinates": [ 6.226032548358757, 50.900622652024026 ] } },
{ "type": "Feature", "properties": { "strassenschluessel": "05358000000404510", "bezeichnung": "Südstraße" }, "geometry": { "type": "Point", "coordinates": [ 6.2229434262851, 50.894281292848078 ] } },
{ "type": "Feature", "properties": { "strassenschluessel": "05358000000404511", "bezeichnung": "Schleidener Straße" }, "geometry": { "type": "Point", "coordinates": [ 6.226584623477997, 50.896890286379744 ] } },
{ "type": "Feature", "properties": { "strassenschluessel": "05358000000404512", "bezeichnung": "Verbindungsstraße" }, "geometry": { "type": "Point", "coordinates": [ 6.222714530813945, 50.894873189490717 ] } },
{ "type": "Feature", "properties": { "strassenschluessel": "05358000000404513", "bezeichnung": "Volkwinstraße" }, "geometry": { "type": "Point", "coordinates": [ 6.228813745458854, 50.902125588262528 ] } },
{ "type": "Feature", "properties": { "strassenschluessel": "05358000000404514", "bezeichnung": "Von-Goer-Straße" }, "geometry": { "type": "Point", "coordinates": [ 6.228408981855025, 50.901763601596407 ] } },
{ "type": "Feature", "properties": { "strassenschluessel": "05358000000404515", "bezeichnung": "Von-Reuschenberg-Straße" }, "geometry": { "type": "Point", "coordinates": [ 6.230111369361176, 50.902036854646873 ] } },
{ "type": "Feature", "properties": { "strassenschluessel": "05358000000404516", "bezeichnung": "Von-Rump-Straße" }, "geometry": { "type": "Point", "coordinates": [ 6.230563811079485, 50.902684994188171 ] } },
{ "type": "Feature", "properties": { "strassenschluessel": "05358000000404517", "bezeichnung": "Im Schleidener Thal" }, "geometry": { "type": "Point", "coordinates": [ 6.231971648729942, 50.89507107330455 ] } },
{ "type": "Feature", "properties": { "strassenschluessel": "05358000000404518", "bezeichnung": "Röttgens Weg" }, "geometry": null },
{ "type": "Feature", "properties": { "strassenschluessel": "05358000000404519", "bezeichnung": "Im Lohfeld" }, "geometry": { "type": "Point", "coordinates": [ 6.233581164150365, 50.901416017175862 ] } },
{ "type": "Feature", "properties": { "strassenschluessel": "05358000000404520", "bezeichnung": "Pfarrer-Steffens-Ring" }, "geometry": { "type": "Point", "coordinates": [ 6.234466710937193, 50.90055577499961 ] } },
{ "type": "Feature", "properties": { "strassenschluessel": "05358000000404521", "bezeichnung": "Industriepark E. Mayrisch" }, "geometry": null },
{ "type": "Feature", "properties": { "strassenschluessel": "05358000000404522", "bezeichnung": "Im Uhrfeld" }, "geometry": { "type": "Point", "coordinates": [ 6.234195659320765, 50.897261787730599 ] } },
{ "type": "Feature", "properties": { "strassenschluessel": "05358000000404523", "bezeichnung": "Galileo-Allee" }, "geometry": { "type": "Point", "coordinates": [ 6.230189826927663, 50.908921002503298 ] } },
{ "type": "Feature", "properties": { "strassenschluessel": "05358000000404524", "bezeichnung": "Michel-Ernst-Straße" }, "geometry": { "type": "Point", "coordinates": [ 6.226590529240714, 50.895542401615124 ] } },
{ "type": "Feature", "properties": { "strassenschluessel": "05358000000404525", "bezeichnung": "Maria-Paula-Emunds-Str." }, "geometry": { "type": "Point", "coordinates": [ 6.23901080072773, 50.885742194141329 ] } },
{ "type": "Feature", "properties": { "strassenschluessel": "05358000000404526", "bezeichnung": "Apfelweg" }, "geometry": null },
{ "type": "Feature", "properties": { "strassenschluessel": "05358000000404530", "bezeichnung": "Weiler Hausen" }, "geometry": { "type": "Point", "coordinates": [ 6.266684533313367, 50.871066633181549 ] } },
{ "type": "Feature", "properties": { "strassenschluessel": "05358000000404531", "bezeichnung": "Mies-van-der-Rohe-Str." }, "geometry": { "type": "Point", "coordinates": [ 6.27160400279034, 50.884729984171585 ] } },
{ "type": "Feature", "properties": { "strassenschluessel": "05358000000404532", "bezeichnung": "Marcel-Breuer-Str." }, "geometry": { "type": "Point", "coordinates": [ 6.270448828274811, 50.884967567283162 ] } },
{ "type": "Feature", "properties": { "strassenschluessel": "05358000000404533", "bezeichnung": "Am Aldenhovener Weg" }, "geometry": { "type": "Point", "coordinates": [ 6.267318598359238, 50.886146206609737 ] } },
{ "type": "Feature", "properties": { "strassenschluessel": "05358000000404535", "bezeichnung": "Alte Bundesstraße" }, "geometry": { "type": "Point", "coordinates": [ 6.272888203934419, 50.892282861028718 ] } },
{ "type": "Feature", "properties": { "strassenschluessel": "05358000000404536", "bezeichnung": "Rössener Ring" }, "geometry": { "type": "Point", "coordinates": [ 6.28156703272461, 50.890125556826227 ] } },
{ "type": "Feature", "properties": { "strassenschluessel": "05358000000404537", "bezeichnung": "Am Schwanenkamp" }, "geometry": { "type": "Point", "coordinates": [ 6.281274846602251, 50.88951411268247 ] } },
{ "type": "Feature", "properties": { "strassenschluessel": "05358000000404538", "bezeichnung": "Käthe-Kollwitz-Ring" }, "geometry": { "type": "Point", "coordinates": [ 6.294802996322233, 50.895782098297879 ] } },
{ "type": "Feature", "properties": { "strassenschluessel": "05358000000404539", "bezeichnung": "Ohne festen Wohnsitz" }, "geometry": null },
{ "type": "Feature", "properties": { "strassenschluessel": "05358000000404540", "bezeichnung": "Heinrichshof" }, "geometry": { "type": "Point", "coordinates": [ 6.290864384480683, 50.901369978500107 ] } },
{ "type": "Feature", "properties": { "strassenschluessel": "05358000000404541", "bezeichnung": "Im Klostergarten" }, "geometry": { "type": "Point", "coordinates": [ 6.282141730073591, 50.893428365183958 ] } },
{ "type": "Feature", "properties": { "strassenschluessel": "05358000000404542", "bezeichnung": "Am Weidberg" }, "geometry": { "type": "Point", "coordinates": [ 6.300828365792791, 50.914968355797363 ] } },
{ "type": "Feature", "properties": { "strassenschluessel": "05358000000404543", "bezeichnung": "Auf dem Kamp" }, "geometry": { "type": "Point", "coordinates": [ 6.301204741926604, 50.915337739406532 ] } },
{ "type": "Feature", "properties": { "strassenschluessel": "05358000000404544", "bezeichnung": "Am Sägewerk" }, "geometry": { "type": "Point", "coordinates": [ 6.277949170388373, 50.890978328394056 ] } },
{ "type": "Feature", "properties": { "strassenschluessel": "05358000000404545", "bezeichnung": "Ferdinand-Schmidt-Straße" }, "geometry": { "type": "Point", "coordinates": [ 6.27789548266648, 50.891849250272784 ] } },
{ "type": "Feature", "properties": { "strassenschluessel": "05358000000404546", "bezeichnung": "Lilienweg" }, "geometry": { "type": "Point", "coordinates": [ 6.226388095848489, 50.896086029372441 ] } },
{ "type": "Feature", "properties": { "strassenschluessel": "05358000000404548", "bezeichnung": "Heinrich-Hens-Straße" }, "geometry": { "type": "Point", "coordinates": [ 6.254985130039131, 50.908224631185298 ] } },
{ "type": "Feature", "properties": { "strassenschluessel": "05358000000404549", "bezeichnung": "Engelsdorfer Hof" }, "geometry": { "type": "Point", "coordinates": [ 6.300856225216562, 50.913039543660204 ] } },
{ "type": "Feature", "properties": { "strassenschluessel": "05358000000409999", "bezeichnung": "Pseudostraße" }, "geometry": { "type": "Point", "coordinates": [ 6.254673410652091, 50.929633536938887 ] } }
]
}
