{
"type": "FeatureCollection",
"features": [
{ "type": "Feature", "properties": { "strassenschluessel": "05334000000401001", "bezeichnung": "Albrecht-Dürer-Straße" }, "geometry": { "type": "Point", "coordinates": [ 6.164263381692908, 50.871908585610413 ] } },
{ "type": "Feature", "properties": { "strassenschluessel": "05334000000401002", "bezeichnung": "Alte Luisenstraße" }, "geometry": { "type": "Point", "coordinates": [ 6.162354506492126, 50.873381421799692 ] } },
{ "type": "Feature", "properties": { "strassenschluessel": "05334000000401004", "bezeichnung": "Bahnhofstraße" }, "geometry": { "type": "Point", "coordinates": [ 6.159194873141296, 50.871494912690714 ] } },
{ "type": "Feature", "properties": { "strassenschluessel": "05334000000401005", "bezeichnung": "Otto-Wels-Straße" }, "geometry": { "type": "Point", "coordinates": [ 6.168277301275812, 50.877918518562197 ] } },
{ "type": "Feature", "properties": { "strassenschluessel": "05334000000401006", "bezeichnung": "Broicher Straße" }, "geometry": { "type": "Point", "coordinates": [ 6.16004710387086, 50.866215889810931 ] } },
{ "type": "Feature", "properties": { "strassenschluessel": "05334000000401007", "bezeichnung": "Denkmalplatz" }, "geometry": { "type": "Point", "coordinates": [ 6.160707110366399, 50.873789988367143 ] } },
{ "type": "Feature", "properties": { "strassenschluessel": "05334000000401008", "bezeichnung": "Grenzweg" }, "geometry": { "type": "Point", "coordinates": [ 6.163464778381025, 50.870114257818713 ] } },
{ "type": "Feature", "properties": { "strassenschluessel": "05334000000401009", "bezeichnung": "Hubertusstraße" }, "geometry": { "type": "Point", "coordinates": [ 6.167232961823897, 50.874271235360538 ] } },
{ "type": "Feature", "properties": { "strassenschluessel": "05334000000401010", "bezeichnung": "Körnerstraße" }, "geometry": { "type": "Point", "coordinates": [ 6.163241461413663, 50.877197420575669 ] } },
{ "type": "Feature", "properties": { "strassenschluessel": "05334000000401011", "bezeichnung": "Luisenstraße" }, "geometry": { "type": "Point", "coordinates": [ 6.176922156147631, 50.874683429940184 ] } },
{ "type": "Feature", "properties": { "strassenschluessel": "05334000000401012", "bezeichnung": "Martin-Luther-Straße" }, "geometry": { "type": "Point", "coordinates": [ 6.162738804100763, 50.872521239332727 ] } },
{ "type": "Feature", "properties": { "strassenschluessel": "05334000000401013", "bezeichnung": "Rathausstraße" }, "geometry": { "type": "Point", "coordinates": [ 6.161905732931901, 50.874539880358803 ] } },
{ "type": "Feature", "properties": { "strassenschluessel": "05334000000401014", "bezeichnung": "Rebenstraße" }, "geometry": { "type": "Point", "coordinates": [ 6.161129274868123, 50.870552362322044 ] } },
{ "type": "Feature", "properties": { "strassenschluessel": "05334000000401015", "bezeichnung": "Weinstraße" }, "geometry": { "type": "Point", "coordinates": [ 6.163537375176952, 50.871572519853004 ] } },
{ "type": "Feature", "properties": { "strassenschluessel": "05334000000401016", "bezeichnung": "Zollernstraße" }, "geometry": { "type": "Point", "coordinates": [ 6.162832831905226, 50.87035877761042 ] } },
{ "type": "Feature", "properties": { "strassenschluessel": "05334000000401017", "bezeichnung": "Bodelschwinghweg" }, "geometry": { "type": "Point", "coordinates": [ 6.164802336587553, 50.872635607193516 ] } },
{ "type": "Feature", "properties": { "strassenschluessel": "05334000000401018", "bezeichnung": "Saint-Brieuc-Platz" }, "geometry": null },
{ "type": "Feature", "properties": { "strassenschluessel": "05334000000401019", "bezeichnung": "Luisenhof" }, "geometry": { "type": "Point", "coordinates": [ 6.166783722342531, 50.873363870871707 ] } },
{ "type": "Feature", "properties": { "strassenschluessel": "05334000000401020", "bezeichnung": "An der Ziegelei" }, "geometry": { "type": "Point", "coordinates": [ 6.16417070343627, 50.870142982687049 ] } },
{ "type": "Feature", "properties": { "strassenschluessel": "05334000000401021", "bezeichnung": "Ahrweg" }, "geometry": { "type": "Point", "coordinates": [ 6.157509897259796, 50.877871715954967 ] } },
{ "type": "Feature", "properties": { "strassenschluessel": "05334000000401022", "bezeichnung": "An der Mariensäule" }, "geometry": { "type": "Point", "coordinates": [ 6.161354301490854, 50.877586610187095 ] } },
{ "type": "Feature", "properties": { "strassenschluessel": "05334000000401023", "bezeichnung": "Annastraße" }, "geometry": { "type": "Point", "coordinates": [ 6.161644757650635, 50.876050237913653 ] } },
{ "type": "Feature", "properties": { "strassenschluessel": "05334000000401024", "bezeichnung": "Burgstraße" }, "geometry": { "type": "Point", "coordinates": [ 6.162325712973911, 50.880065630111261 ] } },
{ "type": "Feature", "properties": { "strassenschluessel": "05334000000401025", "bezeichnung": "Cäcilienstraße" }, "geometry": { "type": "Point", "coordinates": [ 6.165230509054195, 50.878182979216071 ] } },
{ "type": "Feature", "properties": { "strassenschluessel": "05334000000401026", "bezeichnung": "Eckstraße" }, "geometry": { "type": "Point", "coordinates": [ 6.161837205306877, 50.877383661724458 ] } },
{ "type": "Feature", "properties": { "strassenschluessel": "05334000000401027", "bezeichnung": "Grünstraße" }, "geometry": { "type": "Point", "coordinates": [ 6.158630147164007, 50.878124721413045 ] } },
{ "type": "Feature", "properties": { "strassenschluessel": "05334000000401028", "bezeichnung": "In der Burgweid" }, "geometry": { "type": "Point", "coordinates": [ 6.163552227038403, 50.880548105748424 ] } },
{ "type": "Feature", "properties": { "strassenschluessel": "05334000000401029", "bezeichnung": "Castorstraße" }, "geometry": { "type": "Point", "coordinates": [ 6.162720793993496, 50.878268708402011 ] } },
{ "type": "Feature", "properties": { "strassenschluessel": "05334000000401030", "bezeichnung": "Lindenplatz" }, "geometry": { "type": "Point", "coordinates": [ 6.153455019327825, 50.876961365416129 ] } },
{ "type": "Feature", "properties": { "strassenschluessel": "05334000000401031", "bezeichnung": "Martinstraße" }, "geometry": { "type": "Point", "coordinates": [ 6.159698156687524, 50.876730217494604 ] } },
{ "type": "Feature", "properties": { "strassenschluessel": "05334000000401032", "bezeichnung": "Ohligsweg" }, "geometry": { "type": "Point", "coordinates": [ 6.160188978079479, 50.875189795426387 ] } },
{ "type": "Feature", "properties": { "strassenschluessel": "05334000000401033", "bezeichnung": "Am Falter" }, "geometry": { "type": "Point", "coordinates": [ 6.205418366042651, 50.871056314511833 ] } },
{ "type": "Feature", "properties": { "strassenschluessel": "05334000000401034", "bezeichnung": "Röntgenweg" }, "geometry": { "type": "Point", "coordinates": [ 6.160000479114625, 50.876361006116703 ] } },
{ "type": "Feature", "properties": { "strassenschluessel": "05334000000401035", "bezeichnung": "Robert-Koch-Straße" }, "geometry": { "type": "Point", "coordinates": [ 6.159091587127977, 50.876826892176332 ] } },
{ "type": "Feature", "properties": { "strassenschluessel": "05334000000401036", "bezeichnung": "Saarstraße" }, "geometry": { "type": "Point", "coordinates": [ 6.156706065098619, 50.878150071951069 ] } },
{ "type": "Feature", "properties": { "strassenschluessel": "05334000000401037", "bezeichnung": "Tischelkauler Weg" }, "geometry": { "type": "Point", "coordinates": [ 6.162608365261224, 50.880699398882257 ] } },
{ "type": "Feature", "properties": { "strassenschluessel": "05334000000401038", "bezeichnung": "Übacher Weg" }, "geometry": { "type": "Point", "coordinates": [ 6.15677300924173, 50.879281243464071 ] } },
{ "type": "Feature", "properties": { "strassenschluessel": "05334000000401039", "bezeichnung": "Von-Harff-Straße" }, "geometry": { "type": "Point", "coordinates": [ 6.163506896862685, 50.879834910945128 ] } },
{ "type": "Feature", "properties": { "strassenschluessel": "05334000000401040", "bezeichnung": "Kurt-Koblitz-Ring" }, "geometry": null },
{ "type": "Feature", "properties": { "strassenschluessel": "05334000000401041", "bezeichnung": "Burggasse" }, "geometry": { "type": "Point", "coordinates": [ 6.160273046824682, 50.878785625331432 ] } },
{ "type": "Feature", "properties": { "strassenschluessel": "05334000000401042", "bezeichnung": "An Feldgemeinschaft" }, "geometry": null },
{ "type": "Feature", "properties": { "strassenschluessel": "05334000000401043", "bezeichnung": "Änni-Keller-Straße" }, "geometry": { "type": "Point", "coordinates": [ 6.201641265640492, 50.868862021890052 ] } },
{ "type": "Feature", "properties": { "strassenschluessel": "05334000000401044", "bezeichnung": "An den Hainbuchen" }, "geometry": { "type": "Point", "coordinates": [ 6.201275347521619, 50.869568496828407 ] } },
{ "type": "Feature", "properties": { "strassenschluessel": "05334000000401045", "bezeichnung": "Leo-Meurer-Weg" }, "geometry": { "type": "Point", "coordinates": [ 6.211009757965488, 50.854728884519602 ] } },
{ "type": "Feature", "properties": { "strassenschluessel": "05334000000401046", "bezeichnung": "Am Wardener Bach" }, "geometry": { "type": "Point", "coordinates": [ 6.209638326621865, 50.854113470922258 ] } },
{ "type": "Feature", "properties": { "strassenschluessel": "05334000000401047", "bezeichnung": "Gut Schleibacher Haus" }, "geometry": { "type": "Point", "coordinates": [ 6.146546967732061, 50.848983540499333 ] } },
{ "type": "Feature", "properties": { "strassenschluessel": "05334000000401048", "bezeichnung": "Alleestraße" }, "geometry": { "type": "Point", "coordinates": [ 6.148408120176168, 50.875491737679994 ] } },
{ "type": "Feature", "properties": { "strassenschluessel": "05334000000401049", "bezeichnung": "Im Franchsfeld" }, "geometry": { "type": "Point", "coordinates": [ 6.207898719319411, 50.868690781640602 ] } },
{ "type": "Feature", "properties": { "strassenschluessel": "05334000000401050", "bezeichnung": "Im Blumenfeld" }, "geometry": { "type": "Point", "coordinates": [ 6.188385029216998, 50.859177110006179 ] } },
{ "type": "Feature", "properties": { "strassenschluessel": "05334000000401051", "bezeichnung": "Auf dem Kamp" }, "geometry": { "type": "Point", "coordinates": [ 6.160230432747697, 50.88090212108326 ] } },
{ "type": "Feature", "properties": { "strassenschluessel": "05334000000401052", "bezeichnung": "Auf dem Pütz" }, "geometry": { "type": "Point", "coordinates": [ 6.161143598442279, 50.880220973194461 ] } },
{ "type": "Feature", "properties": { "strassenschluessel": "05334000000401053", "bezeichnung": "Böckerweg" }, "geometry": { "type": "Point", "coordinates": [ 6.155211283755587, 50.883794738013655 ] } },
{ "type": "Feature", "properties": { "strassenschluessel": "05334000000401054", "bezeichnung": "Buschhof" }, "geometry": { "type": "Point", "coordinates": [ 6.128695583322297, 50.888676064103464 ] } },
{ "type": "Feature", "properties": { "strassenschluessel": "05334000000401055", "bezeichnung": "Elisabethstraße" }, "geometry": { "type": "Point", "coordinates": [ 6.153410252443437, 50.879001846860668 ] } },
{ "type": "Feature", "properties": { "strassenschluessel": "05334000000401056", "bezeichnung": "Geilenkirchener Straße" }, "geometry": { "type": "Point", "coordinates": [ 6.152787277252227, 50.883214129937194 ] } },
{ "type": "Feature", "properties": { "strassenschluessel": "05334000000401057", "bezeichnung": "Im Haag" }, "geometry": { "type": "Point", "coordinates": [ 6.155499840667108, 50.8828937633821 ] } },
{ "type": "Feature", "properties": { "strassenschluessel": "05334000000401058", "bezeichnung": "Im Kleefeld" }, "geometry": { "type": "Point", "coordinates": [ 6.154131180823137, 50.883758235075398 ] } },
{ "type": "Feature", "properties": { "strassenschluessel": "05334000000401059", "bezeichnung": "Jägerweg" }, "geometry": { "type": "Point", "coordinates": [ 6.154650643619046, 50.883007759377328 ] } },
{ "type": "Feature", "properties": { "strassenschluessel": "05334000000401060", "bezeichnung": "Kantgasse" }, "geometry": { "type": "Point", "coordinates": [ 6.156685449084157, 50.88009488705471 ] } },
{ "type": "Feature", "properties": { "strassenschluessel": "05334000000401061", "bezeichnung": "Henningsdorfer Platz" }, "geometry": null },
{ "type": "Feature", "properties": { "strassenschluessel": "05334000000401062", "bezeichnung": "Moselstraße" }, "geometry": { "type": "Point", "coordinates": [ 6.152532853197098, 50.878696540809173 ] } },
{ "type": "Feature", "properties": { "strassenschluessel": "05334000000401063", "bezeichnung": "Naheweg" }, "geometry": { "type": "Point", "coordinates": [ 6.154516963507502, 50.878871511705299 ] } },
{ "type": "Feature", "properties": { "strassenschluessel": "05334000000401064", "bezeichnung": "Oidtweilerweg" }, "geometry": { "type": "Point", "coordinates": [ 6.162831322078859, 50.881068100486949 ] } },
{ "type": "Feature", "properties": { "strassenschluessel": "05334000000401065", "bezeichnung": "Römerstraße" }, "geometry": { "type": "Point", "coordinates": [ 6.15597951214345, 50.877219911373608 ] } },
{ "type": "Feature", "properties": { "strassenschluessel": "05334000000401066", "bezeichnung": "Schlosserstraße" }, "geometry": { "type": "Point", "coordinates": [ 6.15802435848504, 50.878955135832463 ] } },
{ "type": "Feature", "properties": { "strassenschluessel": "05334000000401067", "bezeichnung": "Tröter Weg" }, "geometry": { "type": "Point", "coordinates": [ 6.159044500361466, 50.881439562854219 ] } },
{ "type": "Feature", "properties": { "strassenschluessel": "05334000000401069", "bezeichnung": "Urftstraße" }, "geometry": { "type": "Point", "coordinates": [ 6.153771180304655, 50.880512612594742 ] } },
{ "type": "Feature", "properties": { "strassenschluessel": "05334000000401070", "bezeichnung": "Waldstraße" }, "geometry": { "type": "Point", "coordinates": [ 6.153862946940147, 50.881952378490858 ] } },
{ "type": "Feature", "properties": { "strassenschluessel": "05334000000401071", "bezeichnung": "Lahnweg" }, "geometry": { "type": "Point", "coordinates": [ 6.155986172085246, 50.87900452638219 ] } },
{ "type": "Feature", "properties": { "strassenschluessel": "05334000000401072", "bezeichnung": "Olefstraße" }, "geometry": { "type": "Point", "coordinates": [ 6.152789111304394, 50.881077893833101 ] } },
{ "type": "Feature", "properties": { "strassenschluessel": "05334000000401073", "bezeichnung": "An der Tröt" }, "geometry": { "type": "Point", "coordinates": [ 6.157376748317149, 50.882765108042221 ] } },
{ "type": "Feature", "properties": { "strassenschluessel": "05334000000401074", "bezeichnung": "Kleine Tröt" }, "geometry": { "type": "Point", "coordinates": [ 6.15669724781359, 50.881702839908378 ] } },
{ "type": "Feature", "properties": { "strassenschluessel": "05334000000401075", "bezeichnung": "Am Viktoriasportplatz" }, "geometry": { "type": "Point", "coordinates": [ 6.170421197807615, 50.879842201662541 ] } },
{ "type": "Feature", "properties": { "strassenschluessel": "05334000000401076", "bezeichnung": "Am Heggeströfer" }, "geometry": { "type": "Point", "coordinates": [ 6.169840640215903, 50.881107103721625 ] } },
{ "type": "Feature", "properties": { "strassenschluessel": "05334000000401081", "bezeichnung": "Brahmsstraße" }, "geometry": { "type": "Point", "coordinates": [ 6.173860231166941, 50.886713064171282 ] } },
{ "type": "Feature", "properties": { "strassenschluessel": "05334000000401082", "bezeichnung": "Hedwigstraße" }, "geometry": { "type": "Point", "coordinates": [ 6.174313340871853, 50.887093560990564 ] } },
{ "type": "Feature", "properties": { "strassenschluessel": "05334000000401083", "bezeichnung": "Linnicher Straße" }, "geometry": { "type": "Point", "coordinates": [ 6.167113541484252, 50.879236790276366 ] } },
{ "type": "Feature", "properties": { "strassenschluessel": "05334000000401084", "bezeichnung": "Schubertstraße" }, "geometry": { "type": "Point", "coordinates": [ 6.172477942065556, 50.88542785215494 ] } },
{ "type": "Feature", "properties": { "strassenschluessel": "05334000000401085", "bezeichnung": "Wagnerstraße" }, "geometry": { "type": "Point", "coordinates": [ 6.173633246352179, 50.886039422974711 ] } },
{ "type": "Feature", "properties": { "strassenschluessel": "05334000000401086", "bezeichnung": "Am Rosenkränzchen" }, "geometry": null },
{ "type": "Feature", "properties": { "strassenschluessel": "05334000000401091", "bezeichnung": "Fridtjof-Nansen-Ring" }, "geometry": { "type": "Point", "coordinates": [ 6.165827157566449, 50.879978401898441 ] } },
{ "type": "Feature", "properties": { "strassenschluessel": "05334000000401092", "bezeichnung": "Im Brühl" }, "geometry": { "type": "Point", "coordinates": [ 6.16627232498996, 50.880850212009094 ] } },
{ "type": "Feature", "properties": { "strassenschluessel": "05334000000401093", "bezeichnung": "Carl-von-Ossietzky-Straße" }, "geometry": { "type": "Point", "coordinates": [ 6.147834470718854, 50.874764276002935 ] } },
{ "type": "Feature", "properties": { "strassenschluessel": "05334000000401094", "bezeichnung": "Marie-Juchacz-Straße" }, "geometry": { "type": "Point", "coordinates": [ 6.166419243359801, 50.88459863637695 ] } },
{ "type": "Feature", "properties": { "strassenschluessel": "05334000000401095", "bezeichnung": "Johann-Lütter-Straße" }, "geometry": { "type": "Point", "coordinates": [ 6.164477776040164, 50.883041290397436 ] } },
{ "type": "Feature", "properties": { "strassenschluessel": "05334000000401096", "bezeichnung": "Sophie-Scholl-Straße" }, "geometry": { "type": "Point", "coordinates": [ 6.167075572767922, 50.884034244410891 ] } },
{ "type": "Feature", "properties": { "strassenschluessel": "05334000000401097", "bezeichnung": "Von-Ketteler-Straße" }, "geometry": { "type": "Point", "coordinates": [ 6.166048277283788, 50.882579268462337 ] } },
{ "type": "Feature", "properties": { "strassenschluessel": "05334000000401098", "bezeichnung": "Werthmannstraße" }, "geometry": { "type": "Point", "coordinates": [ 6.168446865048989, 50.884934389973111 ] } },
{ "type": "Feature", "properties": { "strassenschluessel": "05334000000401099", "bezeichnung": "Wichernstraße" }, "geometry": { "type": "Point", "coordinates": [ 6.165062506028873, 50.881470310204797 ] } },
{ "type": "Feature", "properties": { "strassenschluessel": "05334000000401101", "bezeichnung": "Resi-Quint-Straße" }, "geometry": { "type": "Point", "coordinates": [ 6.177628275591695, 50.87623774015718 ] } },
{ "type": "Feature", "properties": { "strassenschluessel": "05334000000401110", "bezeichnung": "Am Nießen Bend" }, "geometry": { "type": "Point", "coordinates": [ 6.177697371468993, 50.878000687248395 ] } },
{ "type": "Feature", "properties": { "strassenschluessel": "05334000000401111", "bezeichnung": "Am Feuerwehrhaus" }, "geometry": { "type": "Point", "coordinates": [ 6.173193296898396, 50.875103748689767 ] } },
{ "type": "Feature", "properties": { "strassenschluessel": "05334000000401112", "bezeichnung": "Brucknerstraße" }, "geometry": { "type": "Point", "coordinates": [ 6.175764399083312, 50.875416947036733 ] } },
{ "type": "Feature", "properties": { "strassenschluessel": "05334000000401113", "bezeichnung": "Engelstraße" }, "geometry": { "type": "Point", "coordinates": [ 6.174885942242963, 50.877317661074265 ] } },
{ "type": "Feature", "properties": { "strassenschluessel": "05334000000401114", "bezeichnung": "Florianstraße" }, "geometry": { "type": "Point", "coordinates": [ 6.172016352823535, 50.875242874466238 ] } },
{ "type": "Feature", "properties": { "strassenschluessel": "05334000000401115", "bezeichnung": "Hauptstraße" }, "geometry": { "type": "Point", "coordinates": [ 6.180017364901127, 50.875461761591239 ] } },
{ "type": "Feature", "properties": { "strassenschluessel": "05334000000401116", "bezeichnung": "Maurerstraße" }, "geometry": { "type": "Point", "coordinates": [ 6.183325645639723, 50.879204396695535 ] } },
{ "type": "Feature", "properties": { "strassenschluessel": "05334000000401117", "bezeichnung": "Mühlenweg" }, "geometry": { "type": "Point", "coordinates": [ 6.170633262262102, 50.874496312979076 ] } },
{ "type": "Feature", "properties": { "strassenschluessel": "05334000000401118", "bezeichnung": "Nordstraße" }, "geometry": { "type": "Point", "coordinates": [ 6.177699634660645, 50.879197730297633 ] } },
{ "type": "Feature", "properties": { "strassenschluessel": "05334000000401119", "bezeichnung": "Paul-Dorn-Straße" }, "geometry": { "type": "Point", "coordinates": [ 6.177266163041207, 50.876700418490955 ] } },
{ "type": "Feature", "properties": { "strassenschluessel": "05334000000401120", "bezeichnung": "Siersdorfer Straße" }, "geometry": { "type": "Point", "coordinates": [ 6.17721457355495, 50.878471005173026 ] } },
{ "type": "Feature", "properties": { "strassenschluessel": "05334000000401121", "bezeichnung": "Schaufenberger Straße" }, "geometry": { "type": "Point", "coordinates": [ 6.172787411009429, 50.877791576589686 ] } },
{ "type": "Feature", "properties": { "strassenschluessel": "05334000000401122", "bezeichnung": "Scheidfuhr" }, "geometry": { "type": "Point", "coordinates": [ 6.17050777490783, 50.877263812662953 ] } },
{ "type": "Feature", "properties": { "strassenschluessel": "05334000000401123", "bezeichnung": "Schmiedstraße" }, "geometry": { "type": "Point", "coordinates": [ 6.171551088088552, 50.87742112696079 ] } },
{ "type": "Feature", "properties": { "strassenschluessel": "05334000000401124", "bezeichnung": "Weberstraße" }, "geometry": { "type": "Point", "coordinates": [ 6.170664671648265, 50.876248287309373 ] } },
{ "type": "Feature", "properties": { "strassenschluessel": "05334000000401125", "bezeichnung": "Am Klött" }, "geometry": { "type": "Point", "coordinates": [ 6.172813486705784, 50.879382644531191 ] } },
{ "type": "Feature", "properties": { "strassenschluessel": "05334000000401126", "bezeichnung": "Neuweilerstraße" }, "geometry": { "type": "Point", "coordinates": [ 6.176200264108995, 50.880241882194674 ] } },
{ "type": "Feature", "properties": { "strassenschluessel": "05334000000401128", "bezeichnung": "Sudermannstraße" }, "geometry": { "type": "Point", "coordinates": [ 6.176657148388574, 50.879124270183681 ] } },
{ "type": "Feature", "properties": { "strassenschluessel": "05334000000401129", "bezeichnung": "Margarethe-Kreitz-Straße" }, "geometry": { "type": "Point", "coordinates": [ 6.167901161952662, 50.88194940097177 ] } },
{ "type": "Feature", "properties": { "strassenschluessel": "05334000000401130", "bezeichnung": "Pirolweg" }, "geometry": { "type": "Point", "coordinates": [ 6.152324439218802, 50.853583986005809 ] } },
{ "type": "Feature", "properties": { "strassenschluessel": "05334000000401131", "bezeichnung": "Aldenhovener Straße" }, "geometry": { "type": "Point", "coordinates": [ 6.204444598725881, 50.887004710443222 ] } },
{ "type": "Feature", "properties": { "strassenschluessel": "05334000000401132", "bezeichnung": "An der Kirche" }, "geometry": { "type": "Point", "coordinates": [ 6.200698064354571, 50.887999741065343 ] } },
{ "type": "Feature", "properties": { "strassenschluessel": "05334000000401133", "bezeichnung": "Baesweilerstraße" }, "geometry": { "type": "Point", "coordinates": [ 6.198274676647078, 50.887574713650523 ] } },
{ "type": "Feature", "properties": { "strassenschluessel": "05334000000401134", "bezeichnung": "Duckweilerstraße" }, "geometry": { "type": "Point", "coordinates": [ 6.203046562065897, 50.886159222328487 ] } },
{ "type": "Feature", "properties": { "strassenschluessel": "05334000000401135", "bezeichnung": "Flurweg" }, "geometry": { "type": "Point", "coordinates": [ 6.203403628957644, 50.887383222544798 ] } },
{ "type": "Feature", "properties": { "strassenschluessel": "05334000000401136", "bezeichnung": "Im Feldchen" }, "geometry": { "type": "Point", "coordinates": [ 6.201627136553654, 50.888417015140327 ] } },
{ "type": "Feature", "properties": { "strassenschluessel": "05334000000401137", "bezeichnung": "Wendelinusstraße" }, "geometry": { "type": "Point", "coordinates": [ 6.202304234770819, 50.887764650759543 ] } },
{ "type": "Feature", "properties": { "strassenschluessel": "05334000000401138", "bezeichnung": "Am Rhenania Platz" }, "geometry": { "type": "Point", "coordinates": [ 6.175465275709113, 50.873985808573948 ] } },
{ "type": "Feature", "properties": { "strassenschluessel": "05334000000401139", "bezeichnung": "Gertrudstraße" }, "geometry": { "type": "Point", "coordinates": [ 6.174182255275019, 50.873943379218119 ] } },
{ "type": "Feature", "properties": { "strassenschluessel": "05334000000401141", "bezeichnung": "Am Anger" }, "geometry": { "type": "Point", "coordinates": [ 6.180990869864862, 50.873992580674113 ] } },
{ "type": "Feature", "properties": { "strassenschluessel": "05334000000401142", "bezeichnung": "Am Bürgerhof" }, "geometry": { "type": "Point", "coordinates": [ 6.180912061453419, 50.874344499573922 ] } },
{ "type": "Feature", "properties": { "strassenschluessel": "05334000000401143", "bezeichnung": "Am Driesch" }, "geometry": { "type": "Point", "coordinates": [ 6.18187971183099, 50.873762427542196 ] } },
{ "type": "Feature", "properties": { "strassenschluessel": "05334000000401144", "bezeichnung": "Am Hagfeld" }, "geometry": { "type": "Point", "coordinates": [ 6.181178128416951, 50.873677688291963 ] } },
{ "type": "Feature", "properties": { "strassenschluessel": "05334000000401145", "bezeichnung": "Am Kreuzberg" }, "geometry": { "type": "Point", "coordinates": [ 6.178945678618675, 50.87550090615769 ] } },
{ "type": "Feature", "properties": { "strassenschluessel": "05334000000401146", "bezeichnung": "Am Schildchen" }, "geometry": { "type": "Point", "coordinates": [ 6.177943382192136, 50.872684719835839 ] } },
{ "type": "Feature", "properties": { "strassenschluessel": "05334000000401147", "bezeichnung": "Hunsrückstraße" }, "geometry": { "type": "Point", "coordinates": [ 6.183848391191873, 50.873857434823094 ] } },
{ "type": "Feature", "properties": { "strassenschluessel": "05334000000401148", "bezeichnung": "Eifelstraße" }, "geometry": { "type": "Point", "coordinates": [ 6.181780014599568, 50.874377177136068 ] } },
{ "type": "Feature", "properties": { "strassenschluessel": "05334000000401149", "bezeichnung": "Elsa-Brändström-Straße" }, "geometry": { "type": "Point", "coordinates": [ 6.178050073318948, 50.873659732320242 ] } },
{ "type": "Feature", "properties": { "strassenschluessel": "05334000000401150", "bezeichnung": "Franzstraße" }, "geometry": { "type": "Point", "coordinates": [ 6.176458165576542, 50.874263928339687 ] } },
{ "type": "Feature", "properties": { "strassenschluessel": "05334000000401151", "bezeichnung": "Sonnengässchen" }, "geometry": { "type": "Point", "coordinates": [ 6.181121168628474, 50.879279849254537 ] } },
{ "type": "Feature", "properties": { "strassenschluessel": "05334000000401152", "bezeichnung": "Hoengener Straße" }, "geometry": { "type": "Point", "coordinates": [ 6.184924468888762, 50.875357387966567 ] } },
{ "type": "Feature", "properties": { "strassenschluessel": "05334000000401153", "bezeichnung": "Leidesheimer Weiden" }, "geometry": { "type": "Point", "coordinates": [ 6.182458057138603, 50.876622225601452 ] } },
{ "type": "Feature", "properties": { "strassenschluessel": "05334000000401154", "bezeichnung": "Liebigstraße" }, "geometry": { "type": "Point", "coordinates": [ 6.179106483193403, 50.873303300157133 ] } },
{ "type": "Feature", "properties": { "strassenschluessel": "05334000000401155", "bezeichnung": "Thomas-Dachser-Straße" }, "geometry": { "type": "Point", "coordinates": [ 6.192252736524855, 50.875140366368285 ] } },
{ "type": "Feature", "properties": { "strassenschluessel": "05334000000401156", "bezeichnung": "Max-Planck-Straße" }, "geometry": { "type": "Point", "coordinates": [ 6.185489113077423, 50.87840654036453 ] } },
{ "type": "Feature", "properties": { "strassenschluessel": "05334000000401157", "bezeichnung": "Rhönweg" }, "geometry": { "type": "Point", "coordinates": [ 6.182614005843403, 50.873780778738755 ] } },
{ "type": "Feature", "properties": { "strassenschluessel": "05334000000401158", "bezeichnung": "Spessartstraße" }, "geometry": { "type": "Point", "coordinates": [ 6.184026645498426, 50.874092493847776 ] } },
{ "type": "Feature", "properties": { "strassenschluessel": "05334000000401159", "bezeichnung": "Vennweg" }, "geometry": { "type": "Point", "coordinates": [ 6.182614128408114, 50.876309869772676 ] } },
{ "type": "Feature", "properties": { "strassenschluessel": "05334000000401160", "bezeichnung": "Voßpfädchen" }, "geometry": { "type": "Point", "coordinates": [ 6.181251566505154, 50.876081642710169 ] } },
{ "type": "Feature", "properties": { "strassenschluessel": "05334000000401161", "bezeichnung": "Trommsdorffstraße" }, "geometry": { "type": "Point", "coordinates": [ 6.183334759483967, 50.88126184853985 ] } },
{ "type": "Feature", "properties": { "strassenschluessel": "05334000000401162", "bezeichnung": "Otto-Hahn-Straße" }, "geometry": { "type": "Point", "coordinates": [ 6.183682190252753, 50.875831625679567 ] } },
{ "type": "Feature", "properties": { "strassenschluessel": "05334000000401163", "bezeichnung": "Schleidener Straße" }, "geometry": { "type": "Point", "coordinates": [ 6.179054716413588, 50.878028602730957 ] } },
{ "type": "Feature", "properties": { "strassenschluessel": "05334000000401164", "bezeichnung": "Carl-Zeiss-Straße" }, "geometry": { "type": "Point", "coordinates": [ 6.181892872478702, 50.870057176033065 ] } },
{ "type": "Feature", "properties": { "strassenschluessel": "05334000000401165", "bezeichnung": "Ernst-Abbe-Straße" }, "geometry": { "type": "Point", "coordinates": [ 6.182290958897098, 50.872173356720083 ] } },
{ "type": "Feature", "properties": { "strassenschluessel": "05334000000401166", "bezeichnung": "Max-von-Laue-Straße" }, "geometry": { "type": "Point", "coordinates": [ 6.18472595494361, 50.873648062851906 ] } },
{ "type": "Feature", "properties": { "strassenschluessel": "05334000000401167", "bezeichnung": "Joseph-von-Fraunhofer-Straße" }, "geometry": { "type": "Point", "coordinates": [ 6.187432985228414, 50.874933862546243 ] } },
{ "type": "Feature", "properties": { "strassenschluessel": "05334000000401168", "bezeichnung": "Werner-Heisenberg-Straße" }, "geometry": { "type": "Point", "coordinates": [ 6.188351560182559, 50.872424116947968 ] } },
{ "type": "Feature", "properties": { "strassenschluessel": "05334000000401170", "bezeichnung": "Am Langen Pfädchen" }, "geometry": { "type": "Point", "coordinates": [ 6.168750444028007, 50.872822964825396 ] } },
{ "type": "Feature", "properties": { "strassenschluessel": "05334000000401171", "bezeichnung": "Allensteiner Straße" }, "geometry": { "type": "Point", "coordinates": [ 6.169326666244652, 50.872816712440247 ] } },
{ "type": "Feature", "properties": { "strassenschluessel": "05334000000401172", "bezeichnung": "Breslauer Straße" }, "geometry": { "type": "Point", "coordinates": [ 6.171086951663977, 50.872283763643516 ] } },
{ "type": "Feature", "properties": { "strassenschluessel": "05334000000401173", "bezeichnung": "Danziger Straße" }, "geometry": { "type": "Point", "coordinates": [ 6.171668760301611, 50.873169733767831 ] } },
{ "type": "Feature", "properties": { "strassenschluessel": "05334000000401174", "bezeichnung": "Elbinger Straße" }, "geometry": { "type": "Point", "coordinates": [ 6.172762495520205, 50.872756273658176 ] } },
{ "type": "Feature", "properties": { "strassenschluessel": "05334000000401175", "bezeichnung": "Gleiwitzer Straße" }, "geometry": { "type": "Point", "coordinates": [ 6.173878727196255, 50.870984710618416 ] } },
{ "type": "Feature", "properties": { "strassenschluessel": "05334000000401176", "bezeichnung": "Görlitzer Straße" }, "geometry": { "type": "Point", "coordinates": [ 6.175450075686419, 50.87263569920934 ] } },
{ "type": "Feature", "properties": { "strassenschluessel": "05334000000401177", "bezeichnung": "Kolberger Straße" }, "geometry": { "type": "Point", "coordinates": [ 6.174469531944112, 50.871467246525384 ] } },
{ "type": "Feature", "properties": { "strassenschluessel": "05334000000401178", "bezeichnung": "Kösliner Straße" }, "geometry": { "type": "Point", "coordinates": [ 6.176552967727949, 50.871324481033085 ] } },
{ "type": "Feature", "properties": { "strassenschluessel": "05334000000401179", "bezeichnung": "Königsberger Straße" }, "geometry": { "type": "Point", "coordinates": [ 6.175696608808693, 50.869865693357909 ] } },
{ "type": "Feature", "properties": { "strassenschluessel": "05334000000401180", "bezeichnung": "Konrad-Adenauer-Allee" }, "geometry": { "type": "Point", "coordinates": [ 6.155352399594368, 50.871435951610799 ] } },
{ "type": "Feature", "properties": { "strassenschluessel": "05334000000401181", "bezeichnung": "Sudetenstraße" }, "geometry": { "type": "Point", "coordinates": [ 6.178314059967575, 50.870333539427129 ] } },
{ "type": "Feature", "properties": { "strassenschluessel": "05334000000401182", "bezeichnung": "Brandenburger Straße" }, "geometry": null },
{ "type": "Feature", "properties": { "strassenschluessel": "05334000000401183", "bezeichnung": "Kroetchensweiden" }, "geometry": { "type": "Point", "coordinates": [ 6.213406090185626, 50.863951764881534 ] } },
{ "type": "Feature", "properties": { "strassenschluessel": "05334000000401184", "bezeichnung": "An der Mönch Hof Sod" }, "geometry": { "type": "Point", "coordinates": [ 6.214879616487073, 50.864252364728742 ] } },
{ "type": "Feature", "properties": { "strassenschluessel": "05334000000401185", "bezeichnung": "Pottgießers Pfad" }, "geometry": { "type": "Point", "coordinates": [ 6.213569868077442, 50.864665831696357 ] } },
{ "type": "Feature", "properties": { "strassenschluessel": "05334000000401186", "bezeichnung": "Moerstorper Straße" }, "geometry": { "type": "Point", "coordinates": [ 6.211622059450352, 50.864569466205467 ] } },
{ "type": "Feature", "properties": { "strassenschluessel": "05334000000401187", "bezeichnung": "Abraham-Lucas-Straße" }, "geometry": { "type": "Point", "coordinates": [ 6.211080065336893, 50.861862299585425 ] } },
{ "type": "Feature", "properties": { "strassenschluessel": "05334000000401188", "bezeichnung": "Franz-Engländer-Straße" }, "geometry": { "type": "Point", "coordinates": [ 6.209191589984461, 50.864112230565866 ] } },
{ "type": "Feature", "properties": { "strassenschluessel": "05334000000401189", "bezeichnung": "Nikolaus-Cüpper-Straße" }, "geometry": { "type": "Point", "coordinates": [ 6.20900083508232, 50.863432627407981 ] } },
{ "type": "Feature", "properties": { "strassenschluessel": "05334000000401190", "bezeichnung": "Langweilerstraße" }, "geometry": { "type": "Point", "coordinates": [ 6.210020893736466, 50.862338997673831 ] } },
{ "type": "Feature", "properties": { "strassenschluessel": "05334000000401191", "bezeichnung": "Berliner Platz" }, "geometry": { "type": "Point", "coordinates": [ 6.170459752509339, 50.867985497199356 ] } },
{ "type": "Feature", "properties": { "strassenschluessel": "05334000000401192", "bezeichnung": "Dresdener Straße" }, "geometry": { "type": "Point", "coordinates": [ 6.167112400491501, 50.868426260424108 ] } },
{ "type": "Feature", "properties": { "strassenschluessel": "05334000000401193", "bezeichnung": "Gerhart-Hauptmann-Platz" }, "geometry": { "type": "Point", "coordinates": [ 6.173112422536787, 50.869657441258717 ] } },
{ "type": "Feature", "properties": { "strassenschluessel": "05334000000401196", "bezeichnung": "Liegnitzer Straße" }, "geometry": { "type": "Point", "coordinates": [ 6.172055287256089, 50.868869637650747 ] } },
{ "type": "Feature", "properties": { "strassenschluessel": "05334000000401197", "bezeichnung": "Oppelner Straße" }, "geometry": { "type": "Point", "coordinates": [ 6.170114654008568, 50.870124223179097 ] } },
{ "type": "Feature", "properties": { "strassenschluessel": "05334000000401198", "bezeichnung": "Ostpreußenstraße" }, "geometry": { "type": "Point", "coordinates": [ 6.170117381493755, 50.871289879175734 ] } },
{ "type": "Feature", "properties": { "strassenschluessel": "05334000000401199", "bezeichnung": "Pommernstraße" }, "geometry": { "type": "Point", "coordinates": [ 6.176596536490103, 50.869645518823887 ] } },
{ "type": "Feature", "properties": { "strassenschluessel": "05334000000401200", "bezeichnung": "Potsdamer Straße" }, "geometry": { "type": "Point", "coordinates": [ 6.167526635743589, 50.867882134305439 ] } },
{ "type": "Feature", "properties": { "strassenschluessel": "05334000000401201", "bezeichnung": "Posener Straße" }, "geometry": { "type": "Point", "coordinates": [ 6.169232830261218, 50.870803456829421 ] } },
{ "type": "Feature", "properties": { "strassenschluessel": "05334000000401202", "bezeichnung": "Schweriner Straße" }, "geometry": { "type": "Point", "coordinates": [ 6.166391616575638, 50.868997532237742 ] } },
{ "type": "Feature", "properties": { "strassenschluessel": "05334000000401203", "bezeichnung": "Stettiner Straße" }, "geometry": { "type": "Point", "coordinates": [ 6.16917589962838, 50.869343645983953 ] } },
{ "type": "Feature", "properties": { "strassenschluessel": "05334000000401204", "bezeichnung": "Weimarer Straße" }, "geometry": { "type": "Point", "coordinates": [ 6.169352931767153, 50.868578390326242 ] } },
{ "type": "Feature", "properties": { "strassenschluessel": "05334000000401211", "bezeichnung": "Bahnstraße" }, "geometry": { "type": "Point", "coordinates": [ 6.168354155527966, 50.867087827176817 ] } },
{ "type": "Feature", "properties": { "strassenschluessel": "05334000000401212", "bezeichnung": "Friedensplatz" }, "geometry": { "type": "Point", "coordinates": [ 6.167345457917897, 50.867011503666873 ] } },
{ "type": "Feature", "properties": { "strassenschluessel": "05334000000401213", "bezeichnung": "Friedensstraße" }, "geometry": { "type": "Point", "coordinates": [ 6.167843747859628, 50.866580676303698 ] } },
{ "type": "Feature", "properties": { "strassenschluessel": "05334000000401214", "bezeichnung": "Leostraße" }, "geometry": { "type": "Point", "coordinates": [ 6.168950058793197, 50.866707416032547 ] } },
{ "type": "Feature", "properties": { "strassenschluessel": "05334000000401215", "bezeichnung": "Mariadorfer Straße" }, "geometry": { "type": "Point", "coordinates": [ 6.169876268089733, 50.866403729943116 ] } },
{ "type": "Feature", "properties": { "strassenschluessel": "05334000000401216", "bezeichnung": "William-Prym-Straße" }, "geometry": { "type": "Point", "coordinates": [ 6.173555659701342, 50.866489898321163 ] } },
{ "type": "Feature", "properties": { "strassenschluessel": "05334000000401221", "bezeichnung": "Albertstraße" }, "geometry": { "type": "Point", "coordinates": [ 6.166410722223315, 50.865907317676616 ] } },
{ "type": "Feature", "properties": { "strassenschluessel": "05334000000401222", "bezeichnung": "Baurstraße" }, "geometry": { "type": "Point", "coordinates": [ 6.16280591148761, 50.867227361115006 ] } },
{ "type": "Feature", "properties": { "strassenschluessel": "05334000000401224", "bezeichnung": "Englerthring" }, "geometry": { "type": "Point", "coordinates": [ 6.161130100028337, 50.867537663739832 ] } },
{ "type": "Feature", "properties": { "strassenschluessel": "05334000000401225", "bezeichnung": "Georgstraße" }, "geometry": { "type": "Point", "coordinates": [ 6.165734469632643, 50.8638139982517 ] } },
{ "type": "Feature", "properties": { "strassenschluessel": "05334000000401226", "bezeichnung": "Graeserstraße" }, "geometry": { "type": "Point", "coordinates": [ 6.162058565407538, 50.866448718501523 ] } },
{ "type": "Feature", "properties": { "strassenschluessel": "05334000000401227", "bezeichnung": "Großstraße" }, "geometry": { "type": "Point", "coordinates": [ 6.166201067210766, 50.864001052880027 ] } },
{ "type": "Feature", "properties": { "strassenschluessel": "05334000000401228", "bezeichnung": "Hermannstraße" }, "geometry": { "type": "Point", "coordinates": [ 6.164882390446127, 50.86414277729282 ] } },
{ "type": "Feature", "properties": { "strassenschluessel": "05334000000401229", "bezeichnung": "Husemannstraße" }, "geometry": { "type": "Point", "coordinates": [ 6.163612532838858, 50.86703109318168 ] } },
{ "type": "Feature", "properties": { "strassenschluessel": "05334000000401230", "bezeichnung": "Juliusstraße" }, "geometry": { "type": "Point", "coordinates": [ 6.165710412250351, 50.86533175092579 ] } },
{ "type": "Feature", "properties": { "strassenschluessel": "05334000000401231", "bezeichnung": "Lassallestraße" }, "geometry": { "type": "Point", "coordinates": [ 6.16598820212674, 50.867195012175856 ] } },
{ "type": "Feature", "properties": { "strassenschluessel": "05334000000401232", "bezeichnung": "Nordring" }, "geometry": { "type": "Point", "coordinates": [ 6.16336031670988, 50.864324226785172 ] } },
{ "type": "Feature", "properties": { "strassenschluessel": "05334000000401233", "bezeichnung": "Ostring" }, "geometry": { "type": "Point", "coordinates": [ 6.166799338139523, 50.866189260539265 ] } },
{ "type": "Feature", "properties": { "strassenschluessel": "05334000000401234", "bezeichnung": "Peterstraße" }, "geometry": { "type": "Point", "coordinates": [ 6.167072094696386, 50.864317670832286 ] } },
{ "type": "Feature", "properties": { "strassenschluessel": "05334000000401235", "bezeichnung": "Rudolfstraße" }, "geometry": { "type": "Point", "coordinates": [ 6.165422375392897, 50.863336463390105 ] } },
{ "type": "Feature", "properties": { "strassenschluessel": "05334000000401236", "bezeichnung": "Sassenbergstraße" }, "geometry": { "type": "Point", "coordinates": [ 6.165037204533882, 50.866841839221067 ] } },
{ "type": "Feature", "properties": { "strassenschluessel": "05334000000401237", "bezeichnung": "Südring" }, "geometry": { "type": "Point", "coordinates": [ 6.166270619758897, 50.863005455537525 ] } },
{ "type": "Feature", "properties": { "strassenschluessel": "05334000000401238", "bezeichnung": "Westring" }, "geometry": { "type": "Point", "coordinates": [ 6.163568979865721, 50.863757376119302 ] } },
{ "type": "Feature", "properties": { "strassenschluessel": "05334000000401239", "bezeichnung": "Steigerweg" }, "geometry": { "type": "Point", "coordinates": [ 6.15586086817976, 50.872244306167588 ] } },
{ "type": "Feature", "properties": { "strassenschluessel": "05334000000401240", "bezeichnung": "Maschinistenweg" }, "geometry": null },
{ "type": "Feature", "properties": { "strassenschluessel": "05334000000401241", "bezeichnung": "Hauerweg" }, "geometry": null },
{ "type": "Feature", "properties": { "strassenschluessel": "05334000000401242", "bezeichnung": "Schachtstraße" }, "geometry": { "type": "Point", "coordinates": [ 6.15787429811943, 50.87388161572656 ] } },
{ "type": "Feature", "properties": { "strassenschluessel": "05334000000401243", "bezeichnung": "Am Kraftwerk" }, "geometry": { "type": "Point", "coordinates": [ 6.153749743965047, 50.874781031420589 ] } },
{ "type": "Feature", "properties": { "strassenschluessel": "05334000000401244", "bezeichnung": "Mühlengracht" }, "geometry": { "type": "Point", "coordinates": [ 6.15481638233533, 50.874269616742218 ] } },
{ "type": "Feature", "properties": { "strassenschluessel": "05334000000401245", "bezeichnung": "Flözstraße" }, "geometry": { "type": "Point", "coordinates": [ 6.155990654374524, 50.874323765814992 ] } },
{ "type": "Feature", "properties": { "strassenschluessel": "05334000000401246", "bezeichnung": "Am Sägewerk" }, "geometry": { "type": "Point", "coordinates": [ 6.156759786971365, 50.874246757630054 ] } },
{ "type": "Feature", "properties": { "strassenschluessel": "05334000000401247", "bezeichnung": "Am Holzplatz" }, "geometry": { "type": "Point", "coordinates": [ 6.155617436274317, 50.87597593228957 ] } },
{ "type": "Feature", "properties": { "strassenschluessel": "05334000000401248", "bezeichnung": "Eduardschacht" }, "geometry": { "type": "Point", "coordinates": [ 6.147347059717473, 50.875592835851116 ] } },
{ "type": "Feature", "properties": { "strassenschluessel": "05334000000401249", "bezeichnung": "Wilhelmschacht" }, "geometry": { "type": "Point", "coordinates": [ 6.147540587954035, 50.875351601861745 ] } },
{ "type": "Feature", "properties": { "strassenschluessel": "05334000000401250", "bezeichnung": "Anna-Platz" }, "geometry": null },
{ "type": "Feature", "properties": { "strassenschluessel": "05334000000401251", "bezeichnung": "Brentanostraße" }, "geometry": { "type": "Point", "coordinates": [ 6.158788296279564, 50.864596550690514 ] } },
{ "type": "Feature", "properties": { "strassenschluessel": "05334000000401253", "bezeichnung": "Erholungsstraße" }, "geometry": { "type": "Point", "coordinates": [ 6.159365797816109, 50.864831255391131 ] } },
{ "type": "Feature", "properties": { "strassenschluessel": "05334000000401254", "bezeichnung": "Fontanestraße" }, "geometry": { "type": "Point", "coordinates": [ 6.159651234782365, 50.864388999442475 ] } },
{ "type": "Feature", "properties": { "strassenschluessel": "05334000000401255", "bezeichnung": "Hebbelstraße" }, "geometry": { "type": "Point", "coordinates": [ 6.157748826863581, 50.864960695320704 ] } },
{ "type": "Feature", "properties": { "strassenschluessel": "05334000000401256", "bezeichnung": "Herderstraße" }, "geometry": { "type": "Point", "coordinates": [ 6.157664047143861, 50.866074516200563 ] } },
{ "type": "Feature", "properties": { "strassenschluessel": "05334000000401257", "bezeichnung": "Kleiststraße" }, "geometry": { "type": "Point", "coordinates": [ 6.160870356028207, 50.864057887516061 ] } },
{ "type": "Feature", "properties": { "strassenschluessel": "05334000000401258", "bezeichnung": "Konsumstraße" }, "geometry": { "type": "Point", "coordinates": [ 6.160103462007857, 50.865621418679638 ] } },
{ "type": "Feature", "properties": { "strassenschluessel": "05334000000401259", "bezeichnung": "Oberer Heidweg" }, "geometry": { "type": "Point", "coordinates": [ 6.155538303507093, 50.866117739717843 ] } },
{ "type": "Feature", "properties": { "strassenschluessel": "05334000000401260", "bezeichnung": "Othbergstraße" }, "geometry": { "type": "Point", "coordinates": [ 6.160237852489327, 50.865352341942234 ] } },
{ "type": "Feature", "properties": { "strassenschluessel": "05334000000401261", "bezeichnung": "Ringstraße" }, "geometry": { "type": "Point", "coordinates": [ 6.156103068667633, 50.865237126099103 ] } },
{ "type": "Feature", "properties": { "strassenschluessel": "05334000000401262", "bezeichnung": "Roseggerstraße" }, "geometry": { "type": "Point", "coordinates": [ 6.161410229034733, 50.8642031737186 ] } },
{ "type": "Feature", "properties": { "strassenschluessel": "05334000000401263", "bezeichnung": "Uhlandstraße" }, "geometry": { "type": "Point", "coordinates": [ 6.158772209465092, 50.866179783170274 ] } },
{ "type": "Feature", "properties": { "strassenschluessel": "05334000000401264", "bezeichnung": "Virchowstraße" }, "geometry": { "type": "Point", "coordinates": [ 6.157469282695189, 50.865914867304014 ] } },
{ "type": "Feature", "properties": { "strassenschluessel": "05334000000401265", "bezeichnung": "Wilhelmstraße" }, "geometry": { "type": "Point", "coordinates": [ 6.157474055033492, 50.865301149935782 ] } },
{ "type": "Feature", "properties": { "strassenschluessel": "05334000000401266", "bezeichnung": "Am Kellersberg" }, "geometry": { "type": "Point", "coordinates": [ 6.164398548352745, 50.861686637576511 ] } },
{ "type": "Feature", "properties": { "strassenschluessel": "05334000000401267", "bezeichnung": "Willy-Brandt-Ring" }, "geometry": { "type": "Point", "coordinates": [ 6.152547724497888, 50.874999655937934 ] } },
{ "type": "Feature", "properties": { "strassenschluessel": "05334000000401271", "bezeichnung": "Am Güterbahnhof" }, "geometry": null },
{ "type": "Feature", "properties": { "strassenschluessel": "05334000000401272", "bezeichnung": "Bahnhofsplatz" }, "geometry": { "type": "Point", "coordinates": [ 6.158446230614059, 50.869647193289403 ] } },
{ "type": "Feature", "properties": { "strassenschluessel": "05334000000401273", "bezeichnung": "Heidweg" }, "geometry": { "type": "Point", "coordinates": [ 6.15811302899376, 50.867159220963693 ] } },
{ "type": "Feature", "properties": { "strassenschluessel": "05334000000401274", "bezeichnung": "Herrenweg" }, "geometry": { "type": "Point", "coordinates": [ 6.15447592691859, 50.863302441996893 ] } },
{ "type": "Feature", "properties": { "strassenschluessel": "05334000000401275", "bezeichnung": "Otto-Brenner-Straße" }, "geometry": { "type": "Point", "coordinates": [ 6.156357471187764, 50.867692745609737 ] } },
{ "type": "Feature", "properties": { "strassenschluessel": "05334000000401276", "bezeichnung": "Prämienstraße" }, "geometry": { "type": "Point", "coordinates": [ 6.140920561171558, 50.86929333365584 ] } },
{ "type": "Feature", "properties": { "strassenschluessel": "05334000000401277", "bezeichnung": "Schützenstraße" }, "geometry": { "type": "Point", "coordinates": [ 6.158364381642497, 50.869009418145893 ] } },
{ "type": "Feature", "properties": { "strassenschluessel": "05334000000401278", "bezeichnung": "Würselener Straße" }, "geometry": { "type": "Point", "coordinates": [ 6.155700957374733, 50.868013120916835 ] } },
{ "type": "Feature", "properties": { "strassenschluessel": "05334000000401282", "bezeichnung": "Dorfstraße" }, "geometry": { "type": "Point", "coordinates": [ 6.158771590553759, 50.855651700555519 ] } },
{ "type": "Feature", "properties": { "strassenschluessel": "05334000000401283", "bezeichnung": "Im Kranental" }, "geometry": { "type": "Point", "coordinates": [ 6.161987711418616, 50.859607315075081 ] } },
{ "type": "Feature", "properties": { "strassenschluessel": "05334000000401284", "bezeichnung": "Kranentalsmühle" }, "geometry": { "type": "Point", "coordinates": [ 6.165640177255076, 50.858221059342753 ] } },
{ "type": "Feature", "properties": { "strassenschluessel": "05334000000401285", "bezeichnung": "Kellersberger Hof" }, "geometry": { "type": "Point", "coordinates": [ 6.165058912216455, 50.860558165699501 ] } },
{ "type": "Feature", "properties": { "strassenschluessel": "05334000000401287", "bezeichnung": "Ofdener Gracht" }, "geometry": { "type": "Point", "coordinates": [ 6.159332116204555, 50.85925586518217 ] } },
{ "type": "Feature", "properties": { "strassenschluessel": "05334000000401288", "bezeichnung": "Distelweg" }, "geometry": null },
{ "type": "Feature", "properties": { "strassenschluessel": "05334000000401289", "bezeichnung": "Euchener Weg" }, "geometry": { "type": "Point", "coordinates": [ 6.148372062856176, 50.848053893472262 ] } },
{ "type": "Feature", "properties": { "strassenschluessel": "05334000000401291", "bezeichnung": "Alfred-Brehm-Straße" }, "geometry": { "type": "Point", "coordinates": [ 6.153230828770163, 50.85642577018892 ] } },
{ "type": "Feature", "properties": { "strassenschluessel": "05334000000401292", "bezeichnung": "Theodor-Seipp-Straße" }, "geometry": { "type": "Point", "coordinates": [ 6.159138351900972, 50.859615791950183 ] } },
{ "type": "Feature", "properties": { "strassenschluessel": "05334000000401293", "bezeichnung": "Hermann-Josef-Straße" }, "geometry": { "type": "Point", "coordinates": [ 6.157115527117045, 50.857955798059656 ] } },
{ "type": "Feature", "properties": { "strassenschluessel": "05334000000401294", "bezeichnung": "Eschenweg" }, "geometry": { "type": "Point", "coordinates": [ 6.150753722565434, 50.857835315117612 ] } },
{ "type": "Feature", "properties": { "strassenschluessel": "05334000000401295", "bezeichnung": "Farnkrautweg" }, "geometry": { "type": "Point", "coordinates": [ 6.150977590538673, 50.85757296807958 ] } },
{ "type": "Feature", "properties": { "strassenschluessel": "05334000000401296", "bezeichnung": "Fenchelweg" }, "geometry": { "type": "Point", "coordinates": [ 6.151233767203252, 50.857878686876731 ] } },
{ "type": "Feature", "properties": { "strassenschluessel": "05334000000401297", "bezeichnung": "Fichtenweg" }, "geometry": { "type": "Point", "coordinates": [ 6.151488626029863, 50.857398194241362 ] } },
{ "type": "Feature", "properties": { "strassenschluessel": "05334000000401298", "bezeichnung": "Flachsweg" }, "geometry": { "type": "Point", "coordinates": [ 6.151712217514665, 50.857889015156019 ] } },
{ "type": "Feature", "properties": { "strassenschluessel": "05334000000401299", "bezeichnung": "Geranienweg" }, "geometry": { "type": "Point", "coordinates": [ 6.152088095706802, 50.857586384180763 ] } },
{ "type": "Feature", "properties": { "strassenschluessel": "05334000000401300", "bezeichnung": "Kornblumenweg" }, "geometry": { "type": "Point", "coordinates": [ 6.151101167805254, 50.857087811773795 ] } },
{ "type": "Feature", "properties": { "strassenschluessel": "05334000000401301", "bezeichnung": "Kressenweg" }, "geometry": { "type": "Point", "coordinates": [ 6.150444962456036, 50.856384230427338 ] } },
{ "type": "Feature", "properties": { "strassenschluessel": "05334000000401302", "bezeichnung": "Maiglöckchenweg" }, "geometry": { "type": "Point", "coordinates": [ 6.150371057285239, 50.856094747195236 ] } },
{ "type": "Feature", "properties": { "strassenschluessel": "05334000000401303", "bezeichnung": "Orchideenweg" }, "geometry": { "type": "Point", "coordinates": [ 6.150477203937466, 50.855784747463254 ] } },
{ "type": "Feature", "properties": { "strassenschluessel": "05334000000401304", "bezeichnung": "Resedaweg" }, "geometry": { "type": "Point", "coordinates": [ 6.150241438157611, 50.855509505822752 ] } },
{ "type": "Feature", "properties": { "strassenschluessel": "05334000000401305", "bezeichnung": "Rotdornweg" }, "geometry": { "type": "Point", "coordinates": [ 6.150357915974294, 50.855203455576216 ] } },
{ "type": "Feature", "properties": { "strassenschluessel": "05334000000401306", "bezeichnung": "Salbeiweg" }, "geometry": { "type": "Point", "coordinates": [ 6.15119695468272, 50.854568734055981 ] } },
{ "type": "Feature", "properties": { "strassenschluessel": "05334000000401307", "bezeichnung": "Seerosenweg" }, "geometry": { "type": "Point", "coordinates": [ 6.151274076891448, 50.855930100776284 ] } },
{ "type": "Feature", "properties": { "strassenschluessel": "05334000000401308", "bezeichnung": "Seidelbastweg" }, "geometry": { "type": "Point", "coordinates": [ 6.151521686145049, 50.855614947493677 ] } },
{ "type": "Feature", "properties": { "strassenschluessel": "05334000000401309", "bezeichnung": "Schneeglöckchenweg" }, "geometry": { "type": "Point", "coordinates": [ 6.150950683158225, 50.855536226081462 ] } },
{ "type": "Feature", "properties": { "strassenschluessel": "05334000000401310", "bezeichnung": "Sonnenblumenweg" }, "geometry": { "type": "Point", "coordinates": [ 6.151380071978741, 50.855317838386334 ] } },
{ "type": "Feature", "properties": { "strassenschluessel": "05334000000401311", "bezeichnung": "Schleibacher Weg" }, "geometry": { "type": "Point", "coordinates": [ 6.149032326414832, 50.851988019869637 ] } },
{ "type": "Feature", "properties": { "strassenschluessel": "05334000000401312", "bezeichnung": "Tulpenweg" }, "geometry": { "type": "Point", "coordinates": [ 6.151429273826583, 50.855028961241437 ] } },
{ "type": "Feature", "properties": { "strassenschluessel": "05334000000401313", "bezeichnung": "Wacholderweg" }, "geometry": { "type": "Point", "coordinates": [ 6.150264482293685, 50.854305938167535 ] } },
{ "type": "Feature", "properties": { "strassenschluessel": "05334000000401314", "bezeichnung": "Waldmeisterweg" }, "geometry": { "type": "Point", "coordinates": [ 6.150760123405283, 50.854180794618578 ] } },
{ "type": "Feature", "properties": { "strassenschluessel": "05334000000401315", "bezeichnung": "Adlerweg" }, "geometry": { "type": "Point", "coordinates": [ 6.1551916859611, 50.858685401586229 ] } },
{ "type": "Feature", "properties": { "strassenschluessel": "05334000000401316", "bezeichnung": "Ammerweg" }, "geometry": { "type": "Point", "coordinates": [ 6.154599819418776, 50.858643320736611 ] } },
{ "type": "Feature", "properties": { "strassenschluessel": "05334000000401317", "bezeichnung": "Bachstelzenweg" }, "geometry": { "type": "Point", "coordinates": [ 6.156007186501569, 50.858145031395026 ] } },
{ "type": "Feature", "properties": { "strassenschluessel": "05334000000401318", "bezeichnung": "Biberweg" }, "geometry": { "type": "Point", "coordinates": [ 6.155700955039474, 50.858383881137122 ] } },
{ "type": "Feature", "properties": { "strassenschluessel": "05334000000401319", "bezeichnung": "Bussardweg" }, "geometry": { "type": "Point", "coordinates": [ 6.156210986458538, 50.858348493137001 ] } },
{ "type": "Feature", "properties": { "strassenschluessel": "05334000000401320", "bezeichnung": "Dohlenweg" }, "geometry": { "type": "Point", "coordinates": [ 6.154798085211821, 50.857950724229362 ] } },
{ "type": "Feature", "properties": { "strassenschluessel": "05334000000401321", "bezeichnung": "Drosselweg" }, "geometry": { "type": "Point", "coordinates": [ 6.155237997563374, 50.857798575165958 ] } },
{ "type": "Feature", "properties": { "strassenschluessel": "05334000000401322", "bezeichnung": "Eichhörnchenweg" }, "geometry": { "type": "Point", "coordinates": [ 6.155737979011237, 50.857771300453692 ] } },
{ "type": "Feature", "properties": { "strassenschluessel": "05334000000401323", "bezeichnung": "Elsterweg" }, "geometry": { "type": "Point", "coordinates": [ 6.156234696300977, 50.85757163644012 ] } },
{ "type": "Feature", "properties": { "strassenschluessel": "05334000000401324", "bezeichnung": "Eulenweg" }, "geometry": { "type": "Point", "coordinates": [ 6.153425912810326, 50.857508570490026 ] } },
{ "type": "Feature", "properties": { "strassenschluessel": "05334000000401325", "bezeichnung": "Falkenweg" }, "geometry": { "type": "Point", "coordinates": [ 6.153457759665588, 50.857182263725001 ] } },
{ "type": "Feature", "properties": { "strassenschluessel": "05334000000401326", "bezeichnung": "Fasanenweg" }, "geometry": { "type": "Point", "coordinates": [ 6.153033758060415, 50.856927079428758 ] } },
{ "type": "Feature", "properties": { "strassenschluessel": "05334000000401327", "bezeichnung": "Finkenweg" }, "geometry": { "type": "Point", "coordinates": [ 6.154270492701643, 50.856989835478885 ] } },
{ "type": "Feature", "properties": { "strassenschluessel": "05334000000401328", "bezeichnung": "Forellenweg" }, "geometry": { "type": "Point", "coordinates": [ 6.154744999970994, 50.857050067181007 ] } },
{ "type": "Feature", "properties": { "strassenschluessel": "05334000000401329", "bezeichnung": "Fuchsweg" }, "geometry": { "type": "Point", "coordinates": [ 6.155196354385247, 50.85689167613458 ] } },
{ "type": "Feature", "properties": { "strassenschluessel": "05334000000401330", "bezeichnung": "Grillenweg" }, "geometry": { "type": "Point", "coordinates": [ 6.155640670653439, 50.856859347076345 ] } },
{ "type": "Feature", "properties": { "strassenschluessel": "05334000000401331", "bezeichnung": "Habichtweg" }, "geometry": { "type": "Point", "coordinates": [ 6.154739943555104, 50.856721222672554 ] } },
{ "type": "Feature", "properties": { "strassenschluessel": "05334000000401332", "bezeichnung": "Hamsterweg" }, "geometry": { "type": "Point", "coordinates": [ 6.153859423271412, 50.855493052073641 ] } },
{ "type": "Feature", "properties": { "strassenschluessel": "05334000000401333", "bezeichnung": "Hasenweg" }, "geometry": { "type": "Point", "coordinates": [ 6.154318012196301, 50.855386004458694 ] } },
{ "type": "Feature", "properties": { "strassenschluessel": "05334000000401334", "bezeichnung": "Lerchenweg" }, "geometry": { "type": "Point", "coordinates": [ 6.154682184821315, 50.855166229194666 ] } },
{ "type": "Feature", "properties": { "strassenschluessel": "05334000000401335", "bezeichnung": "Meisenweg" }, "geometry": { "type": "Point", "coordinates": [ 6.154358681069549, 50.854965573429325 ] } },
{ "type": "Feature", "properties": { "strassenschluessel": "05334000000401336", "bezeichnung": "Nachtigallenweg" }, "geometry": { "type": "Point", "coordinates": [ 6.153091446746947, 50.855019907449872 ] } },
{ "type": "Feature", "properties": { "strassenschluessel": "05334000000401337", "bezeichnung": "Rabenweg" }, "geometry": { "type": "Point", "coordinates": [ 6.152989414264206, 50.854770612448455 ] } },
{ "type": "Feature", "properties": { "strassenschluessel": "05334000000401338", "bezeichnung": "Rotkehlchenweg" }, "geometry": { "type": "Point", "coordinates": [ 6.152933922932365, 50.85448118465397 ] } },
{ "type": "Feature", "properties": { "strassenschluessel": "05334000000401339", "bezeichnung": "Sperlingsweg" }, "geometry": { "type": "Point", "coordinates": [ 6.153915761010044, 50.854827818617061 ] } },
{ "type": "Feature", "properties": { "strassenschluessel": "05334000000401340", "bezeichnung": "Schwalbenweg" }, "geometry": { "type": "Point", "coordinates": [ 6.154046840554592, 50.854764553732302 ] } },
{ "type": "Feature", "properties": { "strassenschluessel": "05334000000401341", "bezeichnung": "Starenweg" }, "geometry": { "type": "Point", "coordinates": [ 6.153829875048907, 50.85455063824373 ] } },
{ "type": "Feature", "properties": { "strassenschluessel": "05334000000401342", "bezeichnung": "Taubenweg" }, "geometry": { "type": "Point", "coordinates": [ 6.153753937055411, 50.854224471096629 ] } },
{ "type": "Feature", "properties": { "strassenschluessel": "05334000000401343", "bezeichnung": "Wachtelweg" }, "geometry": { "type": "Point", "coordinates": [ 6.153056249278169, 50.854090002257848 ] } },
{ "type": "Feature", "properties": { "strassenschluessel": "05334000000401344", "bezeichnung": "Schleibacher Hof" }, "geometry": { "type": "Point", "coordinates": [ 6.146290651059377, 50.853721306326705 ] } },
{ "type": "Feature", "properties": { "strassenschluessel": "05334000000401345", "bezeichnung": "Gronsfeldweg" }, "geometry": { "type": "Point", "coordinates": [ 6.149045204534735, 50.852316813521135 ] } },
{ "type": "Feature", "properties": { "strassenschluessel": "05334000000401346", "bezeichnung": "Nievelsteiner Weg" }, "geometry": { "type": "Point", "coordinates": [ 6.14684673644834, 50.849203112163963 ] } },
{ "type": "Feature", "properties": { "strassenschluessel": "05334000000401347", "bezeichnung": "Eidechsenstraße" }, "geometry": { "type": "Point", "coordinates": [ 6.158782567508235, 50.856195398726378 ] } },
{ "type": "Feature", "properties": { "strassenschluessel": "05334000000401348", "bezeichnung": "Entenweg" }, "geometry": { "type": "Point", "coordinates": [ 6.157171789499055, 50.857519528584341 ] } },
{ "type": "Feature", "properties": { "strassenschluessel": "05334000000401349", "bezeichnung": "Fohlenweg" }, "geometry": { "type": "Point", "coordinates": [ 6.156471145274681, 50.856988798414697 ] } },
{ "type": "Feature", "properties": { "strassenschluessel": "05334000000401350", "bezeichnung": "Auerhahnweg" }, "geometry": { "type": "Point", "coordinates": [ 6.15442244770092, 50.858295843925582 ] } },
{ "type": "Feature", "properties": { "strassenschluessel": "05334000000401351", "bezeichnung": "Bonhoefferstraße" }, "geometry": { "type": "Point", "coordinates": [ 6.149233989722839, 50.858525814747566 ] } },
{ "type": "Feature", "properties": { "strassenschluessel": "05334000000401352", "bezeichnung": "Daniel-Schreber-Straße" }, "geometry": { "type": "Point", "coordinates": [ 6.149875457672399, 50.855663011169753 ] } },
{ "type": "Feature", "properties": { "strassenschluessel": "05334000000401353", "bezeichnung": "Akazienweg" }, "geometry": { "type": "Point", "coordinates": [ 6.149538388654028, 50.860590181060999 ] } },
{ "type": "Feature", "properties": { "strassenschluessel": "05334000000401354", "bezeichnung": "Algenweg" }, "geometry": { "type": "Point", "coordinates": [ 6.146069064005587, 50.859231949198183 ] } },
{ "type": "Feature", "properties": { "strassenschluessel": "05334000000401355", "bezeichnung": "Anemonenweg" }, "geometry": { "type": "Point", "coordinates": [ 6.150929281108168, 50.859779226192963 ] } },
{ "type": "Feature", "properties": { "strassenschluessel": "05334000000401356", "bezeichnung": "Apfelweg" }, "geometry": { "type": "Point", "coordinates": [ 6.152659490034942, 50.859463006013769 ] } },
{ "type": "Feature", "properties": { "strassenschluessel": "05334000000401357", "bezeichnung": "Arnikaweg" }, "geometry": { "type": "Point", "coordinates": [ 6.150606645546857, 50.859419154575178 ] } },
{ "type": "Feature", "properties": { "strassenschluessel": "05334000000401358", "bezeichnung": "Asternweg" }, "geometry": { "type": "Point", "coordinates": [ 6.14904500689534, 50.860100514688888 ] } },
{ "type": "Feature", "properties": { "strassenschluessel": "05334000000401359", "bezeichnung": "Aurikelweg" }, "geometry": { "type": "Point", "coordinates": [ 6.149034463953782, 50.859804951940738 ] } },
{ "type": "Feature", "properties": { "strassenschluessel": "05334000000401360", "bezeichnung": "Azaleenweg" }, "geometry": { "type": "Point", "coordinates": [ 6.146936342699149, 50.860419872577104 ] } },
{ "type": "Feature", "properties": { "strassenschluessel": "05334000000401361", "bezeichnung": "Begonienweg" }, "geometry": { "type": "Point", "coordinates": [ 6.145806564565466, 50.859902469239842 ] } },
{ "type": "Feature", "properties": { "strassenschluessel": "05334000000401362", "bezeichnung": "Bellisweg" }, "geometry": { "type": "Point", "coordinates": [ 6.145730603207445, 50.86114595598864 ] } },
{ "type": "Feature", "properties": { "strassenschluessel": "05334000000401363", "bezeichnung": "Berberitzenweg" }, "geometry": { "type": "Point", "coordinates": [ 6.149803970243041, 50.859119418605523 ] } },
{ "type": "Feature", "properties": { "strassenschluessel": "05334000000401364", "bezeichnung": "Binsenweg" }, "geometry": { "type": "Point", "coordinates": [ 6.147237703760545, 50.860039255431282 ] } },
{ "type": "Feature", "properties": { "strassenschluessel": "05334000000401365", "bezeichnung": "Brombeerweg" }, "geometry": { "type": "Point", "coordinates": [ 6.146849017831853, 50.859815405507305 ] } },
{ "type": "Feature", "properties": { "strassenschluessel": "05334000000401366", "bezeichnung": "Buchsbaumweg" }, "geometry": { "type": "Point", "coordinates": [ 6.146349022044475, 50.85905187530696 ] } },
{ "type": "Feature", "properties": { "strassenschluessel": "05334000000401367", "bezeichnung": "Dahlienweg" }, "geometry": { "type": "Point", "coordinates": [ 6.149109330976017, 50.859497337023626 ] } },
{ "type": "Feature", "properties": { "strassenschluessel": "05334000000401368", "bezeichnung": "Dornbuschweg" }, "geometry": { "type": "Point", "coordinates": [ 6.146372253798582, 50.859679906554263 ] } },
{ "type": "Feature", "properties": { "strassenschluessel": "05334000000401369", "bezeichnung": "Gladiolenweg" }, "geometry": { "type": "Point", "coordinates": [ 6.148992279439407, 50.858187199726849 ] } },
{ "type": "Feature", "properties": { "strassenschluessel": "05334000000401370", "bezeichnung": "Goldlackweg" }, "geometry": { "type": "Point", "coordinates": [ 6.149269940682601, 50.857921034831278 ] } },
{ "type": "Feature", "properties": { "strassenschluessel": "05334000000401371", "bezeichnung": "Himmelschlüsselweg" }, "geometry": { "type": "Point", "coordinates": [ 6.149097802921977, 50.857605618637002 ] } },
{ "type": "Feature", "properties": { "strassenschluessel": "05334000000401372", "bezeichnung": "Immergrünweg" }, "geometry": { "type": "Point", "coordinates": [ 6.148557119074113, 50.858177729882307 ] } },
{ "type": "Feature", "properties": { "strassenschluessel": "05334000000401373", "bezeichnung": "Kiefernweg" }, "geometry": { "type": "Point", "coordinates": [ 6.149557858102517, 50.85732552604523 ] } },
{ "type": "Feature", "properties": { "strassenschluessel": "05334000000401374", "bezeichnung": "Lavendelweg" }, "geometry": { "type": "Point", "coordinates": [ 6.148484210593725, 50.856576298227232 ] } },
{ "type": "Feature", "properties": { "strassenschluessel": "05334000000401375", "bezeichnung": "Ligusterweg" }, "geometry": { "type": "Point", "coordinates": [ 6.149249889808802, 50.856228949221816 ] } },
{ "type": "Feature", "properties": { "strassenschluessel": "05334000000401376", "bezeichnung": "Lobelienweg" }, "geometry": { "type": "Point", "coordinates": [ 6.149560644156812, 50.856342308199672 ] } },
{ "type": "Feature", "properties": { "strassenschluessel": "05334000000401377", "bezeichnung": "Lupinenweg" }, "geometry": { "type": "Point", "coordinates": [ 6.149116659848498, 50.856550860790364 ] } },
{ "type": "Feature", "properties": { "strassenschluessel": "05334000000401378", "bezeichnung": "Malvenweg" }, "geometry": { "type": "Point", "coordinates": [ 6.14879415870015, 50.856156561092021 ] } },
{ "type": "Feature", "properties": { "strassenschluessel": "05334000000401379", "bezeichnung": "Margeritenweg" }, "geometry": { "type": "Point", "coordinates": [ 6.149056987977979, 50.855909472244377 ] } },
{ "type": "Feature", "properties": { "strassenschluessel": "05334000000401380", "bezeichnung": "Primelweg" }, "geometry": { "type": "Point", "coordinates": [ 6.149218962468185, 50.855567332091468 ] } },
{ "type": "Feature", "properties": { "strassenschluessel": "05334000000401381", "bezeichnung": "Ritterspornweg" }, "geometry": { "type": "Point", "coordinates": [ 6.148884026481179, 50.855219943216163 ] } },
{ "type": "Feature", "properties": { "strassenschluessel": "05334000000401382", "bezeichnung": "Safranweg" }, "geometry": { "type": "Point", "coordinates": [ 6.148502489113134, 50.854866898360612 ] } },
{ "type": "Feature", "properties": { "strassenschluessel": "05334000000401383", "bezeichnung": "Lotusweg" }, "geometry": null },
{ "type": "Feature", "properties": { "strassenschluessel": "05334000000401384", "bezeichnung": "Akeleiweg" }, "geometry": null },
{ "type": "Feature", "properties": { "strassenschluessel": "05334000000401385", "bezeichnung": "Dachsweg" }, "geometry": { "type": "Point", "coordinates": [ 6.15354624277254, 50.85583558253375 ] } },
{ "type": "Feature", "properties": { "strassenschluessel": "05334000000401386", "bezeichnung": "Kiebitzweg" }, "geometry": { "type": "Point", "coordinates": [ 6.154599692021672, 50.855848086092536 ] } },
{ "type": "Feature", "properties": { "strassenschluessel": "05334000000401391", "bezeichnung": "Brunnenweg" }, "geometry": { "type": "Point", "coordinates": [ 6.129277412232921, 50.862338677290097 ] } },
{ "type": "Feature", "properties": { "strassenschluessel": "05334000000401392", "bezeichnung": "Duffesheider Weg" }, "geometry": { "type": "Point", "coordinates": [ 6.131109861342476, 50.852720317992372 ] } },
{ "type": "Feature", "properties": { "strassenschluessel": "05334000000401393", "bezeichnung": "Genuitstraße" }, "geometry": { "type": "Point", "coordinates": [ 6.135747282257406, 50.857113343748573 ] } },
{ "type": "Feature", "properties": { "strassenschluessel": "05334000000401394", "bezeichnung": "Schloß Ottenfeld" }, "geometry": { "type": "Point", "coordinates": [ 6.140344997599493, 50.863049712538619 ] } },
{ "type": "Feature", "properties": { "strassenschluessel": "05334000000401395", "bezeichnung": "Radsberg" }, "geometry": { "type": "Point", "coordinates": [ 6.136377320571236, 50.852617023067182 ] } },
{ "type": "Feature", "properties": { "strassenschluessel": "05334000000401396", "bezeichnung": "Reifeld" }, "geometry": { "type": "Point", "coordinates": [ 6.129078933064291, 50.85781777662686 ] } },
{ "type": "Feature", "properties": { "strassenschluessel": "05334000000401397", "bezeichnung": "Überheide" }, "geometry": null },
{ "type": "Feature", "properties": { "strassenschluessel": "05334000000401398", "bezeichnung": "Von-Blanckart-Straße" }, "geometry": { "type": "Point", "coordinates": [ 6.138425132697193, 50.858983533262716 ] } },
{ "type": "Feature", "properties": { "strassenschluessel": "05334000000401401", "bezeichnung": "Am Ehrenmal" }, "geometry": { "type": "Point", "coordinates": [ 6.135142926766979, 50.867034818907932 ] } },
{ "type": "Feature", "properties": { "strassenschluessel": "05334000000401402", "bezeichnung": "Am Wasserlauf" }, "geometry": { "type": "Point", "coordinates": [ 6.133766115326431, 50.868605273632944 ] } },
{ "type": "Feature", "properties": { "strassenschluessel": "05334000000401403", "bezeichnung": "Auf dem Ohligsberg" }, "geometry": { "type": "Point", "coordinates": [ 6.13765633022602, 50.866648824607147 ] } },
{ "type": "Feature", "properties": { "strassenschluessel": "05334000000401404", "bezeichnung": "Erzbergerstraße" }, "geometry": { "type": "Point", "coordinates": [ 6.136638164820478, 50.868064864131782 ] } },
{ "type": "Feature", "properties": { "strassenschluessel": "05334000000401405", "bezeichnung": "Franz-Rotthäuser-Straße" }, "geometry": { "type": "Point", "coordinates": [ 6.131810665883751, 50.86911823584218 ] } },
{ "type": "Feature", "properties": { "strassenschluessel": "05334000000401406", "bezeichnung": "Friedrich-Ebert-Straße" }, "geometry": { "type": "Point", "coordinates": [ 6.137747256119772, 50.868645801683634 ] } },
{ "type": "Feature", "properties": { "strassenschluessel": "05334000000401407", "bezeichnung": "Glück-Auf-Straße" }, "geometry": { "type": "Point", "coordinates": [ 6.13615464526111, 50.867897010020421 ] } },
{ "type": "Feature", "properties": { "strassenschluessel": "05334000000401408", "bezeichnung": "Im Broichtal" }, "geometry": { "type": "Point", "coordinates": [ 6.145455118638678, 50.864614233692194 ] } },
{ "type": "Feature", "properties": { "strassenschluessel": "05334000000401409", "bezeichnung": "Im Rosenhain" }, "geometry": { "type": "Point", "coordinates": [ 6.131226000235336, 50.868889055492133 ] } },
{ "type": "Feature", "properties": { "strassenschluessel": "05334000000401410", "bezeichnung": "Im Vogelsang" }, "geometry": { "type": "Point", "coordinates": [ 6.131654869400561, 50.868479034045137 ] } },
{ "type": "Feature", "properties": { "strassenschluessel": "05334000000401411", "bezeichnung": "Ottenfelder Straße" }, "geometry": { "type": "Point", "coordinates": [ 6.14091930657741, 50.865171506726746 ] } },
{ "type": "Feature", "properties": { "strassenschluessel": "05334000000401413", "bezeichnung": "Rathenaustraße" }, "geometry": { "type": "Point", "coordinates": [ 6.135980579389614, 50.869230640720886 ] } },
{ "type": "Feature", "properties": { "strassenschluessel": "05334000000401414", "bezeichnung": "Tannenstraße" }, "geometry": { "type": "Point", "coordinates": [ 6.139294558978526, 50.868131023348418 ] } },
{ "type": "Feature", "properties": { "strassenschluessel": "05334000000401415", "bezeichnung": "Weidgenstraße" }, "geometry": { "type": "Point", "coordinates": [ 6.135294842596661, 50.868798176889108 ] } },
{ "type": "Feature", "properties": { "strassenschluessel": "05334000000401416", "bezeichnung": "Scheidemannstraße" }, "geometry": { "type": "Point", "coordinates": [ 6.140074188112151, 50.868886733708543 ] } },
{ "type": "Feature", "properties": { "strassenschluessel": "05334000000401417", "bezeichnung": "Dr.-Helmut-Eckert-Straße" }, "geometry": { "type": "Point", "coordinates": [ 6.141562219998931, 50.877321367955751 ] } },
{ "type": "Feature", "properties": { "strassenschluessel": "05334000000401420", "bezeichnung": "Am Hang" }, "geometry": { "type": "Point", "coordinates": [ 6.135380754590584, 50.879581543783452 ] } },
{ "type": "Feature", "properties": { "strassenschluessel": "05334000000401421", "bezeichnung": "Alte Aachener Straße" }, "geometry": { "type": "Point", "coordinates": [ 6.140505836857638, 50.878567749097634 ] } },
{ "type": "Feature", "properties": { "strassenschluessel": "05334000000401422", "bezeichnung": "Am Waldsaum" }, "geometry": { "type": "Point", "coordinates": [ 6.136882422566099, 50.880134879393445 ] } },
{ "type": "Feature", "properties": { "strassenschluessel": "05334000000401423", "bezeichnung": "Baumhof" }, "geometry": { "type": "Point", "coordinates": [ 6.136231772462549, 50.878069032721449 ] } },
{ "type": "Feature", "properties": { "strassenschluessel": "05334000000401424", "bezeichnung": "Eisenbahnstraße" }, "geometry": { "type": "Point", "coordinates": [ 6.131010495615042, 50.87826125359485 ] } },
{ "type": "Feature", "properties": { "strassenschluessel": "05334000000401425", "bezeichnung": "Grüner Platz" }, "geometry": { "type": "Point", "coordinates": [ 6.138164232881369, 50.877438738352964 ] } },
{ "type": "Feature", "properties": { "strassenschluessel": "05334000000401426", "bezeichnung": "Heckenstraße" }, "geometry": { "type": "Point", "coordinates": [ 6.13903354182483, 50.878977588201771 ] } },
{ "type": "Feature", "properties": { "strassenschluessel": "05334000000401427", "bezeichnung": "Herzogenrather Straße" }, "geometry": { "type": "Point", "coordinates": [ 6.149816929861843, 50.876350398719431 ] } },
{ "type": "Feature", "properties": { "strassenschluessel": "05334000000401428", "bezeichnung": "Mittelstraße" }, "geometry": { "type": "Point", "coordinates": [ 6.137560817951695, 50.878813825082439 ] } },
{ "type": "Feature", "properties": { "strassenschluessel": "05334000000401429", "bezeichnung": "Pappelstraße" }, "geometry": { "type": "Point", "coordinates": [ 6.137765239843716, 50.877958373803416 ] } },
{ "type": "Feature", "properties": { "strassenschluessel": "05334000000401430", "bezeichnung": "Pastor-Josef-Borgmann-Straße" }, "geometry": { "type": "Point", "coordinates": [ 6.141419376800958, 50.878971852395537 ] } },
{ "type": "Feature", "properties": { "strassenschluessel": "05334000000401431", "bezeichnung": "Christ-König-Straße" }, "geometry": null },
{ "type": "Feature", "properties": { "strassenschluessel": "05334000000401433", "bezeichnung": "Edith-Stein-Straße" }, "geometry": { "type": "Point", "coordinates": [ 6.139684445574952, 50.87995086858254 ] } },
{ "type": "Feature", "properties": { "strassenschluessel": "05334000000401442", "bezeichnung": "Am Feldrain" }, "geometry": { "type": "Point", "coordinates": [ 6.14266664720367, 50.879906893610695 ] } },
{ "type": "Feature", "properties": { "strassenschluessel": "05334000000401443", "bezeichnung": "An der Burgmaar" }, "geometry": { "type": "Point", "coordinates": [ 6.185685742556118, 50.859753745274453 ] } },
{ "type": "Feature", "properties": { "strassenschluessel": "05334000000401444", "bezeichnung": "An den Eldern" }, "geometry": { "type": "Point", "coordinates": [ 6.14031099487591, 50.881344413227005 ] } },
{ "type": "Feature", "properties": { "strassenschluessel": "05334000000401445", "bezeichnung": "Birkenstraße" }, "geometry": { "type": "Point", "coordinates": [ 6.132000724700076, 50.878270072548013 ] } },
{ "type": "Feature", "properties": { "strassenschluessel": "05334000000401446", "bezeichnung": "Buchenstraße" }, "geometry": { "type": "Point", "coordinates": [ 6.133825288530191, 50.879652377127506 ] } },
{ "type": "Feature", "properties": { "strassenschluessel": "05334000000401447", "bezeichnung": "Buschhofer Weg" }, "geometry": { "type": "Point", "coordinates": [ 6.13442190050588, 50.881632842913582 ] } },
{ "type": "Feature", "properties": { "strassenschluessel": "05334000000401448", "bezeichnung": "Buschstraße" }, "geometry": { "type": "Point", "coordinates": [ 6.135164992681963, 50.880625328171575 ] } },
{ "type": "Feature", "properties": { "strassenschluessel": "05334000000401449", "bezeichnung": "Eibenstraße" }, "geometry": { "type": "Point", "coordinates": [ 6.134618171638487, 50.879732547364526 ] } },
{ "type": "Feature", "properties": { "strassenschluessel": "05334000000401450", "bezeichnung": "Heimstraße" }, "geometry": { "type": "Point", "coordinates": [ 6.133044757950599, 50.878594840971346 ] } },
{ "type": "Feature", "properties": { "strassenschluessel": "05334000000401451", "bezeichnung": "Im Birnbaumswinkel" }, "geometry": { "type": "Point", "coordinates": [ 6.136173488577156, 50.882613561175219 ] } },
{ "type": "Feature", "properties": { "strassenschluessel": "05334000000401452", "bezeichnung": "Ludwig-Kessing-Straße" }, "geometry": { "type": "Point", "coordinates": [ 6.139645373350768, 50.880844720589607 ] } },
{ "type": "Feature", "properties": { "strassenschluessel": "05334000000401454", "bezeichnung": "Mittelplatz" }, "geometry": { "type": "Point", "coordinates": [ 6.138790429487857, 50.882164954831225 ] } },
{ "type": "Feature", "properties": { "strassenschluessel": "05334000000401455", "bezeichnung": "Nordsternweg" }, "geometry": { "type": "Point", "coordinates": [ 6.135605611106604, 50.881870934343922 ] } },
{ "type": "Feature", "properties": { "strassenschluessel": "05334000000401456", "bezeichnung": "Unterm Hang" }, "geometry": { "type": "Point", "coordinates": [ 6.134950809427992, 50.879191278656087 ] } },
{ "type": "Feature", "properties": { "strassenschluessel": "05334000000401457", "bezeichnung": "Vierzechenblick" }, "geometry": { "type": "Point", "coordinates": [ 6.139656516770461, 50.882098046363275 ] } },
{ "type": "Feature", "properties": { "strassenschluessel": "05334000000401458", "bezeichnung": "Winkelweg" }, "geometry": { "type": "Point", "coordinates": [ 6.141269560468902, 50.882024102260573 ] } },
{ "type": "Feature", "properties": { "strassenschluessel": "05334000000401459", "bezeichnung": "Zum Beginnental" }, "geometry": { "type": "Point", "coordinates": [ 6.137131390567493, 50.881940326147479 ] } },
{ "type": "Feature", "properties": { "strassenschluessel": "05334000000401460", "bezeichnung": "Blumenstraße" }, "geometry": { "type": "Point", "coordinates": [ 6.142500292159946, 50.879502776285847 ] } },
{ "type": "Feature", "properties": { "strassenschluessel": "05334000000401461", "bezeichnung": "Am Alten Gericht" }, "geometry": { "type": "Point", "coordinates": [ 6.223586948709893, 50.861021777739033 ] } },
{ "type": "Feature", "properties": { "strassenschluessel": "05334000000401462", "bezeichnung": "Am Höfchen" }, "geometry": { "type": "Point", "coordinates": [ 6.216396154229752, 50.859440696669189 ] } },
{ "type": "Feature", "properties": { "strassenschluessel": "05334000000401463", "bezeichnung": "Auf dem Bungart" }, "geometry": { "type": "Point", "coordinates": [ 6.219621464209832, 50.855799245527813 ] } },
{ "type": "Feature", "properties": { "strassenschluessel": "05334000000401464", "bezeichnung": "Begaustraße" }, "geometry": { "type": "Point", "coordinates": [ 6.215418704257483, 50.858464482180942 ] } },
{ "type": "Feature", "properties": { "strassenschluessel": "05334000000401465", "bezeichnung": "Dämmstraße" }, "geometry": { "type": "Point", "coordinates": [ 6.216482728392883, 50.862197153336318 ] } },
{ "type": "Feature", "properties": { "strassenschluessel": "05334000000401466", "bezeichnung": "Dr.-Lausberg-Straße" }, "geometry": { "type": "Point", "coordinates": [ 6.221985236650728, 50.859366000976465 ] } },
{ "type": "Feature", "properties": { "strassenschluessel": "05334000000401467", "bezeichnung": "Goethestraße" }, "geometry": { "type": "Point", "coordinates": [ 6.214116510503104, 50.867612718495081 ] } },
{ "type": "Feature", "properties": { "strassenschluessel": "05334000000401468", "bezeichnung": "Jakobstraße" }, "geometry": { "type": "Point", "coordinates": [ 6.219376284637868, 50.857873903910686 ] } },
{ "type": "Feature", "properties": { "strassenschluessel": "05334000000401469", "bezeichnung": "Kinzweilerstraße" }, "geometry": { "type": "Point", "coordinates": [ 6.217379733870817, 50.857938135056308 ] } },
{ "type": "Feature", "properties": { "strassenschluessel": "05334000000401470", "bezeichnung": "Quellenstraße" }, "geometry": { "type": "Point", "coordinates": [ 6.215303321715837, 50.85706177415409 ] } },
{ "type": "Feature", "properties": { "strassenschluessel": "05334000000401471", "bezeichnung": "Teutonenstraße" }, "geometry": { "type": "Point", "coordinates": [ 6.219665653466186, 50.858499100928896 ] } },
{ "type": "Feature", "properties": { "strassenschluessel": "05334000000401472", "bezeichnung": "Wardener Straße" }, "geometry": { "type": "Point", "coordinates": [ 6.217530260922346, 50.860584886380842 ] } },
{ "type": "Feature", "properties": { "strassenschluessel": "05334000000401473", "bezeichnung": "Kimbernstraße" }, "geometry": { "type": "Point", "coordinates": [ 6.219580507180286, 50.860343419846295 ] } },
{ "type": "Feature", "properties": { "strassenschluessel": "05334000000401474", "bezeichnung": "Kapellenstraße" }, "geometry": { "type": "Point", "coordinates": [ 6.221006158122485, 50.860061634597294 ] } },
{ "type": "Feature", "properties": { "strassenschluessel": "05334000000401475", "bezeichnung": "Frankenstraße" }, "geometry": { "type": "Point", "coordinates": [ 6.217181329640605, 50.861600491657278 ] } },
{ "type": "Feature", "properties": { "strassenschluessel": "05334000000401476", "bezeichnung": "Am Römerhof" }, "geometry": { "type": "Point", "coordinates": [ 6.208012783982187, 50.862073571807606 ] } },
{ "type": "Feature", "properties": { "strassenschluessel": "05334000000401477", "bezeichnung": "Am Frankenhaus" }, "geometry": { "type": "Point", "coordinates": [ 6.208141988686987, 50.861342331858964 ] } },
{ "type": "Feature", "properties": { "strassenschluessel": "05334000000401478", "bezeichnung": "Keltenweg" }, "geometry": { "type": "Point", "coordinates": [ 6.206906113897421, 50.861987248532742 ] } },
{ "type": "Feature", "properties": { "strassenschluessel": "05334000000401481", "bezeichnung": "Am Müschekamp" }, "geometry": { "type": "Point", "coordinates": [ 6.208980189031627, 50.864996782877284 ] } },
{ "type": "Feature", "properties": { "strassenschluessel": "05334000000401482", "bezeichnung": "Amselweg" }, "geometry": { "type": "Point", "coordinates": [ 6.207160516377967, 50.860763929535615 ] } },
{ "type": "Feature", "properties": { "strassenschluessel": "05334000000401483", "bezeichnung": "Corneliusstraße" }, "geometry": { "type": "Point", "coordinates": [ 6.215747682814855, 50.870865523338445 ] } },
{ "type": "Feature", "properties": { "strassenschluessel": "05334000000401485", "bezeichnung": "Gottfried-Wacker-Straße" }, "geometry": { "type": "Point", "coordinates": [ 6.213590570165596, 50.866881527967216 ] } },
{ "type": "Feature", "properties": { "strassenschluessel": "05334000000401486", "bezeichnung": "Hans-Böckler-Straße" }, "geometry": { "type": "Point", "coordinates": [ 6.204420773723263, 50.864146009912403 ] } },
{ "type": "Feature", "properties": { "strassenschluessel": "05334000000401487", "bezeichnung": "Jülicher Straße" }, "geometry": { "type": "Point", "coordinates": [ 6.207410206161976, 50.864279971473813 ] } },
{ "type": "Feature", "properties": { "strassenschluessel": "05334000000401488", "bezeichnung": "Kleiberstraße" }, "geometry": { "type": "Point", "coordinates": [ 6.206606742618228, 50.859963623696935 ] } },
{ "type": "Feature", "properties": { "strassenschluessel": "05334000000401489", "bezeichnung": "Kranichstraße" }, "geometry": { "type": "Point", "coordinates": [ 6.205781037592789, 50.860522160705479 ] } },
{ "type": "Feature", "properties": { "strassenschluessel": "05334000000401490", "bezeichnung": "Lessingstraße" }, "geometry": { "type": "Point", "coordinates": [ 6.212464714666417, 50.866078601891651 ] } },
{ "type": "Feature", "properties": { "strassenschluessel": "05334000000401491", "bezeichnung": "Martin-Struff-Straße" }, "geometry": { "type": "Point", "coordinates": [ 6.210453031298577, 50.869455606361356 ] } },
{ "type": "Feature", "properties": { "strassenschluessel": "05334000000401492", "bezeichnung": "Neustraße" }, "geometry": null },
{ "type": "Feature", "properties": { "strassenschluessel": "05334000000401493", "bezeichnung": "Paul-Kaußen-Straße" }, "geometry": { "type": "Point", "coordinates": [ 6.211435037243561, 50.869190992491404 ] } },
{ "type": "Feature", "properties": { "strassenschluessel": "05334000000401494", "bezeichnung": "Sperberstraße" }, "geometry": { "type": "Point", "coordinates": [ 6.206856308387809, 50.859866078884657 ] } },
{ "type": "Feature", "properties": { "strassenschluessel": "05334000000401495", "bezeichnung": "Thomas-Mann-Straße" }, "geometry": { "type": "Point", "coordinates": [ 6.214155903986265, 50.866070545543259 ] } },
{ "type": "Feature", "properties": { "strassenschluessel": "05334000000401496", "bezeichnung": "Verbindungsstraße" }, "geometry": { "type": "Point", "coordinates": [ 6.212933793568318, 50.86933385516911 ] } },
{ "type": "Feature", "properties": { "strassenschluessel": "05334000000401497", "bezeichnung": "Alte Wardener Straße" }, "geometry": { "type": "Point", "coordinates": [ 6.205360862357198, 50.859935988589946 ] } },
{ "type": "Feature", "properties": { "strassenschluessel": "05334000000401498", "bezeichnung": "Zeisigstraße" }, "geometry": { "type": "Point", "coordinates": [ 6.206511960892963, 50.861717694318827 ] } },
{ "type": "Feature", "properties": { "strassenschluessel": "05334000000401499", "bezeichnung": "Ludwig-Schaffrath-Straße" }, "geometry": { "type": "Point", "coordinates": [ 6.209303530235808, 50.868815152520064 ] } },
{ "type": "Feature", "properties": { "strassenschluessel": "05334000000401511", "bezeichnung": "Am Bahndamm" }, "geometry": { "type": "Point", "coordinates": [ 6.205532722740089, 50.874887577042202 ] } },
{ "type": "Feature", "properties": { "strassenschluessel": "05334000000401512", "bezeichnung": "Am Schmiedsend" }, "geometry": { "type": "Point", "coordinates": [ 6.208483264736803, 50.874027585541967 ] } },
{ "type": "Feature", "properties": { "strassenschluessel": "05334000000401513", "bezeichnung": "Ackerstraße" }, "geometry": { "type": "Point", "coordinates": [ 6.207966109691692, 50.871609835925064 ] } },
{ "type": "Feature", "properties": { "strassenschluessel": "05334000000401514", "bezeichnung": "Bendenstraße" }, "geometry": { "type": "Point", "coordinates": [ 6.213665306107388, 50.871545629244928 ] } },
{ "type": "Feature", "properties": { "strassenschluessel": "05334000000401515", "bezeichnung": "Bergstraße" }, "geometry": { "type": "Point", "coordinates": [ 6.202486400500167, 50.866449225706056 ] } },
{ "type": "Feature", "properties": { "strassenschluessel": "05334000000401516", "bezeichnung": "Bettendorfer Straße" }, "geometry": { "type": "Point", "coordinates": [ 6.203904197910854, 50.870377548024436 ] } },
{ "type": "Feature", "properties": { "strassenschluessel": "05334000000401517", "bezeichnung": "Emundtsgäßchen" }, "geometry": { "type": "Point", "coordinates": [ 6.20436544390679, 50.867858148009574 ] } },
{ "type": "Feature", "properties": { "strassenschluessel": "05334000000401518", "bezeichnung": "Falterstraße" }, "geometry": { "type": "Point", "coordinates": [ 6.205312322206504, 50.873219486849173 ] } },
{ "type": "Feature", "properties": { "strassenschluessel": "05334000000401519", "bezeichnung": "Feldstraße" }, "geometry": { "type": "Point", "coordinates": [ 6.18865271466423, 50.865192594392333 ] } },
{ "type": "Feature", "properties": { "strassenschluessel": "05334000000401520", "bezeichnung": "Wiesenstraße" }, "geometry": { "type": "Point", "coordinates": [ 6.208778225516377, 50.866990277652164 ] } },
{ "type": "Feature", "properties": { "strassenschluessel": "05334000000401521", "bezeichnung": "Hahnengasse" }, "geometry": { "type": "Point", "coordinates": [ 6.211209765001899, 50.873328775284776 ] } },
{ "type": "Feature", "properties": { "strassenschluessel": "05334000000401522", "bezeichnung": "Krickelsberg" }, "geometry": { "type": "Point", "coordinates": [ 6.200490596670202, 50.86903530895934 ] } },
{ "type": "Feature", "properties": { "strassenschluessel": "05334000000401523", "bezeichnung": "Kreuzstraße" }, "geometry": { "type": "Point", "coordinates": [ 6.206764865844758, 50.87389412260255 ] } },
{ "type": "Feature", "properties": { "strassenschluessel": "05334000000401524", "bezeichnung": "Kirchgäßchen" }, "geometry": { "type": "Point", "coordinates": [ 6.209744226497134, 50.872338884258724 ] } },
{ "type": "Feature", "properties": { "strassenschluessel": "05334000000401525", "bezeichnung": "Kirchstraße" }, "geometry": { "type": "Point", "coordinates": [ 6.212405647039133, 50.870599808244734 ] } },
{ "type": "Feature", "properties": { "strassenschluessel": "05334000000401526", "bezeichnung": "Langstraße" }, "geometry": { "type": "Point", "coordinates": [ 6.205984103224797, 50.868916549641973 ] } },
{ "type": "Feature", "properties": { "strassenschluessel": "05334000000401527", "bezeichnung": "Marienstraße" }, "geometry": { "type": "Point", "coordinates": [ 6.198089594770502, 50.867163825321583 ] } },
{ "type": "Feature", "properties": { "strassenschluessel": "05334000000401528", "bezeichnung": "Marktstraße" }, "geometry": { "type": "Point", "coordinates": [ 6.210687664376744, 50.871593216783744 ] } },
{ "type": "Feature", "properties": { "strassenschluessel": "05334000000401529", "bezeichnung": "Ophovenstraße" }, "geometry": { "type": "Point", "coordinates": [ 6.207844696888555, 50.872713442090834 ] } },
{ "type": "Feature", "properties": { "strassenschluessel": "05334000000401530", "bezeichnung": "Pützdrieschstraße" }, "geometry": { "type": "Point", "coordinates": [ 6.202043189135362, 50.865684633781584 ] } },
{ "type": "Feature", "properties": { "strassenschluessel": "05334000000401531", "bezeichnung": "Raderstraße" }, "geometry": { "type": "Point", "coordinates": [ 6.205122063246939, 50.873771584502165 ] } },
{ "type": "Feature", "properties": { "strassenschluessel": "05334000000401532", "bezeichnung": "Schillerstraße" }, "geometry": { "type": "Point", "coordinates": [ 6.202417635874202, 50.869641352669021 ] } },
{ "type": "Feature", "properties": { "strassenschluessel": "05334000000401533", "bezeichnung": "Schulstraße" }, "geometry": { "type": "Point", "coordinates": [ 6.208071736485611, 50.871526751235201 ] } },
{ "type": "Feature", "properties": { "strassenschluessel": "05334000000401534", "bezeichnung": "Weilerstraße" }, "geometry": { "type": "Point", "coordinates": [ 6.209134801514579, 50.874728837547053 ] } },
{ "type": "Feature", "properties": { "strassenschluessel": "05334000000401535", "bezeichnung": "Wirthstraße" }, "geometry": { "type": "Point", "coordinates": [ 6.204271125479246, 50.867410172964213 ] } },
{ "type": "Feature", "properties": { "strassenschluessel": "05334000000401536", "bezeichnung": "Konrad-Zuse-Straße" }, "geometry": { "type": "Point", "coordinates": [ 6.216729467429107, 50.879957266635593 ] } },
{ "type": "Feature", "properties": { "strassenschluessel": "05334000000401537", "bezeichnung": "Werner-von-Siemens-Straße" }, "geometry": { "type": "Point", "coordinates": [ 6.215965351984543, 50.868599661541658 ] } },
{ "type": "Feature", "properties": { "strassenschluessel": "05334000000401541", "bezeichnung": "Am Südpark" }, "geometry": { "type": "Point", "coordinates": [ 6.197642660763211, 50.862319088408128 ] } },
{ "type": "Feature", "properties": { "strassenschluessel": "05334000000401542", "bezeichnung": "An der alten Grube" }, "geometry": { "type": "Point", "coordinates": [ 6.195449121818378, 50.864415853015679 ] } },
{ "type": "Feature", "properties": { "strassenschluessel": "05334000000401544", "bezeichnung": "Behringstraße" }, "geometry": { "type": "Point", "coordinates": [ 6.194959339595671, 50.862249364375266 ] } },
{ "type": "Feature", "properties": { "strassenschluessel": "05334000000401545", "bezeichnung": "Brassertstraße" }, "geometry": { "type": "Point", "coordinates": [ 6.1961637571033, 50.863562374694808 ] } },
{ "type": "Feature", "properties": { "strassenschluessel": "05334000000401546", "bezeichnung": "Enzianstraße" }, "geometry": { "type": "Point", "coordinates": [ 6.20182811094688, 50.863839884793904 ] } },
{ "type": "Feature", "properties": { "strassenschluessel": "05334000000401547", "bezeichnung": "Edelstraße" }, "geometry": { "type": "Point", "coordinates": [ 6.200034988507763, 50.862104686156052 ] } },
{ "type": "Feature", "properties": { "strassenschluessel": "05334000000401548", "bezeichnung": "Edelweißstraße" }, "geometry": { "type": "Point", "coordinates": [ 6.206069105180814, 50.864676098335167 ] } },
{ "type": "Feature", "properties": { "strassenschluessel": "05334000000401549", "bezeichnung": "Eschweilerstraße" }, "geometry": { "type": "Point", "coordinates": [ 6.196374176888509, 50.860366230120881 ] } },
{ "type": "Feature", "properties": { "strassenschluessel": "05334000000401550", "bezeichnung": "Fliederstraße" }, "geometry": { "type": "Point", "coordinates": [ 6.203273001422268, 50.86410118608503 ] } },
{ "type": "Feature", "properties": { "strassenschluessel": "05334000000401551", "bezeichnung": "Im Winkel" }, "geometry": { "type": "Point", "coordinates": [ 6.197846103140444, 50.861527919410179 ] } },
{ "type": "Feature", "properties": { "strassenschluessel": "05334000000401552", "bezeichnung": "Jasminstraße" }, "geometry": { "type": "Point", "coordinates": [ 6.202225717439108, 50.864445775518909 ] } },
{ "type": "Feature", "properties": { "strassenschluessel": "05334000000401553", "bezeichnung": "Jahnstraße" }, "geometry": { "type": "Point", "coordinates": [ 6.201871738052344, 50.862028911352752 ] } },
{ "type": "Feature", "properties": { "strassenschluessel": "05334000000401554", "bezeichnung": "Lilienstraße" }, "geometry": { "type": "Point", "coordinates": [ 6.200280559240614, 50.863338878820748 ] } },
{ "type": "Feature", "properties": { "strassenschluessel": "05334000000401555", "bezeichnung": "Lindenstraße" }, "geometry": { "type": "Point", "coordinates": [ 6.191566051546184, 50.862957597722861 ] } },
{ "type": "Feature", "properties": { "strassenschluessel": "05334000000401556", "bezeichnung": "Narzissenstraße" }, "geometry": { "type": "Point", "coordinates": [ 6.204295029058891, 50.865456149554589 ] } },
{ "type": "Feature", "properties": { "strassenschluessel": "05334000000401557", "bezeichnung": "Nelkenstraße" }, "geometry": { "type": "Point", "coordinates": [ 6.202731013333793, 50.8627293126643 ] } },
{ "type": "Feature", "properties": { "strassenschluessel": "05334000000401558", "bezeichnung": "Neulütticher Straße" }, "geometry": { "type": "Point", "coordinates": [ 6.197122059370123, 50.860922605191575 ] } },
{ "type": "Feature", "properties": { "strassenschluessel": "05334000000401559", "bezeichnung": "Ostlandstraße" }, "geometry": { "type": "Point", "coordinates": [ 6.194688084377729, 50.862929663496544 ] } },
{ "type": "Feature", "properties": { "strassenschluessel": "05334000000401561", "bezeichnung": "Querstraße" }, "geometry": { "type": "Point", "coordinates": [ 6.195220257543423, 50.861484974559843 ] } },
{ "type": "Feature", "properties": { "strassenschluessel": "05334000000401562", "bezeichnung": "Rosenstraße" }, "geometry": { "type": "Point", "coordinates": [ 6.203835201896865, 50.863384380555949 ] } },
{ "type": "Feature", "properties": { "strassenschluessel": "05334000000401563", "bezeichnung": "Veilchenstraße" }, "geometry": { "type": "Point", "coordinates": [ 6.201863607863531, 50.865072837933809 ] } },
{ "type": "Feature", "properties": { "strassenschluessel": "05334000000401564", "bezeichnung": "Zum Maria-Hauptschacht" }, "geometry": { "type": "Point", "coordinates": [ 6.192096034941023, 50.867600240859375 ] } },
{ "type": "Feature", "properties": { "strassenschluessel": "05334000000401565", "bezeichnung": "Käthe-Kollwitz-Straße" }, "geometry": { "type": "Point", "coordinates": [ 6.203303296432227, 50.867404734357478 ] } },
{ "type": "Feature", "properties": { "strassenschluessel": "05334000000401566", "bezeichnung": "Im Rosenhof" }, "geometry": { "type": "Point", "coordinates": [ 6.206706649150273, 50.864924138836479 ] } },
{ "type": "Feature", "properties": { "strassenschluessel": "05334000000401567", "bezeichnung": "Am Schöttel Eng" }, "geometry": { "type": "Point", "coordinates": [ 6.207819769640301, 50.872179584649068 ] } },
{ "type": "Feature", "properties": { "strassenschluessel": "05334000000401568", "bezeichnung": "Auf dem Wirth" }, "geometry": { "type": "Point", "coordinates": [ 6.205270073770632, 50.865958423400009 ] } },
{ "type": "Feature", "properties": { "strassenschluessel": "05334000000401569", "bezeichnung": "Johann-Kayen-Straße" }, "geometry": { "type": "Point", "coordinates": [ 6.208161947871984, 50.853389604663832 ] } },
{ "type": "Feature", "properties": { "strassenschluessel": "05334000000401570", "bezeichnung": "Am alten DJK-Sportplatz" }, "geometry": { "type": "Point", "coordinates": [ 6.207334275756135, 50.853419385337091 ] } },