{
"type": "FeatureCollection",
"features": [
{ "type": "Feature", "properties": { "strassenschluessel": "05774000000400100", "bezeichnung": "Adenauerstraße" }, "geometry": { "type": "Point", "coordinates": [ 8.930832605783994, 51.763916433104384 ] } },
{ "type": "Feature", "properties": { "strassenschluessel": "05774000000400200", "bezeichnung": "Ahornstraße" }, "geometry": { "type": "Point", "coordinates": [ 8.947885576445643, 51.762935545770262 ] } },
{ "type": "Feature", "properties": { "strassenschluessel": "05774000000400300", "bezeichnung": "Alte Bahnhofstraße" }, "geometry": { "type": "Point", "coordinates": [ 8.947067089765701, 51.76663875911337 ] } },
{ "type": "Feature", "properties": { "strassenschluessel": "05774000000400400", "bezeichnung": "Alter Kirchweg" }, "geometry": { "type": "Point", "coordinates": [ 8.933823843576361, 51.762672128366013 ] } },
{ "type": "Feature", "properties": { "strassenschluessel": "05774000000400500", "bezeichnung": "Am Brande" }, "geometry": { "type": "Point", "coordinates": [ 8.947934473099092, 51.761077635967823 ] } },
{ "type": "Feature", "properties": { "strassenschluessel": "05774000000400600", "bezeichnung": "Am Hammer" }, "geometry": { "type": "Point", "coordinates": [ 8.904547432309094, 51.757340661629442 ] } },
{ "type": "Feature", "properties": { "strassenschluessel": "05774000000400650", "bezeichnung": "Am Kalkofen" }, "geometry": { "type": "Point", "coordinates": [ 8.934207413947668, 51.765729204432795 ] } },
{ "type": "Feature", "properties": { "strassenschluessel": "05774000000400680", "bezeichnung": "Am Lindenhof" }, "geometry": { "type": "Point", "coordinates": [ 8.934660291401633, 51.76403975397826 ] } },
{ "type": "Feature", "properties": { "strassenschluessel": "05774000000400710", "bezeichnung": "Am Mühlenbach" }, "geometry": { "type": "Point", "coordinates": [ 8.934941566236656, 51.764644351602513 ] } },
{ "type": "Feature", "properties": { "strassenschluessel": "05774000000400800", "bezeichnung": "Am Siep" }, "geometry": { "type": "Point", "coordinates": [ 8.955961508169247, 51.77023463763198 ] } },
{ "type": "Feature", "properties": { "strassenschluessel": "05774000000400850", "bezeichnung": "Am Stapelsberg" }, "geometry": { "type": "Point", "coordinates": [ 8.919666570556826, 51.763109051276672 ] } },
{ "type": "Feature", "properties": { "strassenschluessel": "05774000000400900", "bezeichnung": "Badestraße" }, "geometry": { "type": "Point", "coordinates": [ 8.932476194304378, 51.762917751276213 ] } },
{ "type": "Feature", "properties": { "strassenschluessel": "05774000000401000", "bezeichnung": "Bahnhofstraße" }, "geometry": { "type": "Point", "coordinates": [ 8.941801344420481, 51.765116620354 ] } },
{ "type": "Feature", "properties": { "strassenschluessel": "05774000000401100", "bezeichnung": "Bergstraße" }, "geometry": { "type": "Point", "coordinates": [ 8.955770776719522, 51.763513673127385 ] } },
{ "type": "Feature", "properties": { "strassenschluessel": "05774000000401210", "bezeichnung": "Bokelweg" }, "geometry": { "type": "Point", "coordinates": [ 8.939716361853511, 51.76371408336167 ] } },
{ "type": "Feature", "properties": { "strassenschluessel": "05774000000401300", "bezeichnung": "Bollaes" }, "geometry": { "type": "Point", "coordinates": [ 8.93634757453008, 51.764174596430507 ] } },
{ "type": "Feature", "properties": { "strassenschluessel": "05774000000401400", "bezeichnung": "Bollerbornstraße" }, "geometry": { "type": "Point", "coordinates": [ 8.951874372435423, 51.761339631816327 ] } },
{ "type": "Feature", "properties": { "strassenschluessel": "05774000000401500", "bezeichnung": "Branthagenstraße" }, "geometry": { "type": "Point", "coordinates": [ 8.94886426511715, 51.759808064038907 ] } },
{ "type": "Feature", "properties": { "strassenschluessel": "05774000000401600", "bezeichnung": "Burgstraße" }, "geometry": { "type": "Point", "coordinates": [ 8.9449752848122, 51.764887134792218 ] } },
{ "type": "Feature", "properties": { "strassenschluessel": "05774000000401700", "bezeichnung": "Caspar-Kropff-Weg" }, "geometry": { "type": "Point", "coordinates": [ 8.947811535923094, 51.758571059807089 ] } },
{ "type": "Feature", "properties": { "strassenschluessel": "05774000000401800", "bezeichnung": "Christian-Schütze-Straße" }, "geometry": { "type": "Point", "coordinates": [ 8.940292706529881, 51.761183724186502 ] } },
{ "type": "Feature", "properties": { "strassenschluessel": "05774000000401850", "bezeichnung": "Dr.-Pentrup-Straße" }, "geometry": { "type": "Point", "coordinates": [ 8.945315998872138, 51.762146028226567 ] } },
{ "type": "Feature", "properties": { "strassenschluessel": "05774000000401900", "bezeichnung": "Eggering" }, "geometry": { "type": "Point", "coordinates": [ 8.956529790803888, 51.759577859592561 ] } },
{ "type": "Feature", "properties": { "strassenschluessel": "05774000000402000", "bezeichnung": "Eichendorffstraße" }, "geometry": { "type": "Point", "coordinates": [ 8.939426536866454, 51.765665482699021 ] } },
{ "type": "Feature", "properties": { "strassenschluessel": "05774000000402100", "bezeichnung": "Federathweg" }, "geometry": { "type": "Point", "coordinates": [ 8.946492166243655, 51.757049573912987 ] } },
{ "type": "Feature", "properties": { "strassenschluessel": "05774000000402200", "bezeichnung": "Feldmark" }, "geometry": { "type": "Point", "coordinates": [ 8.949516775071301, 51.769870038614471 ] } },
{ "type": "Feature", "properties": { "strassenschluessel": "05774000000402300", "bezeichnung": "Friedrich-Wilhelm-Weber-Straße" }, "geometry": { "type": "Point", "coordinates": [ 8.951747255344435, 51.761828806730314 ] } },
{ "type": "Feature", "properties": { "strassenschluessel": "05774000000402400", "bezeichnung": "Gänseberg" }, "geometry": { "type": "Point", "coordinates": [ 8.944656240134023, 51.763988212525163 ] } },
{ "type": "Feature", "properties": { "strassenschluessel": "05774000000402500", "bezeichnung": "Haidhügelweg" }, "geometry": { "type": "Point", "coordinates": [ 8.944896074370007, 51.765735536646432 ] } },
{ "type": "Feature", "properties": { "strassenschluessel": "05774000000402510", "bezeichnung": "Heinrich-Neuheuser-Weg" }, "geometry": { "type": "Point", "coordinates": [ 8.937477413247255, 51.765549355362268 ] } },
{ "type": "Feature", "properties": { "strassenschluessel": "05774000000402700", "bezeichnung": "Hüttenstraße" }, "geometry": { "type": "Point", "coordinates": [ 8.946766333192191, 51.762588878292149 ] } },
{ "type": "Feature", "properties": { "strassenschluessel": "05774000000402810", "bezeichnung": "Kirchplatz" }, "geometry": { "type": "Point", "coordinates": [ 8.941870785907742, 51.763050655671705 ] } },
{ "type": "Feature", "properties": { "strassenschluessel": "05774000000402900", "bezeichnung": "Kuhlbornstraße" }, "geometry": { "type": "Point", "coordinates": [ 8.944872638321307, 51.761289253514597 ] } },
{ "type": "Feature", "properties": { "strassenschluessel": "05774000000403000", "bezeichnung": "Ludwigweg" }, "geometry": { "type": "Point", "coordinates": [ 8.948707929595301, 51.752376271546211 ] } },
{ "type": "Feature", "properties": { "strassenschluessel": "05774000000403100", "bezeichnung": "Melmeke" }, "geometry": { "type": "Point", "coordinates": [ 8.940721745238614, 51.762066538869163 ] } },
{ "type": "Feature", "properties": { "strassenschluessel": "05774000000403200", "bezeichnung": "Natorpweg" }, "geometry": { "type": "Point", "coordinates": [ 8.948348225988097, 51.756590812122582 ] } },
{ "type": "Feature", "properties": { "strassenschluessel": "05774000000403310", "bezeichnung": "Obere Sage" }, "geometry": { "type": "Point", "coordinates": [ 8.949873491637861, 51.766112981082962 ] } },
{ "type": "Feature", "properties": { "strassenschluessel": "05774000000403400", "bezeichnung": "Obermühlenweg" }, "geometry": { "type": "Point", "coordinates": [ 8.950573890942092, 51.761986512623956 ] } },
{ "type": "Feature", "properties": { "strassenschluessel": "05774000000403500", "bezeichnung": "Ortwaldstraße" }, "geometry": { "type": "Point", "coordinates": [ 8.938920969461753, 51.764402758746535 ] } },
{ "type": "Feature", "properties": { "strassenschluessel": "05774000000403600", "bezeichnung": "Ossensteg" }, "geometry": { "type": "Point", "coordinates": [ 8.941554042070274, 51.761190625017377 ] } },
{ "type": "Feature", "properties": { "strassenschluessel": "05774000000403700", "bezeichnung": "Peter-Hille-Weg" }, "geometry": { "type": "Point", "coordinates": [ 8.954752712729565, 51.763779311945214 ] } },
{ "type": "Feature", "properties": { "strassenschluessel": "05774000000403800", "bezeichnung": "Rehbergstraße" }, "geometry": { "type": "Point", "coordinates": [ 8.948478318946407, 51.764161594080967 ] } },
{ "type": "Feature", "properties": { "strassenschluessel": "05774000000403900", "bezeichnung": "Schmiedestraße" }, "geometry": { "type": "Point", "coordinates": [ 8.949666585567117, 51.761801436835754 ] } },
{ "type": "Feature", "properties": { "strassenschluessel": "05774000000404000", "bezeichnung": "Scholandweg" }, "geometry": { "type": "Point", "coordinates": [ 8.938712259677834, 51.765784652089295 ] } },
{ "type": "Feature", "properties": { "strassenschluessel": "05774000000404100", "bezeichnung": "Schöne Aussicht" }, "geometry": { "type": "Point", "coordinates": [ 8.947939418925467, 51.763404098497197 ] } },
{ "type": "Feature", "properties": { "strassenschluessel": "05774000000404200", "bezeichnung": "Schützenweg" }, "geometry": { "type": "Point", "coordinates": [ 8.953956872706515, 51.758037744141383 ] } },
{ "type": "Feature", "properties": { "strassenschluessel": "05774000000404300", "bezeichnung": "Schwarzer Weg" }, "geometry": { "type": "Point", "coordinates": [ 8.946089873031736, 51.7655527211829 ] } },
{ "type": "Feature", "properties": { "strassenschluessel": "05774000000404400", "bezeichnung": "Tegelweg" }, "geometry": { "type": "Point", "coordinates": [ 8.955041902343364, 51.779119686436246 ] } },
{ "type": "Feature", "properties": { "strassenschluessel": "05774000000404500", "bezeichnung": "Ulrichstraße" }, "geometry": { "type": "Point", "coordinates": [ 8.950159626042602, 51.760645371333283 ] } },
{ "type": "Feature", "properties": { "strassenschluessel": "05774000000404600", "bezeichnung": "Untere Sage" }, "geometry": { "type": "Point", "coordinates": [ 8.946872476054043, 51.763919102677022 ] } },
{ "type": "Feature", "properties": { "strassenschluessel": "05774000000404700", "bezeichnung": "Wilhelm-Henz-Weg" }, "geometry": { "type": "Point", "coordinates": [ 8.941250927930911, 51.761665045118164 ] } },
{ "type": "Feature", "properties": { "strassenschluessel": "05774000000404800", "bezeichnung": "Wienackerstraße" }, "geometry": { "type": "Point", "coordinates": [ 8.933774557144261, 51.762319586724672 ] } },
{ "type": "Feature", "properties": { "strassenschluessel": "05774000000404910", "bezeichnung": "Winterbergstraße" }, "geometry": { "type": "Point", "coordinates": [ 8.94063909440708, 51.759713655665415 ] } },
{ "type": "Feature", "properties": { "strassenschluessel": "05774000000404920", "bezeichnung": "Am Sportplatz" }, "geometry": { "type": "Point", "coordinates": [ 8.943521754171492, 51.755916642908147 ] } },
{ "type": "Feature", "properties": { "strassenschluessel": "05774000000404930", "bezeichnung": "Von-Bodelschwingh-Straße" }, "geometry": { "type": "Point", "coordinates": [ 8.944790346627787, 51.754723654767652 ] } },
{ "type": "Feature", "properties": { "strassenschluessel": "05774000000404940", "bezeichnung": "Kurt-Schumacher-Straße" }, "geometry": { "type": "Point", "coordinates": [ 8.943628865760191, 51.754739135064483 ] } },
{ "type": "Feature", "properties": { "strassenschluessel": "05774000000405000", "bezeichnung": "Gardeweg" }, "geometry": { "type": "Point", "coordinates": [ 8.943413392403606, 51.760419755182696 ] } },
{ "type": "Feature", "properties": { "strassenschluessel": "05774000000405200", "bezeichnung": "Alter Postweg" }, "geometry": { "type": "Point", "coordinates": [ 8.949648733267637, 51.736461688240212 ] } },
{ "type": "Feature", "properties": { "strassenschluessel": "05774000000405300", "bezeichnung": "Am alten Teich" }, "geometry": { "type": "Point", "coordinates": [ 8.946470569240551, 51.740831928466505 ] } },
{ "type": "Feature", "properties": { "strassenschluessel": "05774000000405350", "bezeichnung": "Am Andreas Kloster" }, "geometry": { "type": "Point", "coordinates": [ 8.949814231594347, 51.750525872473006 ] } },
{ "type": "Feature", "properties": { "strassenschluessel": "05774000000405410", "bezeichnung": "Am Brandholz" }, "geometry": { "type": "Point", "coordinates": [ 8.951544504121829, 51.757601782878453 ] } },
{ "type": "Feature", "properties": { "strassenschluessel": "05774000000405500", "bezeichnung": "Am Eichenkamp" }, "geometry": { "type": "Point", "coordinates": [ 8.958510520793439, 51.741609728203166 ] } },
{ "type": "Feature", "properties": { "strassenschluessel": "05774000000405550", "bezeichnung": "Am Keimberg" }, "geometry": { "type": "Point", "coordinates": [ 8.924800931862142, 51.74519106531401 ] } },
{ "type": "Feature", "properties": { "strassenschluessel": "05774000000405600", "bezeichnung": "Am Springe" }, "geometry": { "type": "Point", "coordinates": [ 8.957335499383682, 51.739463924596265 ] } },
{ "type": "Feature", "properties": { "strassenschluessel": "05774000000405610", "bezeichnung": "An der Apuhlquelle" }, "geometry": { "type": "Point", "coordinates": [ 8.951178315721275, 51.752087559636983 ] } },
{ "type": "Feature", "properties": { "strassenschluessel": "05774000000405650", "bezeichnung": "An der B 64" }, "geometry": { "type": "Point", "coordinates": [ 8.938616237360568, 51.738890325029175 ] } },
{ "type": "Feature", "properties": { "strassenschluessel": "05774000000405680", "bezeichnung": "Buchenweg" }, "geometry": { "type": "Point", "coordinates": [ 8.948231864361697, 51.751516553622388 ] } },
{ "type": "Feature", "properties": { "strassenschluessel": "05774000000405700", "bezeichnung": "Dionysiusstraße" }, "geometry": { "type": "Point", "coordinates": [ 8.941651921659526, 51.739017741328908 ] } },
{ "type": "Feature", "properties": { "strassenschluessel": "05774000000405800", "bezeichnung": "Dorfstraße" }, "geometry": { "type": "Point", "coordinates": [ 8.946026617776127, 51.741648716116771 ] } },
{ "type": "Feature", "properties": { "strassenschluessel": "05774000000405900", "bezeichnung": "Driburger Straße" }, "geometry": { "type": "Point", "coordinates": [ 8.951780778479177, 51.741564397085448 ] } },
{ "type": "Feature", "properties": { "strassenschluessel": "05774000000406000", "bezeichnung": "Hachmannstraße" }, "geometry": { "type": "Point", "coordinates": [ 8.951029939725132, 51.74113274429164 ] } },
{ "type": "Feature", "properties": { "strassenschluessel": "05774000000406100", "bezeichnung": "Heistermannweg" }, "geometry": { "type": "Point", "coordinates": [ 8.94940383447638, 51.75235820384092 ] } },
{ "type": "Feature", "properties": { "strassenschluessel": "05774000000406200", "bezeichnung": "Höltenbrügge" }, "geometry": { "type": "Point", "coordinates": [ 8.951812100485629, 51.736068755383542 ] } },
{ "type": "Feature", "properties": { "strassenschluessel": "05774000000406250", "bezeichnung": "Hossenbergstraße" }, "geometry": { "type": "Point", "coordinates": [ 8.944579714454251, 51.752840598649946 ] } },
{ "type": "Feature", "properties": { "strassenschluessel": "05774000000406300", "bezeichnung": "Hühnerfeld" }, "geometry": { "type": "Point", "coordinates": [ 8.94872293600559, 51.741080995253242 ] } },
{ "type": "Feature", "properties": { "strassenschluessel": "05774000000406500", "bezeichnung": "Industriestraße" }, "geometry": { "type": "Point", "coordinates": [ 8.94633103281814, 51.724393715495182 ] } },
{ "type": "Feature", "properties": { "strassenschluessel": "05774000000406550", "bezeichnung": "Johannes-Tofall-Straße" }, "geometry": { "type": "Point", "coordinates": [ 8.94758814481723, 51.735331022342685 ] } },
{ "type": "Feature", "properties": { "strassenschluessel": "05774000000406600", "bezeichnung": "Mühlenweg" }, "geometry": { "type": "Point", "coordinates": [ 8.94521126830845, 51.746651864827939 ] } },
{ "type": "Feature", "properties": { "strassenschluessel": "05774000000406700", "bezeichnung": "Orthagen" }, "geometry": { "type": "Point", "coordinates": [ 8.952247031477762, 51.743521996429898 ] } },
{ "type": "Feature", "properties": { "strassenschluessel": "05774000000406710", "bezeichnung": "Schaffmeisterweg" }, "geometry": { "type": "Point", "coordinates": [ 8.950397085451755, 51.753881274429816 ] } },
{ "type": "Feature", "properties": { "strassenschluessel": "05774000000406720", "bezeichnung": "Pater-Freitag-Straße" }, "geometry": { "type": "Point", "coordinates": [ 8.951499009968295, 51.756114651589748 ] } },
{ "type": "Feature", "properties": { "strassenschluessel": "05774000000406730", "bezeichnung": "Pfarrer-Dalkmann-Straße" }, "geometry": { "type": "Point", "coordinates": [ 8.948772924050614, 51.751985949842812 ] } },
{ "type": "Feature", "properties": { "strassenschluessel": "05774000000406740", "bezeichnung": "Pfarrer-Weyrather-Straße" }, "geometry": { "type": "Point", "coordinates": [ 8.9502934951271, 51.755906484157421 ] } },
{ "type": "Feature", "properties": { "strassenschluessel": "05774000000406800", "bezeichnung": "Reelsberg" }, "geometry": { "type": "Point", "coordinates": [ 8.956065270015353, 51.742409573779021 ] } },
{ "type": "Feature", "properties": { "strassenschluessel": "05774000000406850", "bezeichnung": "Rotdornweg" }, "geometry": { "type": "Point", "coordinates": [ 8.946451489171052, 51.753394217790309 ] } },
{ "type": "Feature", "properties": { "strassenschluessel": "05774000000406870", "bezeichnung": "Rüsternweg" }, "geometry": { "type": "Point", "coordinates": [ 8.94560331540905, 51.75297210758125 ] } },
{ "type": "Feature", "properties": { "strassenschluessel": "05774000000406900", "bezeichnung": "Schwaneyer Straße" }, "geometry": { "type": "Point", "coordinates": [ 8.94868983449674, 51.738300169112108 ] } },
{ "type": "Feature", "properties": { "strassenschluessel": "05774000000406950", "bezeichnung": "Schwierts Kamp" }, "geometry": { "type": "Point", "coordinates": [ 8.945940379049832, 51.753314887038613 ] } },
{ "type": "Feature", "properties": { "strassenschluessel": "05774000000406980", "bezeichnung": "Weißdornweg" }, "geometry": { "type": "Point", "coordinates": [ 8.945232534466507, 51.753070093860735 ] } },
{ "type": "Feature", "properties": { "strassenschluessel": "05774000000407000", "bezeichnung": "Wiesenweg" }, "geometry": { "type": "Point", "coordinates": [ 8.943777820672061, 51.738430958257524 ] } },
{ "type": "Feature", "properties": { "strassenschluessel": "05774000000407100", "bezeichnung": "Zu den Krukenwiesen" }, "geometry": { "type": "Point", "coordinates": [ 8.947674488967799, 51.737507007002336 ] } },
{ "type": "Feature", "properties": { "strassenschluessel": "05774000000407200", "bezeichnung": "Agathastraße" }, "geometry": { "type": "Point", "coordinates": [ 8.939590406780686, 51.713355749212255 ] } },
{ "type": "Feature", "properties": { "strassenschluessel": "05774000000407300", "bezeichnung": "Am Brokhof" }, "geometry": { "type": "Point", "coordinates": [ 8.928737155887568, 51.71534450027513 ] } },
{ "type": "Feature", "properties": { "strassenschluessel": "05774000000407410", "bezeichnung": "Am Füllenhof" }, "geometry": { "type": "Point", "coordinates": [ 8.935323183748748, 51.716263202363905 ] } },
{ "type": "Feature", "properties": { "strassenschluessel": "05774000000407420", "bezeichnung": "Am Koksberg" }, "geometry": { "type": "Point", "coordinates": [ 8.93791784798969, 51.710194453316163 ] } },
{ "type": "Feature", "properties": { "strassenschluessel": "05774000000407510", "bezeichnung": "Am Küstergarten" }, "geometry": { "type": "Point", "coordinates": [ 8.933226752403634, 51.716649073428201 ] } },
{ "type": "Feature", "properties": { "strassenschluessel": "05774000000407600", "bezeichnung": "Am Marktplatz" }, "geometry": { "type": "Point", "coordinates": [ 8.933902875429318, 51.713325731441216 ] } },
{ "type": "Feature", "properties": { "strassenschluessel": "05774000000407700", "bezeichnung": "Am Randor" }, "geometry": { "type": "Point", "coordinates": [ 8.935839845919427, 51.718596024088654 ] } },
{ "type": "Feature", "properties": { "strassenschluessel": "05774000000407800", "bezeichnung": "Am Rotenberg" }, "geometry": { "type": "Point", "coordinates": [ 8.941655435565178, 51.714210624976999 ] } },
{ "type": "Feature", "properties": { "strassenschluessel": "05774000000407900", "bezeichnung": "Am Saule" }, "geometry": { "type": "Point", "coordinates": [ 8.932575931194027, 51.711468109158766 ] } },
{ "type": "Feature", "properties": { "strassenschluessel": "05774000000407960", "bezeichnung": "Am Schäferhof" }, "geometry": { "type": "Point", "coordinates": [ 8.932401728013703, 51.713321397796079 ] } },
{ "type": "Feature", "properties": { "strassenschluessel": "05774000000408010", "bezeichnung": "Am Stadtgraben" }, "geometry": { "type": "Point", "coordinates": [ 8.934441248873425, 51.712111888127069 ] } },
{ "type": "Feature", "properties": { "strassenschluessel": "05774000000408020", "bezeichnung": "An der Breien" }, "geometry": { "type": "Point", "coordinates": [ 8.931398147920046, 51.712503731577407 ] } },
{ "type": "Feature", "properties": { "strassenschluessel": "05774000000408030", "bezeichnung": "An der Dorfbrücke" }, "geometry": { "type": "Point", "coordinates": [ 8.942654044227703, 51.709303770822807 ] } },
{ "type": "Feature", "properties": { "strassenschluessel": "05774000000408100", "bezeichnung": "An der Gräfte" }, "geometry": { "type": "Point", "coordinates": [ 8.929994160596705, 51.71361656049217 ] } },
{ "type": "Feature", "properties": { "strassenschluessel": "05774000000408200", "bezeichnung": "Antoniusstraße" }, "geometry": { "type": "Point", "coordinates": [ 8.932689849420939, 51.714669077277129 ] } },
{ "type": "Feature", "properties": { "strassenschluessel": "05774000000408300", "bezeichnung": "Auf dem Heng" }, "geometry": { "type": "Point", "coordinates": [ 8.88212983051541, 51.717152630246254 ] } },
{ "type": "Feature", "properties": { "strassenschluessel": "05774000000408400", "bezeichnung": "Bachstraße" }, "geometry": { "type": "Point", "coordinates": [ 8.927558684217221, 51.715950105575786 ] } },
{ "type": "Feature", "properties": { "strassenschluessel": "05774000000408500", "bezeichnung": "Bahnhof Neuenheerse" }, "geometry": { "type": "Point", "coordinates": [ 8.965355639736472, 51.678712485284876 ] } },
{ "type": "Feature", "properties": { "strassenschluessel": "05774000000408600", "bezeichnung": "Birkenweg" }, "geometry": { "type": "Point", "coordinates": [ 8.947990898642983, 51.709362846114189 ] } },
{ "type": "Feature", "properties": { "strassenschluessel": "05774000000408700", "bezeichnung": "Bischof-Balduin-Straße" }, "geometry": { "type": "Point", "coordinates": [ 8.93862265711002, 51.715291527480943 ] } },
{ "type": "Feature", "properties": { "strassenschluessel": "05774000000408800", "bezeichnung": "Bodentalsweg" }, "geometry": { "type": "Point", "coordinates": [ 8.946565039534503, 51.707577241108808 ] } },
{ "type": "Feature", "properties": { "strassenschluessel": "05774000000408900", "bezeichnung": "Bredenweg" }, "geometry": { "type": "Point", "coordinates": [ 8.931670622371019, 51.71218572057694 ] } },
{ "type": "Feature", "properties": { "strassenschluessel": "05774000000409000", "bezeichnung": "Brokstraße" }, "geometry": { "type": "Point", "coordinates": [ 8.936878784263524, 51.714519941966252 ] } },
{ "type": "Feature", "properties": { "strassenschluessel": "05774000000409100", "bezeichnung": "Brückenstraße" }, "geometry": { "type": "Point", "coordinates": [ 8.931398329601206, 51.716296609512781 ] } },
{ "type": "Feature", "properties": { "strassenschluessel": "05774000000409200", "bezeichnung": "Cheruskerstraße" }, "geometry": { "type": "Point", "coordinates": [ 8.939965603997951, 51.710615119272504 ] } },
{ "type": "Feature", "properties": { "strassenschluessel": "05774000000409300", "bezeichnung": "Dammweg" }, "geometry": { "type": "Point", "coordinates": [ 8.930145096760834, 51.717376223320983 ] } },
{ "type": "Feature", "properties": { "strassenschluessel": "05774000000409400", "bezeichnung": "Diekweg" }, "geometry": { "type": "Point", "coordinates": [ 8.941824678985254, 51.713167122076975 ] } },
{ "type": "Feature", "properties": { "strassenschluessel": "05774000000409500", "bezeichnung": "Dune" }, "geometry": { "type": "Point", "coordinates": [ 8.907637780920396, 51.734432257819961 ] } },
{ "type": "Feature", "properties": { "strassenschluessel": "05774000000409550", "bezeichnung": "Eckernkamp" }, "geometry": { "type": "Point", "coordinates": [ 8.939765436382514, 51.717850647346296 ] } },
{ "type": "Feature", "properties": { "strassenschluessel": "05774000000409610", "bezeichnung": "Eichenweg" }, "geometry": { "type": "Point", "coordinates": [ 8.947157658501636, 51.708022395019391 ] } },
{ "type": "Feature", "properties": { "strassenschluessel": "05774000000409700", "bezeichnung": "Ekwortstraße" }, "geometry": { "type": "Point", "coordinates": [ 8.931020789782092, 51.711861101931795 ] } },
{ "type": "Feature", "properties": { "strassenschluessel": "05774000000409800", "bezeichnung": "Ellerweg" }, "geometry": { "type": "Point", "coordinates": [ 8.92356929229542, 51.716945272842452 ] } },
{ "type": "Feature", "properties": { "strassenschluessel": "05774000000409900", "bezeichnung": "Erzkuhlenweg" }, "geometry": { "type": "Point", "coordinates": [ 8.935398992995404, 51.712380344368398 ] } },
{ "type": "Feature", "properties": { "strassenschluessel": "05774000000410000", "bezeichnung": "Gartenstraße" }, "geometry": { "type": "Point", "coordinates": [ 8.936721198035269, 51.714136805633416 ] } },
{ "type": "Feature", "properties": { "strassenschluessel": "05774000000410100", "bezeichnung": "Heideweg" }, "geometry": { "type": "Point", "coordinates": [ 8.938395506379404, 51.711975515186893 ] } },
{ "type": "Feature", "properties": { "strassenschluessel": "05774000000410150", "bezeichnung": "Heinz-Küting-Weg" }, "geometry": { "type": "Point", "coordinates": [ 8.929418212812813, 51.712407070295697 ] } },
{ "type": "Feature", "properties": { "strassenschluessel": "05774000000410200", "bezeichnung": "Hellweg" }, "geometry": { "type": "Point", "coordinates": [ 8.934681984666385, 51.711223150061222 ] } },
{ "type": "Feature", "properties": { "strassenschluessel": "05774000000410300", "bezeichnung": "Höhenweg" }, "geometry": { "type": "Point", "coordinates": [ 8.935983179171405, 51.712501265754774 ] } },
{ "type": "Feature", "properties": { "strassenschluessel": "05774000000410310", "bezeichnung": "Im Kerkloh" }, "geometry": { "type": "Point", "coordinates": [ 8.939754418525869, 51.709616003116309 ] } },
{ "type": "Feature", "properties": { "strassenschluessel": "05774000000410400", "bezeichnung": "Johannesstraße" }, "geometry": { "type": "Point", "coordinates": [ 8.933180495630197, 51.714513365523693 ] } },
{ "type": "Feature", "properties": { "strassenschluessel": "05774000000410500", "bezeichnung": "Klusstraße" }, "geometry": { "type": "Point", "coordinates": [ 8.939440739317927, 51.716512174340124 ] } },
{ "type": "Feature", "properties": { "strassenschluessel": "05774000000410600", "bezeichnung": "Neuenheerser Straße" }, "geometry": { "type": "Point", "coordinates": [ 8.954329397475039, 51.697078261927153 ] } },
{ "type": "Feature", "properties": { "strassenschluessel": "05774000000410700", "bezeichnung": "Osningstraße" }, "geometry": { "type": "Point", "coordinates": [ 8.942428128695237, 51.710654529100864 ] } },
{ "type": "Feature", "properties": { "strassenschluessel": "05774000000410800", "bezeichnung": "Osttorstraße" }, "geometry": { "type": "Point", "coordinates": [ 8.93720042568432, 51.713443079515478 ] } },
{ "type": "Feature", "properties": { "strassenschluessel": "05774000000410910", "bezeichnung": "Paderborner Straße" }, "geometry": { "type": "Point", "coordinates": [ 8.935067172346914, 51.714021514708534 ] } },
{ "type": "Feature", "properties": { "strassenschluessel": "05774000000410920", "bezeichnung": "Am Knobbenberg" }, "geometry": { "type": "Point", "coordinates": [ 8.931415217957992, 51.718576836986209 ] } },
{ "type": "Feature", "properties": { "strassenschluessel": "05774000000411000", "bezeichnung": "Ringstraße" }, "geometry": { "type": "Point", "coordinates": [ 8.940227151470797, 51.716962641268765 ] } },
{ "type": "Feature", "properties": { "strassenschluessel": "05774000000411100", "bezeichnung": "Rotenbach" }, "geometry": { "type": "Point", "coordinates": [ 8.933059482859925, 51.717252058102318 ] } },
{ "type": "Feature", "properties": { "strassenschluessel": "05774000000411200", "bezeichnung": "Salenkruke" }, "geometry": { "type": "Point", "coordinates": [ 8.92541733016407, 51.723981206943314 ] } },
{ "type": "Feature", "properties": { "strassenschluessel": "05774000000411300", "bezeichnung": "Schlaunstraße" }, "geometry": { "type": "Point", "coordinates": [ 8.939013351482295, 51.716914399165141 ] } },
{ "type": "Feature", "properties": { "strassenschluessel": "05774000000411410", "bezeichnung": "Schulstraße" }, "geometry": { "type": "Point", "coordinates": [ 8.938128971059134, 51.713959138956653 ] } },
{ "type": "Feature", "properties": { "strassenschluessel": "05774000000411500", "bezeichnung": "Sebastianstraße" }, "geometry": { "type": "Point", "coordinates": [ 8.930830159896264, 51.715976308613641 ] } },
{ "type": "Feature", "properties": { "strassenschluessel": "05774000000411550", "bezeichnung": "Steindrüfft" }, "geometry": { "type": "Point", "coordinates": [ 8.937718948498185, 51.718862586800959 ] } },
{ "type": "Feature", "properties": { "strassenschluessel": "05774000000411600", "bezeichnung": "Tannenweg" }, "geometry": { "type": "Point", "coordinates": [ 8.947301626781481, 51.707366347586664 ] } },
{ "type": "Feature", "properties": { "strassenschluessel": "05774000000411700", "bezeichnung": "Triftweg" }, "geometry": { "type": "Point", "coordinates": [ 8.94071531317498, 51.715196870472106 ] } },
{ "type": "Feature", "properties": { "strassenschluessel": "05774000000411800", "bezeichnung": "Ulmenweg" }, "geometry": { "type": "Point", "coordinates": [ 8.935762738176361, 51.717049372349635 ] } },
{ "type": "Feature", "properties": { "strassenschluessel": "05774000000411900", "bezeichnung": "Unterm Limberg" }, "geometry": { "type": "Point", "coordinates": [ 8.933297934690527, 51.717844591697002 ] } },
{ "type": "Feature", "properties": { "strassenschluessel": "05774000000411950", "bezeichnung": "Volkwortstraße" }, "geometry": { "type": "Point", "coordinates": [ 8.937083797913086, 51.719155125061967 ] } },
{ "type": "Feature", "properties": { "strassenschluessel": "05774000000412000", "bezeichnung": "Urenberg" }, "geometry": { "type": "Point", "coordinates": [ 8.888483196659836, 51.696720054796359 ] } },
{ "type": "Feature", "properties": { "strassenschluessel": "05774000000412100", "bezeichnung": "Wallstraße" }, "geometry": { "type": "Point", "coordinates": [ 8.93143224650608, 51.713893093755871 ] } },
{ "type": "Feature", "properties": { "strassenschluessel": "05774000000412200", "bezeichnung": "Westtorstraße" }, "geometry": { "type": "Point", "coordinates": [ 8.930968480555338, 51.714618976624777 ] } },
{ "type": "Feature", "properties": { "strassenschluessel": "05774000000412210", "bezeichnung": "Zur Egge" }, "geometry": { "type": "Point", "coordinates": [ 8.941536265407601, 51.708878996424822 ] } },
{ "type": "Feature", "properties": { "strassenschluessel": "05774000000412300", "bezeichnung": "Zur Wulwerkuhle" }, "geometry": { "type": "Point", "coordinates": [ 8.939383409797717, 51.717871122118737 ] } },
{ "type": "Feature", "properties": { "strassenschluessel": "05774000000412310", "bezeichnung": "Pfarrer-Schlottmann-Straße" }, "geometry": { "type": "Point", "coordinates": [ 8.947848323323509, 51.710988051293505 ] } },
{ "type": "Feature", "properties": { "strassenschluessel": "057740000004=1760", "bezeichnung": "Hannover Hbf - Soest" }, "geometry": null },
{ "type": "Feature", "properties": { "strassenschluessel": "057740000004=2970", "bezeichnung": "Altenbeken - Warburg (Westf)" }, "geometry": null },
{ "type": "Feature", "properties": { "strassenschluessel": "057740000004=2971", "bezeichnung": "Altenbeken, Gl 200, W 154 - Altenbeken, W 85" }, "geometry": null },
{ "type": "Feature", "properties": { "strassenschluessel": "057740000004G2064", "bezeichnung": "Kohlweg" }, "geometry": null },
{ "type": "Feature", "properties": { "strassenschluessel": "057740000004G3503", "bezeichnung": "Am Altenfelde" }, "geometry": null },
{ "type": "Feature", "properties": { "strassenschluessel": "057740000004G3505", "bezeichnung": "Am Blankenberge" }, "geometry": null },
{ "type": "Feature", "properties": { "strassenschluessel": "057740000004G3507", "bezeichnung": "Am Breienwege" }, "geometry": null },
{ "type": "Feature", "properties": { "strassenschluessel": "057740000004G3509", "bezeichnung": "Am Broxberg" }, "geometry": null },
{ "type": "Feature", "properties": { "strassenschluessel": "057740000004G3511", "bezeichnung": "Am Dahlwege" }, "geometry": null },
{ "type": "Feature", "properties": { "strassenschluessel": "057740000004G3517", "bezeichnung": "Am Dunerwege" }, "geometry": null },
{ "type": "Feature", "properties": { "strassenschluessel": "057740000004G3520", "bezeichnung": "Am Happenberg" }, "geometry": null },
{ "type": "Feature", "properties": { "strassenschluessel": "057740000004G3521", "bezeichnung": "Am Holterberge" }, "geometry": null },
{ "type": "Feature", "properties": { "strassenschluessel": "057740000004G3523", "bezeichnung": "Am Kluswege" }, "geometry": null },
{ "type": "Feature", "properties": { "strassenschluessel": "057740000004G3531", "bezeichnung": "Am Saul" }, "geometry": null },
{ "type": "Feature", "properties": { "strassenschluessel": "057740000004G3535", "bezeichnung": "Am Stadtwege" }, "geometry": { "type": "Point", "coordinates": [ 8.920538849327219, 51.717284621054219 ] } },
{ "type": "Feature", "properties": { "strassenschluessel": "057740000004G3537", "bezeichnung": "Am Subberge" }, "geometry": null },
{ "type": "Feature", "properties": { "strassenschluessel": "057740000004G3539", "bezeichnung": "Am Turmberge" }, "geometry": null },
{ "type": "Feature", "properties": { "strassenschluessel": "057740000004G3541", "bezeichnung": "Am Uhrenberge" }, "geometry": null },
{ "type": "Feature", "properties": { "strassenschluessel": "057740000004G3543", "bezeichnung": "An der Bohnenstelle" }, "geometry": null },
{ "type": "Feature", "properties": { "strassenschluessel": "057740000004G3545", "bezeichnung": "An der Drift" }, "geometry": { "type": "Point", "coordinates": [ 8.944749773520721, 51.718332121967372 ] } },
{ "type": "Feature", "properties": { "strassenschluessel": "057740000004G3549", "bezeichnung": "An der Eller" }, "geometry": { "type": "Point", "coordinates": [ 8.920942134211332, 51.716638870280526 ] } },
{ "type": "Feature", "properties": { "strassenschluessel": "057740000004G3551", "bezeichnung": "An der Muhle" }, "geometry": null },
{ "type": "Feature", "properties": { "strassenschluessel": "057740000004G3557", "bezeichnung": "An der Sallenkruke" }, "geometry": null },
{ "type": "Feature", "properties": { "strassenschluessel": "057740000004G3559", "bezeichnung": "An der Wulferkuhle" }, "geometry": null },
{ "type": "Feature", "properties": { "strassenschluessel": "057740000004G3561", "bezeichnung": "Auf dem Bangern" }, "geometry": null },
{ "type": "Feature", "properties": { "strassenschluessel": "057740000004G3563", "bezeichnung": "Auf dem Büchten" }, "geometry": null },
{ "type": "Feature", "properties": { "strassenschluessel": "057740000004G3565", "bezeichnung": "Auf dem Happenberge" }, "geometry": null },
{ "type": "Feature", "properties": { "strassenschluessel": "057740000004G3567", "bezeichnung": "Auf dem Hasehol" }, "geometry": null },
{ "type": "Feature", "properties": { "strassenschluessel": "057740000004G3571", "bezeichnung": "Auf dem Rügge" }, "geometry": null },
{ "type": "Feature", "properties": { "strassenschluessel": "057740000004G3573", "bezeichnung": "Auf dem Subberge" }, "geometry": { "type": "Point", "coordinates": [ 8.918691854343818, 51.709409299775793 ] } },
{ "type": "Feature", "properties": { "strassenschluessel": "057740000004G3575", "bezeichnung": "Auf der Brunsohle" }, "geometry": null },
{ "type": "Feature", "properties": { "strassenschluessel": "057740000004G3577", "bezeichnung": "Auf der Dune" }, "geometry": { "type": "Point", "coordinates": [ 8.906832761696819, 51.73095607944083 ] } },
{ "type": "Feature", "properties": { "strassenschluessel": "057740000004G3579", "bezeichnung": "Auf'm Henk" }, "geometry": null },
{ "type": "Feature", "properties": { "strassenschluessel": "057740000004G3581", "bezeichnung": "Auf'm Limberg" }, "geometry": null },
{ "type": "Feature", "properties": { "strassenschluessel": "057740000004G3583", "bezeichnung": "Auf'm Wasserhol" }, "geometry": null },
{ "type": "Feature", "properties": { "strassenschluessel": "057740000004G3584", "bezeichnung": "Auf'm Winterberg" }, "geometry": null },
{ "type": "Feature", "properties": { "strassenschluessel": "057740000004G3585", "bezeichnung": "Austertal" }, "geometry": null },
{ "type": "Feature", "properties": { "strassenschluessel": "057740000004G3591", "bezeichnung": "Bangern" }, "geometry": null },
{ "type": "Feature", "properties": { "strassenschluessel": "057740000004G3595", "bezeichnung": "Bei der großen Kuhle" }, "geometry": null },
{ "type": "Feature", "properties": { "strassenschluessel": "057740000004G3597", "bezeichnung": "Bei der Seilweihen" }, "geometry": null },
{ "type": "Feature", "properties": { "strassenschluessel": "057740000004G3599", "bezeichnung": "Bei der Steinkuhle" }, "geometry": null },
{ "type": "Feature", "properties": { "strassenschluessel": "057740000004G3605", "bezeichnung": "Beim Bühlbusch" }, "geometry": null },
{ "type": "Feature", "properties": { "strassenschluessel": "057740000004G3607", "bezeichnung": "Beim Ruhenhof" }, "geometry": null },
{ "type": "Feature", "properties": { "strassenschluessel": "057740000004G3609", "bezeichnung": "Bergkamp" }, "geometry": null },
{ "type": "Feature", "properties": { "strassenschluessel": "057740000004G3611", "bezeichnung": "Bohnenstelle" }, "geometry": null },
{ "type": "Feature", "properties": { "strassenschluessel": "057740000004G3613", "bezeichnung": "Bohnenthal" }, "geometry": null },
{ "type": "Feature", "properties": { "strassenschluessel": "057740000004G3615", "bezeichnung": "Brocksberg" }, "geometry": { "type": "Point", "coordinates": [ 8.905211529074629, 51.723856384924908 ] } },
{ "type": "Feature", "properties": { "strassenschluessel": "057740000004G3617", "bezeichnung": "Bruderbusch" }, "geometry": null },
{ "type": "Feature", "properties": { "strassenschluessel": "057740000004G3619", "bezeichnung": "Breite Eiche" }, "geometry": null },
{ "type": "Feature", "properties": { "strassenschluessel": "057740000004G3621", "bezeichnung": "Buchholz" }, "geometry": null },
{ "type": "Feature", "properties": { "strassenschluessel": "057740000004G3622", "bezeichnung": "Bühlbusch" }, "geometry": null },
{ "type": "Feature", "properties": { "strassenschluessel": "057740000004G3627", "bezeichnung": "Mühlengraben" }, "geometry": null },
{ "type": "Feature", "properties": { "strassenschluessel": "057740000004G3629", "bezeichnung": "Rotenbach" }, "geometry": null },
{ "type": "Feature", "properties": { "strassenschluessel": "057740000004G3633", "bezeichnung": "Dringenberger Grund" }, "geometry": null },
{ "type": "Feature", "properties": { "strassenschluessel": "057740000004G3635", "bezeichnung": "Ellerbach" }, "geometry": null },
{ "type": "Feature", "properties": { "strassenschluessel": "057740000004G3637", "bezeichnung": "Ellerholz" }, "geometry": null },
{ "type": "Feature", "properties": { "strassenschluessel": "057740000004G3639", "bezeichnung": "Emder Wald" }, "geometry": null },
{ "type": "Feature", "properties": { "strassenschluessel": "057740000004G3641", "bezeichnung": "Firtkamp" }, "geometry": null },
{ "type": "Feature", "properties": { "strassenschluessel": "057740000004G3643", "bezeichnung": "Füllenberg" }, "geometry": null },
{ "type": "Feature", "properties": { "strassenschluessel": "057740000004G3645", "bezeichnung": "Holtkamp" }, "geometry": null },
{ "type": "Feature", "properties": { "strassenschluessel": "057740000004G3647", "bezeichnung": "Hanstein" }, "geometry": null },
{ "type": "Feature", "properties": { "strassenschluessel": "057740000004G3649", "bezeichnung": "Hansteiner Heide" }, "geometry": null },
{ "type": "Feature", "properties": { "strassenschluessel": "057740000004G3651", "bezeichnung": "Happenberg" }, "geometry": null },
{ "type": "Feature", "properties": { "strassenschluessel": "057740000004G3653", "bezeichnung": "Heidhöfe" }, "geometry": null },
{ "type": "Feature", "properties": { "strassenschluessel": "057740000004G3655", "bezeichnung": "Hengelsbusch" }, "geometry": null },
{ "type": "Feature", "properties": { "strassenschluessel": "057740000004G3657", "bezeichnung": "Hesselhorns-Heide" }, "geometry": null },
{ "type": "Feature", "properties": { "strassenschluessel": "057740000004G3659", "bezeichnung": "Hillebrand" }, "geometry": null },
{ "type": "Feature", "properties": { "strassenschluessel": "057740000004G3661", "bezeichnung": "Hinter'm Hasehol" }, "geometry": null },
{ "type": "Feature", "properties": { "strassenschluessel": "057740000004G3663", "bezeichnung": "Höpperswinkel" }, "geometry": null },
{ "type": "Feature", "properties": { "strassenschluessel": "057740000004G3665", "bezeichnung": "Holterberg" }, "geometry": null },
{ "type": "Feature", "properties": { "strassenschluessel": "057740000004G3669", "bezeichnung": "Im Alten Dieke" }, "geometry": { "type": "Point", "coordinates": [ 8.942780424723161, 51.723054266232431 ] } },
{ "type": "Feature", "properties": { "strassenschluessel": "057740000004G3671", "bezeichnung": "Im Bosmen" }, "geometry": null },
{ "type": "Feature", "properties": { "strassenschluessel": "057740000004G3676", "bezeichnung": "Im Knick" }, "geometry": null },
{ "type": "Feature", "properties": { "strassenschluessel": "057740000004G3681", "bezeichnung": "Im Winkel" }, "geometry": null },
{ "type": "Feature", "properties": { "strassenschluessel": "057740000004G3683", "bezeichnung": "In den Birken" }, "geometry": null },
{ "type": "Feature", "properties": { "strassenschluessel": "057740000004G3685", "bezeichnung": "In der Dieke" }, "geometry": null },
{ "type": "Feature", "properties": { "strassenschluessel": "057740000004G3687", "bezeichnung": "In der Dölsen" }, "geometry": null },
{ "type": "Feature", "properties": { "strassenschluessel": "057740000004G3689", "bezeichnung": "In der Dune" }, "geometry": null },
{ "type": "Feature", "properties": { "strassenschluessel": "057740000004G3693", "bezeichnung": "In der Reese" }, "geometry": null },
{ "type": "Feature", "properties": { "strassenschluessel": "057740000004G3695", "bezeichnung": "In der Schlingbreien" }, "geometry": null },
{ "type": "Feature", "properties": { "strassenschluessel": "057740000004G3703", "bezeichnung": "Kämpe" }, "geometry": { "type": "Point", "coordinates": [ 8.943582718371704, 51.701600279377345 ] } },
{ "type": "Feature", "properties": { "strassenschluessel": "057740000004G3705", "bezeichnung": "Kaleberg" }, "geometry": null },
{ "type": "Feature", "properties": { "strassenschluessel": "057740000004G3709", "bezeichnung": "Kleineort" }, "geometry": null },
{ "type": "Feature", "properties": { "strassenschluessel": "057740000004G3711", "bezeichnung": "Klusheide" }, "geometry": null },
{ "type": "Feature", "properties": { "strassenschluessel": "057740000004G3713", "bezeichnung": "Klusbusch" }, "geometry": null },
{ "type": "Feature", "properties": { "strassenschluessel": "057740000004G3715", "bezeichnung": "Klusrott" }, "geometry": null },
{ "type": "Feature", "properties": { "strassenschluessel": "057740000004G3717", "bezeichnung": "Klusweide" }, "geometry": null },
{ "type": "Feature", "properties": { "strassenschluessel": "057740000004G3719", "bezeichnung": "Knick" }, "geometry": null },
{ "type": "Feature", "properties": { "strassenschluessel": "057740000004G3721", "bezeichnung": "Kocksberg" }, "geometry": { "type": "Point", "coordinates": [ 8.941301454049828, 51.706914076738101 ] } },
{ "type": "Feature", "properties": { "strassenschluessel": "057740000004G3723", "bezeichnung": "Krausenberg" }, "geometry": null },
{ "type": "Feature", "properties": { "strassenschluessel": "057740000004G3725", "bezeichnung": "Krumbach" }, "geometry": null },
{ "type": "Feature", "properties": { "strassenschluessel": "057740000004G3727", "bezeichnung": "Küsenberg" }, "geometry": null },
{ "type": "Feature", "properties": { "strassenschluessel": "057740000004G3733", "bezeichnung": "Langenackerfeld" }, "geometry": null },
{ "type": "Feature", "properties": { "strassenschluessel": "057740000004G3735", "bezeichnung": "Langewiese" }, "geometry": null },
{ "type": "Feature", "properties": { "strassenschluessel": "057740000004G3737", "bezeichnung": "Leinkenbusch" }, "geometry": null },
{ "type": "Feature", "properties": { "strassenschluessel": "057740000004G3739", "bezeichnung": "Limberg" }, "geometry": null },
{ "type": "Feature", "properties": { "strassenschluessel": "057740000004G3741", "bezeichnung": "Lippstert" }, "geometry": null },
{ "type": "Feature", "properties": { "strassenschluessel": "057740000004G3745", "bezeichnung": "Marjon" }, "geometry": null },
{ "type": "Feature", "properties": { "strassenschluessel": "057740000004G3747", "bezeichnung": "Mattenkamp" }, "geometry": null },
{ "type": "Feature", "properties": { "strassenschluessel": "057740000004G3749", "bezeichnung": "Meierwiese" }, "geometry": null },
{ "type": "Feature", "properties": { "strassenschluessel": "057740000004G3751", "bezeichnung": "Mergelten" }, "geometry": null },
{ "type": "Feature", "properties": { "strassenschluessel": "057740000004G3753", "bezeichnung": "Morgenstern" }, "geometry": null },
{ "type": "Feature", "properties": { "strassenschluessel": "057740000004G3755", "bezeichnung": "Netenberg" }, "geometry": null },
{ "type": "Feature", "properties": { "strassenschluessel": "057740000004G3757", "bezeichnung": "Ossenberg" }, "geometry": null },
{ "type": "Feature", "properties": { "strassenschluessel": "057740000004G3759", "bezeichnung": "Pfennigfeld" }, "geometry": { "type": "Point", "coordinates": [ 8.918098029655006, 51.701657758582982 ] } },
{ "type": "Feature", "properties": { "strassenschluessel": "057740000004G3761", "bezeichnung": "Rabengrund" }, "geometry": null },
{ "type": "Feature", "properties": { "strassenschluessel": "057740000004G3763", "bezeichnung": "Radbaum" }, "geometry": { "type": "Point", "coordinates": [ 8.959150300460733, 51.682150179692798 ] } },
{ "type": "Feature", "properties": { "strassenschluessel": "057740000004G3765", "bezeichnung": "Rauhegrund" }, "geometry": { "type": "Point", "coordinates": [ 8.954775969519106, 51.713887384756624 ] } },
{ "type": "Feature", "properties": { "strassenschluessel": "057740000004G3767", "bezeichnung": "Richtsholz" }, "geometry": null },
{ "type": "Feature", "properties": { "strassenschluessel": "057740000004G3768", "bezeichnung": "Rosenkranz" }, "geometry": null },
{ "type": "Feature", "properties": { "strassenschluessel": "057740000004G3769", "bezeichnung": "Rothenberg" }, "geometry": { "type": "Point", "coordinates": [ 8.944306841278898, 51.717236302611617 ] } },
{ "type": "Feature", "properties": { "strassenschluessel": "057740000004G3771", "bezeichnung": "Sallenkruke" }, "geometry": null },
{ "type": "Feature", "properties": { "strassenschluessel": "057740000004G3773", "bezeichnung": "Schwaneyer Forst" }, "geometry": null },
{ "type": "Feature", "properties": { "strassenschluessel": "057740000004G3775", "bezeichnung": "Siemke" }, "geometry": { "type": "Point", "coordinates": [ 8.94108401202115, 51.697162685513618 ] } },
{ "type": "Feature", "properties": { "strassenschluessel": "057740000004G3777", "bezeichnung": "Söteecke" }, "geometry": null },
{ "type": "Feature", "properties": { "strassenschluessel": "057740000004G3779", "bezeichnung": "Stadtberg" }, "geometry": null },
{ "type": "Feature", "properties": { "strassenschluessel": "057740000004G3783", "bezeichnung": "Stricksgrund" }, "geometry": null },
{ "type": "Feature", "properties": { "strassenschluessel": "057740000004G3785", "bezeichnung": "Süßecke" }, "geometry": null },
{ "type": "Feature", "properties": { "strassenschluessel": "057740000004G3787", "bezeichnung": "Suren Kämpe" }, "geometry": null },
{ "type": "Feature", "properties": { "strassenschluessel": "057740000004G3789", "bezeichnung": "Tiefebruch" }, "geometry": null },
{ "type": "Feature", "properties": { "strassenschluessel": "057740000004G3799", "bezeichnung": "Über dem Hellwege" }, "geometry": null },
{ "type": "Feature", "properties": { "strassenschluessel": "057740000004G3801", "bezeichnung": "Über dem Wünschetal" }, "geometry": null },
{ "type": "Feature", "properties": { "strassenschluessel": "057740000004G3803", "bezeichnung": "Unter'm Broxberge" }, "geometry": null },
{ "type": "Feature", "properties": { "strassenschluessel": "057740000004G3805", "bezeichnung": "Unter'm Happenberg" }, "geometry": null },
{ "type": "Feature", "properties": { "strassenschluessel": "057740000004G3807", "bezeichnung": "Untere Bruch" }, "geometry": null },
{ "type": "Feature", "properties": { "strassenschluessel": "057740000004G3809", "bezeichnung": "Unterm Hellwege" }, "geometry": null },
{ "type": "Feature", "properties": { "strassenschluessel": "057740000004G3811", "bezeichnung": "Vor dem Hasehol" }, "geometry": null },
{ "type": "Feature", "properties": { "strassenschluessel": "057740000004G3813", "bezeichnung": "Vor dem Uhrenberge" }, "geometry": null },
{ "type": "Feature", "properties": { "strassenschluessel": "057740000004G3815", "bezeichnung": "Vor der Lippstert" }, "geometry": null },
{ "type": "Feature", "properties": { "strassenschluessel": "057740000004G3819", "bezeichnung": "Vor'm Dicken Busche" }, "geometry": null },
{ "type": "Feature", "properties": { "strassenschluessel": "057740000004G3821", "bezeichnung": "Vosskrögers Busch" }, "geometry": null },
{ "type": "Feature", "properties": { "strassenschluessel": "057740000004G3823", "bezeichnung": "Weidekamp" }, "geometry": null },
{ "type": "Feature", "properties": { "strassenschluessel": "057740000004G3827", "bezeichnung": "Winpelbrede" }, "geometry": null },
{ "type": "Feature", "properties": { "strassenschluessel": "057740000004G3829", "bezeichnung": "Wünschetal" }, "geometry": null },
{ "type": "Feature", "properties": { "strassenschluessel": "057740000004G3831", "bezeichnung": "Würgedahl" }, "geometry": null },
{ "type": "Feature", "properties": { "strassenschluessel": "057740000004G3833", "bezeichnung": "Wüstengraben" }, "geometry": null },
{ "type": "Feature", "properties": { "strassenschluessel": "057740000004G3849", "bezeichnung": "Am Hammer" }, "geometry": null },
{ "type": "Feature", "properties": { "strassenschluessel": "057740000004G3850", "bezeichnung": "Am Heuwege" }, "geometry": null },
{ "type": "Feature", "properties": { "strassenschluessel": "057740000004G3851", "bezeichnung": "Am Krähenrott" }, "geometry": null },
{ "type": "Feature", "properties": { "strassenschluessel": "057740000004G3853", "bezeichnung": "Am Kuhlenborn" }, "geometry": null },
{ "type": "Feature", "properties": { "strassenschluessel": "057740000004G3855", "bezeichnung": "Am Melkpad" }, "geometry": null },
{ "type": "Feature", "properties": { "strassenschluessel": "057740000004G3857", "bezeichnung": "Am Miekenberg" }, "geometry": null },
{ "type": "Feature", "properties": { "strassenschluessel": "057740000004G3861", "bezeichnung": "Am Mühlenberge" }, "geometry": null },
{ "type": "Feature", "properties": { "strassenschluessel": "057740000004G3863", "bezeichnung": "Am Müllerberg" }, "geometry": null },
{ "type": "Feature", "properties": { "strassenschluessel": "057740000004G3865", "bezeichnung": "Am Rehberg" }, "geometry": null },
{ "type": "Feature", "properties": { "strassenschluessel": "057740000004G3871", "bezeichnung": "Am Untersten Wege" }, "geometry": null },
{ "type": "Feature", "properties": { "strassenschluessel": "057740000004G3872", "bezeichnung": "Am Viadukt" }, "geometry": null },
{ "type": "Feature", "properties": { "strassenschluessel": "057740000004G3881", "bezeichnung": "An der Durbeke" }, "geometry": null },
{ "type": "Feature", "properties": { "strassenschluessel": "057740000004G3883", "bezeichnung": "An der Ebene" }, "geometry": { "type": "Point", "coordinates": [ 8.951179035277148, 51.765056951551486 ] } },
{ "type": "Feature", "properties": { "strassenschluessel": "057740000004G3893", "bezeichnung": "Auf dem Heuwege" }, "geometry": null },
{ "type": "Feature", "properties": { "strassenschluessel": "057740000004G3895", "bezeichnung": "Auf dem Röher" }, "geometry": null },
{ "type": "Feature", "properties": { "strassenschluessel": "057740000004G3897", "bezeichnung": "Auf den Kölken" }, "geometry": { "type": "Point", "coordinates": [ 8.951003515619604, 51.780629662844269 ] } },
{ "type": "Feature", "properties": { "strassenschluessel": "057740000004G3899", "bezeichnung": "Auf der Ebene" }, "geometry": null },
{ "type": "Feature", "properties": { "strassenschluessel": "057740000004G3901", "bezeichnung": "Auf der Grund" }, "geometry": null },
{ "type": "Feature", "properties": { "strassenschluessel": "057740000004G3903", "bezeichnung": "Auf der Unt.Durbeke" }, "geometry": null },
{ "type": "Feature", "properties": { "strassenschluessel": "057740000004G3905", "bezeichnung": "Auf'm Kobbenacken" }, "geometry": null },
{ "type": "Feature", "properties": { "strassenschluessel": "057740000004G3909", "bezeichnung": "Bei der Eisenhütte" }, "geometry": null },
{ "type": "Feature", "properties": { "strassenschluessel": "057740000004G3911", "bezeichnung": "Berg Orab" }, "geometry": null },
{ "type": "Feature", "properties": { "strassenschluessel": "057740000004G3913", "bezeichnung": "Bollas" }, "geometry": null },
{ "type": "Feature", "properties": { "strassenschluessel": "057740000004G3917", "bezeichnung": "Bollerbornsberg" }, "geometry": { "type": "Point", "coordinates": [ 8.957334559855095, 51.757682161650138 ] } },
{ "type": "Feature", "properties": { "strassenschluessel": "057740000004G3919", "bezeichnung": "Brockheide" }, "geometry": null },
{ "type": "Feature", "properties": { "strassenschluessel": "057740000004G3921", "bezeichnung": "Bollerborn" }, "geometry": { "type": "Point", "coordinates": [ 8.954379499679497, 51.762556069020853 ] } },
{ "type": "Feature", "properties": { "strassenschluessel": "057740000004G3925", "bezeichnung": "Die beiden Röher" }, "geometry": null },
{ "type": "Feature", "properties": { "strassenschluessel": "057740000004G3927", "bezeichnung": "Beke" }, "geometry": null },
{ "type": "Feature", "properties": { "strassenschluessel": "057740000004G3929", "bezeichnung": "Durbeke" }, "geometry": null },
{ "type": "Feature", "properties": { "strassenschluessel": "057740000004G3931", "bezeichnung": "Dorfwiese" }, "geometry": null },
{ "type": "Feature", "properties": { "strassenschluessel": "057740000004G3933", "bezeichnung": "Flacke Feld" }, "geometry": null },
{ "type": "Feature", "properties": { "strassenschluessel": "057740000004G3937", "bezeichnung": "Haidhübel" }, "geometry": null },
{ "type": "Feature", "properties": { "strassenschluessel": "057740000004G3939", "bezeichnung": "Holschenberg" }, "geometry": null },
{ "type": "Feature", "properties": { "strassenschluessel": "057740000004G3941", "bezeichnung": "Heiderott" }, "geometry": null },
{ "type": "Feature", "properties": { "strassenschluessel": "057740000004G3943", "bezeichnung": "Heuweg" }, "geometry": null },
{ "type": "Feature", "properties": { "strassenschluessel": "057740000004G3947", "bezeichnung": "Himmelreich" }, "geometry": { "type": "Point", "coordinates": [ 8.914519194912822, 51.755974936403696 ] } },
{ "type": "Feature", "properties": { "strassenschluessel": "057740000004G3949", "bezeichnung": "Hummerborn" }, "geometry": null },
{ "type": "Feature", "properties": { "strassenschluessel": "057740000004G3953", "bezeichnung": "Im Kuhlenborn" }, "geometry": { "type": "Point", "coordinates": [ 8.942968135897116, 51.752714002979623 ] } },
{ "type": "Feature", "properties": { "strassenschluessel": "057740000004G3959", "bezeichnung": "Im Ortwald" }, "geometry": null },
{ "type": "Feature", "properties": { "strassenschluessel": "057740000004G3963", "bezeichnung": "In den Gründen" }, "geometry": null },
{ "type": "Feature", "properties": { "strassenschluessel": "057740000004G3965", "bezeichnung": "In der Durbeke" }, "geometry": null },
{ "type": "Feature", "properties": { "strassenschluessel": "057740000004G3967", "bezeichnung": "In der Maschheide" }, "geometry": null },
{ "type": "Feature", "properties": { "strassenschluessel": "057740000004G3969", "bezeichnung": "In der Sage" }, "geometry": null },
{ "type": "Feature", "properties": { "strassenschluessel": "057740000004G3971", "bezeichnung": "Iserkuhle" }, "geometry": null },
{ "type": "Feature", "properties": { "strassenschluessel": "057740000004G3973", "bezeichnung": "Jamburenrott" }, "geometry": null },
{ "type": "Feature", "properties": { "strassenschluessel": "057740000004G3977", "bezeichnung": "Kamp" }, "geometry": { "type": "Point", "coordinates": [ 8.951274208299838, 51.787978366274132 ] } },
{ "type": "Feature", "properties": { "strassenschluessel": "057740000004G3979", "bezeichnung": "Keimberg" }, "geometry": null },
{ "type": "Feature", "properties": { "strassenschluessel": "057740000004G3981", "bezeichnung": "Kobbenacken" }, "geometry": null },
{ "type": "Feature", "properties": { "strassenschluessel": "057740000004G3987", "bezeichnung": "Lindbrock" }, "geometry": null },
{ "type": "Feature", "properties": { "strassenschluessel": "057740000004G3991", "bezeichnung": "Massens Grund" }, "geometry": null },
{ "type": "Feature", "properties": { "strassenschluessel": "057740000004G3993", "bezeichnung": "Miekenberg" }, "geometry": null },
{ "type": "Feature", "properties": { "strassenschluessel": "057740000004G3995", "bezeichnung": "Miltenberg" }, "geometry": null },
{ "type": "Feature", "properties": { "strassenschluessel": "057740000004G3997", "bezeichnung": "Mittelberg" }, "geometry": null },
{ "type": "Feature", "properties": { "strassenschluessel": "057740000004G3999", "bezeichnung": "Mühlengraben" }, "geometry": null },
{ "type": "Feature", "properties": { "strassenschluessel": "057740000004G4001", "bezeichnung": "Müllerberg" }, "geometry": null },
{ "type": "Feature", "properties": { "strassenschluessel": "057740000004G4003", "bezeichnung": "Nettelnhecke" }, "geometry": null },
{ "type": "Feature", "properties": { "strassenschluessel": "057740000004G4005", "bezeichnung": "Neuewald" }, "geometry": null },
{ "type": "Feature", "properties": { "strassenschluessel": "057740000004G4007", "bezeichnung": "Oben Hohen Weg" }, "geometry": null },
{ "type": "Feature", "properties": { "strassenschluessel": "057740000004G4009", "bezeichnung": "Oben Kulskampe" }, "geometry": null },
{ "type": "Feature", "properties": { "strassenschluessel": "057740000004G4011", "bezeichnung": "Obere Durbeke" }, "geometry": null },
{ "type": "Feature", "properties": { "strassenschluessel": "057740000004G4013", "bezeichnung": "Obere Feldmark" }, "geometry": null },
{ "type": "Feature", "properties": { "strassenschluessel": "057740000004G4015", "bezeichnung": "Ortwald" }, "geometry": { "type": "Point", "coordinates": [ 8.949044331518245, 51.768705945168861 ] } },
{ "type": "Feature", "properties": { "strassenschluessel": "057740000004G4017", "bezeichnung": "Ossenberg" }, "geometry": null },
{ "type": "Feature", "properties": { "strassenschluessel": "057740000004G4019", "bezeichnung": "Ossenstern" }, "geometry": null },
{ "type": "Feature", "properties": { "strassenschluessel": "057740000004G4023", "bezeichnung": "Rehberg" }, "geometry": { "type": "Point", "coordinates": [ 8.955319628388224, 51.767293669126374 ] } },
{ "type": "Feature", "properties": { "strassenschluessel": "057740000004G4025", "bezeichnung": "Rott" }, "geometry": null },
{ "type": "Feature", "properties": { "strassenschluessel": "057740000004G4027", "bezeichnung": "Rühenfeld" }, "geometry": null },
{ "type": "Feature", "properties": { "strassenschluessel": "057740000004G4029", "bezeichnung": "Rümersberg" }, "geometry": null },
{ "type": "Feature", "properties": { "strassenschluessel": "057740000004G4031", "bezeichnung": "Sage" }, "geometry": null },
{ "type": "Feature", "properties": { "strassenschluessel": "057740000004G4032", "bezeichnung": "Sagebach" }, "geometry": null },
{ "type": "Feature", "properties": { "strassenschluessel": "057740000004G4033", "bezeichnung": "Sagekamp" }, "geometry": { "type": "Point", "coordinates": [ 8.956287829008376, 51.779301690572787 ] } },
{ "type": "Feature", "properties": { "strassenschluessel": "057740000004G4035", "bezeichnung": "Schlunenkamp" }, "geometry": null },
{ "type": "Feature", "properties": { "strassenschluessel": "057740000004G4036", "bezeichnung": "Stapelsberg" }, "geometry": null },
{ "type": "Feature", "properties": { "strassenschluessel": "057740000004G4037", "bezeichnung": "Schultens Grund" }, "geometry": null },
{ "type": "Feature", "properties": { "strassenschluessel": "057740000004G4039", "bezeichnung": "Tiebenberg" }, "geometry": null },
{ "type": "Feature", "properties": { "strassenschluessel": "057740000004G4041", "bezeichnung": "Unter dem Orab" }, "geometry": null },
{ "type": "Feature", "properties": { "strassenschluessel": "057740000004G4043", "bezeichnung": "Untere Durbeke" }, "geometry": null },
{ "type": "Feature", "properties": { "strassenschluessel": "057740000004G4045", "bezeichnung": "Unterm Kobbenacken" }, "geometry": null },
{ "type": "Feature", "properties": { "strassenschluessel": "057740000004G4047", "bezeichnung": "Unterm Schierenberge" }, "geometry": null },
{ "type": "Feature", "properties": { "strassenschluessel": "057740000004G4049", "bezeichnung": "Unterm Stapelsberg" }, "geometry": { "type": "Point", "coordinates": [ 8.912532469048205, 51.759995450968432 ] } },
{ "type": "Feature", "properties": { "strassenschluessel": "057740000004G4051", "bezeichnung": "Up'n Baikenbusch" }, "geometry": null },
{ "type": "Feature", "properties": { "strassenschluessel": "057740000004G4053", "bezeichnung": "Up'n Fautpad" }, "geometry": { "type": "Point", "coordinates": [ 8.920162848758924, 51.760559808791449 ] } },
{ "type": "Feature", "properties": { "strassenschluessel": "057740000004G4055", "bezeichnung": "Vietsbusch" }, "geometry": { "type": "Point", "coordinates": [ 8.952722820602178, 51.78568796877628 ] } },
{ "type": "Feature", "properties": { "strassenschluessel": "057740000004G4057", "bezeichnung": "Vietsgrund" }, "geometry": null },
{ "type": "Feature", "properties": { "strassenschluessel": "057740000004G4059", "bezeichnung": "Vor dem Miekenberge" }, "geometry": null },
{ "type": "Feature", "properties": { "strassenschluessel": "057740000004G4061", "bezeichnung": "Wienacke" }, "geometry": null },
{ "type": "Feature", "properties": { "strassenschluessel": "057740000004G4063", "bezeichnung": "Wienackskämpe" }, "geometry": null },
{ "type": "Feature", "properties": { "strassenschluessel": "057740000004G4065", "bezeichnung": "Wiensgrund" }, "geometry": null },
{ "type": "Feature", "properties": { "strassenschluessel": "057740000004G4067", "bezeichnung": "An der Düstergrundheide" }, "geometry": null },
{ "type": "Feature", "properties": { "strassenschluessel": "057740000004G4071", "bezeichnung": "Am Alten Teiche" }, "geometry": null },
{ "type": "Feature", "properties": { "strassenschluessel": "057740000004G4073", "bezeichnung": "Am Berge" }, "geometry": null },
{ "type": "Feature", "properties": { "strassenschluessel": "057740000004G4077", "bezeichnung": "Am Keimberge" }, "geometry": null },
{ "type": "Feature", "properties": { "strassenschluessel": "057740000004G4079", "bezeichnung": "Am Lammerberge" }, "geometry": null },
{ "type": "Feature", "properties": { "strassenschluessel": "057740000004G4081", "bezeichnung": "Am Limberge" }, "geometry": { "type": "Point", "coordinates": [ 8.944776069774838, 51.734093943164304 ] } },
{ "type": "Feature", "properties": { "strassenschluessel": "057740000004G4083", "bezeichnung": "Am Reißberge" }, "geometry": null },
{ "type": "Feature", "properties": { "strassenschluessel": "057740000004G4085", "bezeichnung": "Auf dem Brande" }, "geometry": null },
{ "type": "Feature", "properties": { "strassenschluessel": "057740000004G4087", "bezeichnung": "Auf dem Hühnerfelde" }, "geometry": { "type": "Point", "coordinates": [ 8.950565583254173, 51.736193802106364 ] } },
{ "type": "Feature", "properties": { "strassenschluessel": "057740000004G4089", "bezeichnung": "Auf dem Keimberge" }, "geometry": null },
{ "type": "Feature", "properties": { "strassenschluessel": "057740000004G4091", "bezeichnung": "Auf dem Lammersberge" }, "geometry": null },
{ "type": "Feature", "properties": { "strassenschluessel": "057740000004G4093", "bezeichnung": "Auf dem Musenberge" }, "geometry": null },
{ "type": "Feature", "properties": { "strassenschluessel": "057740000004G4095", "bezeichnung": "Auf dem Röhre" }, "geometry": null },
{ "type": "Feature", "properties": { "strassenschluessel": "057740000004G4097", "bezeichnung": "Auf dem Rühenfelde" }, "geometry": null },
{ "type": "Feature", "properties": { "strassenschluessel": "057740000004G4099", "bezeichnung": "Auf dem Springe" }, "geometry": { "type": "Point", "coordinates": [ 8.956185976238496, 51.741061535823796 ] } },
{ "type": "Feature", "properties": { "strassenschluessel": "057740000004G4105", "bezeichnung": "Auf den Hottensteinen" }, "geometry": null },
{ "type": "Feature", "properties": { "strassenschluessel": "057740000004G4107", "bezeichnung": "Auf den Rotzkämpen" }, "geometry": null },
{ "type": "Feature", "properties": { "strassenschluessel": "057740000004G4109", "bezeichnung": "Auf der Bohnenstelle" }, "geometry": null },
{ "type": "Feature", "properties": { "strassenschluessel": "057740000004G4111", "bezeichnung": "Auf der Dune" }, "geometry": null },
{ "type": "Feature", "properties": { "strassenschluessel": "057740000004G4113", "bezeichnung": "Auf der Küche" }, "geometry": null },
{ "type": "Feature", "properties": { "strassenschluessel": "057740000004G4121", "bezeichnung": "Düstergrund" }, "geometry": null },
{ "type": "Feature", "properties": { "strassenschluessel": "057740000004G4123", "bezeichnung": "Düstergrundheide" }, "geometry": null },
{ "type": "Feature", "properties": { "strassenschluessel": "057740000004G4125", "bezeichnung": "Flackefeld" }, "geometry": null },
{ "type": "Feature", "properties": { "strassenschluessel": "057740000004G4127", "bezeichnung": "Hartdorn" }, "geometry": null },
{ "type": "Feature", "properties": { "strassenschluessel": "057740000004G4129", "bezeichnung": "Im Alten Dieke" }, "geometry": null },
{ "type": "Feature", "properties": { "strassenschluessel": "057740000004G4131", "bezeichnung": "Im Berge" }, "geometry": null },
{ "type": "Feature", "properties": { "strassenschluessel": "057740000004G4133", "bezeichnung": "Im Dorfe" }, "geometry": null },
{ "type": "Feature", "properties": { "strassenschluessel": "057740000004G4135", "bezeichnung": "Im Flachenfeld" }, "geometry": null },
{ "type": "Feature", "properties": { "strassenschluessel": "057740000004G4137", "bezeichnung": "Im Flachengrund" }, "geometry": null },
{ "type": "Feature", "properties": { "strassenschluessel": "057740000004G4139", "bezeichnung": "Im Kamp" }, "geometry": null },
{ "type": "Feature", "properties": { "strassenschluessel": "057740000004G4141", "bezeichnung": "Im Krummen Esel" }, "geometry": null },
{ "type": "Feature", "properties": { "strassenschluessel": "057740000004G4145", "bezeichnung": "Im Lilienhagen" }, "geometry": { "type": "Point", "coordinates": [ 8.954271286319603, 51.756404789161337 ] } },
{ "type": "Feature", "properties": { "strassenschluessel": "057740000004G4147", "bezeichnung": "Im Mühlenkampe" }, "geometry": null },
{ "type": "Feature", "properties": { "strassenschluessel": "057740000004G4149", "bezeichnung": "Im Niggenknick" }, "geometry": null },
{ "type": "Feature", "properties": { "strassenschluessel": "057740000004G4151", "bezeichnung": "Im Orthagen" }, "geometry": null },
{ "type": "Feature", "properties": { "strassenschluessel": "057740000004G4153", "bezeichnung": "Im Sählen" }, "geometry": null },
{ "type": "Feature", "properties": { "strassenschluessel": "057740000004G4155", "bezeichnung": "In den Gründen" }, "geometry": null },
{ "type": "Feature", "properties": { "strassenschluessel": "057740000004G4157", "bezeichnung": "In den Kämpen" }, "geometry": null },
{ "type": "Feature", "properties": { "strassenschluessel": "057740000004G4159", "bezeichnung": "In den Krukenwiesen" }, "geometry": null },
{ "type": "Feature", "properties": { "strassenschluessel": "057740000004G4161", "bezeichnung": "In der Dune" }, "geometry": { "type": "Point", "coordinates": [ 8.906030199054568, 51.732708938141819 ] } },
{ "type": "Feature", "properties": { "strassenschluessel": "057740000004G4163", "bezeichnung": "In der Giebelgrund" }, "geometry": null },
{ "type": "Feature", "properties": { "strassenschluessel": "057740000004G4165", "bezeichnung": "In der Hünschenburg" }, "geometry": null },
{ "type": "Feature", "properties": { "strassenschluessel": "057740000004G4169", "bezeichnung": "Lamfert" }, "geometry": null },
{ "type": "Feature", "properties": { "strassenschluessel": "057740000004G4171", "bezeichnung": "Lilienhagen" }, "geometry": { "type": "Point", "coordinates": [ 8.954647036043886, 51.748345574292003 ] } },
{ "type": "Feature", "properties": { "strassenschluessel": "057740000004G4175", "bezeichnung": "Orappen" }, "geometry": null },
{ "type": "Feature", "properties": { "strassenschluessel": "057740000004G4177", "bezeichnung": "Quickstert" }, "geometry": null },
{ "type": "Feature", "properties": { "strassenschluessel": "057740000004G4183", "bezeichnung": "Schierenberg" }, "geometry": null },
{ "type": "Feature", "properties": { "strassenschluessel": "057740000004G4185", "bezeichnung": "Tiewenberg" }, "geometry": null },
{ "type": "Feature", "properties": { "strassenschluessel": "057740000004G4189", "bezeichnung": "Vor dem Lichtenwalde" }, "geometry": { "type": "Point", "coordinates": [ 8.951293645987214, 51.734655845210142 ] } },
{ "type": "Feature", "properties": { "strassenschluessel": "057740000004G4191", "bezeichnung": "Vor der Dune" }, "geometry": null },
{ "type": "Feature", "properties": { "strassenschluessel": "057740000004G4193", "bezeichnung": "Vor der Schlone" }, "geometry": null },
{ "type": "Feature", "properties": { "strassenschluessel": "057740000004G5000", "bezeichnung": "Wolfsberg" }, "geometry": null },
{ "type": "Feature", "properties": { "strassenschluessel": "057740000004G5001", "bezeichnung": "Ziegenstallsgründe" }, "geometry": null },
{ "type": "Feature", "properties": { "strassenschluessel": "057740000004G5002", "bezeichnung": "Hüttenheide" }, "geometry": null },
{ "type": "Feature", "properties": { "strassenschluessel": "057740000004G5037", "bezeichnung": "Steinbeke" }, "geometry": null },
{ "type": "Feature", "properties": { "strassenschluessel": "057740000004G5046", "bezeichnung": "Salenkruke" }, "geometry": { "type": "Point", "coordinates": [ 8.936435842048599, 51.724021409957302 ] } },
{ "type": "Feature", "properties": { "strassenschluessel": "057740000004G5049", "bezeichnung": "Rotes Wasser" }, "geometry": null },
{ "type": "Feature", "properties": { "strassenschluessel": "057740000004S5003", "bezeichnung": "Mittelweg" }, "geometry": null },
{ "type": "Feature", "properties": { "strassenschluessel": "057740000004S5004", "bezeichnung": "Rißgrund" }, "geometry": null },
{ "type": "Feature", "properties": { "strassenschluessel": "057740000004S5005", "bezeichnung": "Eisensteinweg" }, "geometry": null },
{ "type": "Feature", "properties": { "strassenschluessel": "057740000004S5006", "bezeichnung": "Heineweg" }, "geometry": null },
{ "type": "Feature", "properties": { "strassenschluessel": "057740000004S5007", "bezeichnung": "Zukunftsweg" }, "geometry": null },
{ "type": "Feature", "properties": { "strassenschluessel": "057740000004S5008", "bezeichnung": "Göbweg" }, "geometry": null },
{ "type": "Feature", "properties": { "strassenschluessel": "057740000004S5009", "bezeichnung": "Kleebergweg" }, "geometry": null },
{ "type": "Feature", "properties": { "strassenschluessel": "057740000004S5010", "bezeichnung": "Alter Stadtweg" }, "geometry": null },
{ "type": "Feature", "properties": { "strassenschluessel": "057740000004S5011", "bezeichnung": "Düsterngrund" }, "geometry": null },
{ "type": "Feature", "properties": { "strassenschluessel": "057740000004S5012", "bezeichnung": "Römergrund" }, "geometry": null },
{ "type": "Feature", "properties": { "strassenschluessel": "057740000004S5013", "bezeichnung": "Schneebergweg" }, "geometry": null },
{ "type": "Feature", "properties": { "strassenschluessel": "057740000004S5014", "bezeichnung": "Durbekeweg" }, "geometry": null },
{ "type": "Feature", "properties": { "strassenschluessel": "057740000004S5015", "bezeichnung": "Grüner Weg" }, "geometry": null },
{ "type": "Feature", "properties": { "strassenschluessel": "057740000004S5016", "bezeichnung": "Ochsenbergweg" }, "geometry": null },
{ "type": "Feature", "properties": { "strassenschluessel": "057740000004S5017", "bezeichnung": "Volkhausenweg" }, "geometry": null },
{ "type": "Feature", "properties": { "strassenschluessel": "057740000004S5018", "bezeichnung": "Heiligenweg" }, "geometry": null },
{ "type": "Feature", "properties": { "strassenschluessel": "057740000004S5019", "bezeichnung": "Klingeweg" }, "geometry": null },
{ "type": "Feature", "properties": { "strassenschluessel": "057740000004S5020", "bezeichnung": "Sabergweg" }, "geometry": null },
{ "type": "Feature", "properties": { "strassenschluessel": "057740000004S5021", "bezeichnung": "Schrägweg" }, "geometry": null },
{ "type": "Feature", "properties": { "strassenschluessel": "057740000004S5022", "bezeichnung": "Duner Weg" }, "geometry": null },
{ "type": "Feature", "properties": { "strassenschluessel": "057740000004S5023", "bezeichnung": "Grebeweg" }, "geometry": null },
{ "type": "Feature", "properties": { "strassenschluessel": "057740000004S5024", "bezeichnung": "Klusweg" }, "geometry": null },
{ "type": "Feature", "properties": { "strassenschluessel": "057740000004S5025", "bezeichnung": "Eggeweg" }, "geometry": null },
{ "type": "Feature", "properties": { "strassenschluessel": "057740000004S5026", "bezeichnung": "Hansteinweg" }, "geometry": null },
{ "type": "Feature", "properties": { "strassenschluessel": "057740000004S5027", "bezeichnung": "Landdrostenweg" }, "geometry": null },
{ "type": "Feature", "properties": { "strassenschluessel": "057740000004S5028", "bezeichnung": "Lammersbergweg" }, "geometry": null },
{ "type": "Feature", "properties": { "strassenschluessel": "057740000004S5029", "bezeichnung": "Kanzelweg" }, "geometry": null },
{ "type": "Feature", "properties": { "strassenschluessel": "057740000004S5030", "bezeichnung": "Hossengrund" }, "geometry": null },
{ "type": "Feature", "properties": { "strassenschluessel": "057740000004S5031", "bezeichnung": "Salzmannweg" }, "geometry": null },
{ "type": "Feature", "properties": { "strassenschluessel": "057740000004S5032", "bezeichnung": "Krummer Esel" }, "geometry": null },
{ "type": "Feature", "properties": { "strassenschluessel": "057740000004S5033", "bezeichnung": "Hartmannspfad" }, "geometry": null },
{ "type": "Feature", "properties": { "strassenschluessel": "057740000004S5034", "bezeichnung": "Dichtwaldweg" }, "geometry": null },
{ "type": "Feature", "properties": { "strassenschluessel": "057740000004S5035", "bezeichnung": "Appelbaumgrund" }, "geometry": null },
{ "type": "Feature", "properties": { "strassenschluessel": "057740000004S5036", "bezeichnung": "Haller Grund" }, "geometry": null },
{ "type": "Feature", "properties": { "strassenschluessel": "057740000004S5037", "bezeichnung": "B 64" }, "geometry": null },
{ "type": "Feature", "properties": { "strassenschluessel": "057740000004S5038", "bezeichnung": "L 755" }, "geometry": null },
{ "type": "Feature", "properties": { "strassenschluessel": "057740000004S5039", "bezeichnung": "L 817" }, "geometry": null },
{ "type": "Feature", "properties": { "strassenschluessel": "057740000004S5040", "bezeichnung": "L 828" }, "geometry": null },
{ "type": "Feature", "properties": { "strassenschluessel": "057740000004S5041", "bezeichnung": "K 11" }, "geometry": null },
{ "type": "Feature", "properties": { "strassenschluessel": "057740000004S5042", "bezeichnung": "K 13" }, "geometry": null },
{ "type": "Feature", "properties": { "strassenschluessel": "057740000004S5043", "bezeichnung": "K 15" }, "geometry": null },
{ "type": "Feature", "properties": { "strassenschluessel": "057740000004S5044", "bezeichnung": "K 27" }, "geometry": null },
{ "type": "Feature", "properties": { "strassenschluessel": "057740000004S5045", "bezeichnung": "K 38" }, "geometry": null },
{ "type": "Feature", "properties": { "strassenschluessel": "057740000004S5047", "bezeichnung": "Heuweg" }, "geometry": null },
{ "type": "Feature", "properties": { "strassenschluessel": "057740000004S5048", "bezeichnung": "Sageweg" }, "geometry": null },
{ "type": "Feature", "properties": { "strassenschluessel": "057740000004S5049", "bezeichnung": "Rühenfeldweg" }, "geometry": { "type": "Point", "coordinates": [ 8.934794303569731, 51.747901155404122 ] } },
{ "type": "Feature", "properties": { "strassenschluessel": "057740000004S5050", "bezeichnung": "Alte Ziegelei" }, "geometry": null },
{ "type": "Feature", "properties": { "strassenschluessel": "057740000004S5051", "bezeichnung": "Im Knick" }, "geometry": null },
{ "type": "Feature", "properties": { "strassenschluessel": "057740000004S5052", "bezeichnung": "Am Happenberg" }, "geometry": null },
{ "type": "Feature", "properties": { "strassenschluessel": "057740000004S5053", "bezeichnung": "Auf dem Hasehol" }, "geometry": null },
{ "type": "Feature", "properties": { "strassenschluessel": "057740000004S5054", "bezeichnung": "Am Broxberg" }, "geometry": null }
]
}
