{
"type": "FeatureCollection",
"features": [
{ "type": "Feature", "properties": { "strassenschluessel": "05970000002823000", "bezeichnung": "Sebastian-Kneipp-Straße" }, "geometry": { "type": "Point", "coordinates": [ 8.410717811257104, 50.929205917104532 ] } },
{ "type": "Feature", "properties": { "strassenschluessel": "05970000002823001", "bezeichnung": "Am Birkenstrauch" }, "geometry": { "type": "Point", "coordinates": [ 8.432501213920716, 50.933557663451737 ] } },
{ "type": "Feature", "properties": { "strassenschluessel": "05970000002823002", "bezeichnung": "Am Dillstein" }, "geometry": { "type": "Point", "coordinates": [ 8.399340446826651, 50.925030094767358 ] } },
{ "type": "Feature", "properties": { "strassenschluessel": "05970000002823003", "bezeichnung": "Am Eichelkamp" }, "geometry": { "type": "Point", "coordinates": [ 8.403665852658044, 50.928768916662669 ] } },
{ "type": "Feature", "properties": { "strassenschluessel": "05970000002823004", "bezeichnung": "Am Feldberg" }, "geometry": { "type": "Point", "coordinates": [ 8.433224188544502, 50.932472591022993 ] } },
{ "type": "Feature", "properties": { "strassenschluessel": "05970000002823005", "bezeichnung": "Hahlerweg" }, "geometry": { "type": "Point", "coordinates": [ 8.417081303934003, 50.931610212214551 ] } },
{ "type": "Feature", "properties": { "strassenschluessel": "05970000002823006", "bezeichnung": "An der Hahler" }, "geometry": { "type": "Point", "coordinates": [ 8.415197062163598, 50.930876420120796 ] } },
{ "type": "Feature", "properties": { "strassenschluessel": "05970000002823007", "bezeichnung": "Auf der Pfingstweide" }, "geometry": { "type": "Point", "coordinates": [ 8.424928084325749, 50.931282818303409 ] } },
{ "type": "Feature", "properties": { "strassenschluessel": "05970000002823008", "bezeichnung": "Bäderborn" }, "geometry": { "type": "Point", "coordinates": [ 8.431880606927002, 50.932294364692567 ] } },
{ "type": "Feature", "properties": { "strassenschluessel": "05970000002823009", "bezeichnung": "Bahnhofstraße" }, "geometry": { "type": "Point", "coordinates": [ 8.425708364827363, 50.930640056179996 ] } },
{ "type": "Feature", "properties": { "strassenschluessel": "05970000002823010", "bezeichnung": "Industriestraße" }, "geometry": { "type": "Point", "coordinates": [ 8.433648858688807, 50.927682577320581 ] } },
{ "type": "Feature", "properties": { "strassenschluessel": "05970000002823011", "bezeichnung": "Bergstraße" }, "geometry": { "type": "Point", "coordinates": [ 8.407244178956002, 50.928572749345037 ] } },
{ "type": "Feature", "properties": { "strassenschluessel": "05970000002823012", "bezeichnung": "Mozartweg" }, "geometry": { "type": "Point", "coordinates": [ 8.418723734271151, 50.933069452332774 ] } },
{ "type": "Feature", "properties": { "strassenschluessel": "05970000002823013", "bezeichnung": "Brandenburger Weg" }, "geometry": { "type": "Point", "coordinates": [ 8.427460968821357, 50.933534796445869 ] } },
{ "type": "Feature", "properties": { "strassenschluessel": "05970000002823014", "bezeichnung": "Brückenstraße" }, "geometry": { "type": "Point", "coordinates": [ 8.413596943907475, 50.927118239415101 ] } },
{ "type": "Feature", "properties": { "strassenschluessel": "05970000002823015", "bezeichnung": "Brunnenstraße" }, "geometry": { "type": "Point", "coordinates": [ 8.410099290651061, 50.927021010108376 ] } },
{ "type": "Feature", "properties": { "strassenschluessel": "05970000002823016", "bezeichnung": "Buchwiesenstraße" }, "geometry": { "type": "Point", "coordinates": [ 8.411176932537778, 50.923270579492012 ] } },
{ "type": "Feature", "properties": { "strassenschluessel": "05970000002823017", "bezeichnung": "Dammstraße" }, "geometry": { "type": "Point", "coordinates": [ 8.412893527721728, 50.926141792553146 ] } },
{ "type": "Feature", "properties": { "strassenschluessel": "05970000002823018", "bezeichnung": "Ditzroder Weg" }, "geometry": { "type": "Point", "coordinates": [ 8.403682536627802, 50.916448625346597 ] } },
{ "type": "Feature", "properties": { "strassenschluessel": "05970000002823019", "bezeichnung": "Feldstraße" }, "geometry": { "type": "Point", "coordinates": [ 8.413432572047061, 50.930132111007737 ] } },
{ "type": "Feature", "properties": { "strassenschluessel": "05970000002823020", "bezeichnung": "Friedrichshütte" }, "geometry": { "type": "Point", "coordinates": [ 8.397776861666411, 50.920491319433417 ] } },
{ "type": "Feature", "properties": { "strassenschluessel": "05970000002823021", "bezeichnung": "Friedrichstraße" }, "geometry": { "type": "Point", "coordinates": [ 8.417819694684368, 50.930421121750172 ] } },
{ "type": "Feature", "properties": { "strassenschluessel": "05970000002823022", "bezeichnung": "Kurstraße" }, "geometry": { "type": "Point", "coordinates": [ 8.412235491245308, 50.928831259054505 ] } },
{ "type": "Feature", "properties": { "strassenschluessel": "05970000002823023", "bezeichnung": "Gartenstraße" }, "geometry": { "type": "Point", "coordinates": [ 8.409429114830003, 50.926232343091591 ] } },
{ "type": "Feature", "properties": { "strassenschluessel": "05970000002823025", "bezeichnung": "Gennernbach" }, "geometry": { "type": "Point", "coordinates": [ 8.408521923459467, 50.92061005526385 ] } },
{ "type": "Feature", "properties": { "strassenschluessel": "05970000002823026", "bezeichnung": "Hinterfang" }, "geometry": { "type": "Point", "coordinates": [ 8.416122832472107, 50.933438540792388 ] } },
{ "type": "Feature", "properties": { "strassenschluessel": "05970000002823027", "bezeichnung": "Hirtsgrund" }, "geometry": { "type": "Point", "coordinates": [ 8.422301733922868, 50.93567555708988 ] } },
{ "type": "Feature", "properties": { "strassenschluessel": "05970000002823028", "bezeichnung": "Hirtsgrunder Weg" }, "geometry": { "type": "Point", "coordinates": [ 8.423749299919386, 50.933131238761867 ] } },
{ "type": "Feature", "properties": { "strassenschluessel": "05970000002823029", "bezeichnung": "Höhenweg" }, "geometry": { "type": "Point", "coordinates": [ 8.414436578425049, 50.931768911862356 ] } },
{ "type": "Feature", "properties": { "strassenschluessel": "05970000002823030", "bezeichnung": "Hubertusweg" }, "geometry": { "type": "Point", "coordinates": [ 8.418750140544494, 50.930689512737629 ] } },
{ "type": "Feature", "properties": { "strassenschluessel": "05970000002823031", "bezeichnung": "Wehrstraße" }, "geometry": { "type": "Point", "coordinates": [ 8.416119722652327, 50.929777146761531 ] } },
{ "type": "Feature", "properties": { "strassenschluessel": "05970000002823032", "bezeichnung": "Oberer Buhlschlag" }, "geometry": { "type": "Point", "coordinates": [ 8.410855415421418, 50.918350452528124 ] } },
{ "type": "Feature", "properties": { "strassenschluessel": "05970000002823033", "bezeichnung": "Im Laasphetal" }, "geometry": { "type": "Point", "coordinates": [ 8.400484781896321, 50.935461915472075 ] } },
{ "type": "Feature", "properties": { "strassenschluessel": "05970000002823034", "bezeichnung": "Im Wabach" }, "geometry": { "type": "Point", "coordinates": [ 8.405889175712637, 50.918080660180756 ] } },
{ "type": "Feature", "properties": { "strassenschluessel": "05970000002823035", "bezeichnung": "In der Grube" }, "geometry": { "type": "Point", "coordinates": [ 8.427939658566977, 50.932573035493768 ] } },
{ "type": "Feature", "properties": { "strassenschluessel": "05970000002823036", "bezeichnung": "In der Hohl" }, "geometry": { "type": "Point", "coordinates": [ 8.406021492632894, 50.926165104760464 ] } },
{ "type": "Feature", "properties": { "strassenschluessel": "05970000002823037", "bezeichnung": "In der Stockwiese" }, "geometry": { "type": "Point", "coordinates": [ 8.422950414576047, 50.928615575028502 ] } },
{ "type": "Feature", "properties": { "strassenschluessel": "05970000002823038", "bezeichnung": "Kalteborn" }, "geometry": { "type": "Point", "coordinates": [ 8.41772183692669, 50.932308255843473 ] } },
{ "type": "Feature", "properties": { "strassenschluessel": "05970000002823039", "bezeichnung": "Kirchplatz" }, "geometry": { "type": "Point", "coordinates": [ 8.410995024670436, 50.926682801501009 ] } },
{ "type": "Feature", "properties": { "strassenschluessel": "05970000002823040", "bezeichnung": "Königstraße" }, "geometry": { "type": "Point", "coordinates": [ 8.407592080912796, 50.927381541910535 ] } },
{ "type": "Feature", "properties": { "strassenschluessel": "05970000002823041", "bezeichnung": "Lahnuferstraße" }, "geometry": { "type": "Point", "coordinates": [ 8.428619893518812, 50.927745505446055 ] } },
{ "type": "Feature", "properties": { "strassenschluessel": "05970000002823042", "bezeichnung": "Lahnstraße" }, "geometry": { "type": "Point", "coordinates": [ 8.407379412938059, 50.923072116327226 ] } },
{ "type": "Feature", "properties": { "strassenschluessel": "05970000002823043", "bezeichnung": "Mauerstraße" }, "geometry": { "type": "Point", "coordinates": [ 8.410499484393778, 50.927625380803804 ] } },
{ "type": "Feature", "properties": { "strassenschluessel": "05970000002823044", "bezeichnung": "Mecklenburger Weg" }, "geometry": { "type": "Point", "coordinates": [ 8.430186336046656, 50.931806448323286 ] } },
{ "type": "Feature", "properties": { "strassenschluessel": "05970000002823045", "bezeichnung": "Mühlenstraße" }, "geometry": { "type": "Point", "coordinates": [ 8.412459458803959, 50.924569922365684 ] } },
{ "type": "Feature", "properties": { "strassenschluessel": "05970000002823046", "bezeichnung": "Mühlfeld" }, "geometry": { "type": "Point", "coordinates": [ 8.408996542557809, 50.925174742769272 ] } },
{ "type": "Feature", "properties": { "strassenschluessel": "05970000002823047", "bezeichnung": "Kastanienweg" }, "geometry": { "type": "Point", "coordinates": [ 8.403066529413053, 50.924416465603244 ] } },
{ "type": "Feature", "properties": { "strassenschluessel": "05970000002823048", "bezeichnung": "Obere Bienhecke" }, "geometry": { "type": "Point", "coordinates": [ 8.404199161762071, 50.9192347813512 ] } },
{ "type": "Feature", "properties": { "strassenschluessel": "05970000002823049", "bezeichnung": "Oberer Schuleborn" }, "geometry": { "type": "Point", "coordinates": [ 8.400008604147727, 50.924602769673108 ] } },
{ "type": "Feature", "properties": { "strassenschluessel": "05970000002823050", "bezeichnung": "Ostplatz" }, "geometry": { "type": "Point", "coordinates": [ 8.422912547562293, 50.930842097900886 ] } },
{ "type": "Feature", "properties": { "strassenschluessel": "05970000002823051", "bezeichnung": "Ostpreußenstraße" }, "geometry": { "type": "Point", "coordinates": [ 8.421662294230833, 50.932319114592005 ] } },
{ "type": "Feature", "properties": { "strassenschluessel": "05970000002823052", "bezeichnung": "Pommernweg" }, "geometry": { "type": "Point", "coordinates": [ 8.425802236685678, 50.933982725743107 ] } },
{ "type": "Feature", "properties": { "strassenschluessel": "05970000002823053", "bezeichnung": "Puderbacher Weg" }, "geometry": { "type": "Point", "coordinates": [ 8.41773022119272, 50.93129714937443 ] } },
{ "type": "Feature", "properties": { "strassenschluessel": "05970000002823054", "bezeichnung": "Sachsenweg" }, "geometry": { "type": "Point", "coordinates": [ 8.433623152523319, 50.932861023723724 ] } },
{ "type": "Feature", "properties": { "strassenschluessel": "05970000002823055", "bezeichnung": "Schlesische Straße" }, "geometry": { "type": "Point", "coordinates": [ 8.424783495041067, 50.932293029374307 ] } },
{ "type": "Feature", "properties": { "strassenschluessel": "05970000002823056", "bezeichnung": "Schloßberg" }, "geometry": { "type": "Point", "coordinates": [ 8.403011838823467, 50.927067643058329 ] } },
{ "type": "Feature", "properties": { "strassenschluessel": "05970000002823057", "bezeichnung": "Schloßstraße" }, "geometry": { "type": "Point", "coordinates": [ 8.407039529618546, 50.926522388434194 ] } },
{ "type": "Feature", "properties": { "strassenschluessel": "05970000002823058", "bezeichnung": "Schloß Wittgenstein" }, "geometry": { "type": "Point", "coordinates": [ 8.397916694822449, 50.928775485251094 ] } },
{ "type": "Feature", "properties": { "strassenschluessel": "05970000002823059", "bezeichnung": "Turnerstraße" }, "geometry": { "type": "Point", "coordinates": [ 8.415231418254686, 50.929953437169516 ] } },
{ "type": "Feature", "properties": { "strassenschluessel": "05970000002823060", "bezeichnung": "Steinackerstraße" }, "geometry": { "type": "Point", "coordinates": [ 8.412295941469253, 50.928095905858605 ] } },
{ "type": "Feature", "properties": { "strassenschluessel": "05970000002823061", "bezeichnung": "Steinweg" }, "geometry": { "type": "Point", "coordinates": [ 8.409532482351921, 50.926829532243381 ] } },
{ "type": "Feature", "properties": { "strassenschluessel": "05970000002823062", "bezeichnung": "Thüringer Weg" }, "geometry": { "type": "Point", "coordinates": [ 8.429749206207653, 50.931333807598236 ] } },
{ "type": "Feature", "properties": { "strassenschluessel": "05970000002823063", "bezeichnung": "Untere Bienhecke" }, "geometry": { "type": "Point", "coordinates": [ 8.404382698802406, 50.919724067600434 ] } },
{ "type": "Feature", "properties": { "strassenschluessel": "05970000002823064", "bezeichnung": "Unterer Schuleborn" }, "geometry": { "type": "Point", "coordinates": [ 8.40010193348288, 50.924310239457263 ] } },
{ "type": "Feature", "properties": { "strassenschluessel": "05970000002823065", "bezeichnung": "Vor dem Fang" }, "geometry": { "type": "Point", "coordinates": [ 8.413342388569596, 50.930500394831867 ] } },
{ "type": "Feature", "properties": { "strassenschluessel": "05970000002823066", "bezeichnung": "Waldweg" }, "geometry": { "type": "Point", "coordinates": [ 8.416521270595842, 50.936452429101067 ] } },
{ "type": "Feature", "properties": { "strassenschluessel": "05970000002823067", "bezeichnung": "Wallstraße" }, "geometry": { "type": "Point", "coordinates": [ 8.411418027691676, 50.926607947799489 ] } },
{ "type": "Feature", "properties": { "strassenschluessel": "05970000002823068", "bezeichnung": "Wasserstraße" }, "geometry": { "type": "Point", "coordinates": [ 8.404477566464585, 50.929543221678273 ] } },
{ "type": "Feature", "properties": { "strassenschluessel": "05970000002823069", "bezeichnung": "Wiesenbacher Weg" }, "geometry": { "type": "Point", "coordinates": [ 8.409319119204676, 50.917941669341225 ] } },
{ "type": "Feature", "properties": { "strassenschluessel": "05970000002823070", "bezeichnung": "Wilhelmsplatz" }, "geometry": { "type": "Point", "coordinates": [ 8.412551272345091, 50.927124404339381 ] } },
{ "type": "Feature", "properties": { "strassenschluessel": "05970000002823071", "bezeichnung": "Wilhelmstraße" }, "geometry": { "type": "Point", "coordinates": [ 8.408568734033722, 50.924549795288598 ] } },
{ "type": "Feature", "properties": { "strassenschluessel": "05970000002823072", "bezeichnung": "Zum Lehrberg" }, "geometry": { "type": "Point", "coordinates": [ 8.41953547210287, 50.934474885019348 ] } },
{ "type": "Feature", "properties": { "strassenschluessel": "05970000002823073", "bezeichnung": "Zwischen Landwehr" }, "geometry": { "type": "Point", "coordinates": [ 8.42153305363766, 50.93131630103521 ] } },
{ "type": "Feature", "properties": { "strassenschluessel": "05970000002823074", "bezeichnung": "Butzebach" }, "geometry": { "type": "Point", "coordinates": [ 8.401560185815168, 50.937927438068236 ] } },
{ "type": "Feature", "properties": { "strassenschluessel": "05970000002823075", "bezeichnung": "In der Aue" }, "geometry": { "type": "Point", "coordinates": [ 8.433108951432244, 50.929344416520586 ] } },
{ "type": "Feature", "properties": { "strassenschluessel": "05970000002823076", "bezeichnung": "Hof Breitenbach" }, "geometry": { "type": "Point", "coordinates": [ 8.357308294942817, 50.935220674543487 ] } },
{ "type": "Feature", "properties": { "strassenschluessel": "05970000002823077", "bezeichnung": "Forsthaus Litzelbach" }, "geometry": { "type": "Point", "coordinates": [ 8.432781395617306, 50.939454820308001 ] } },
{ "type": "Feature", "properties": { "strassenschluessel": "05970000002823078", "bezeichnung": "Forsthaus Hirtsgrund" }, "geometry": { "type": "Point", "coordinates": [ 8.421575814840599, 50.939975541640621 ] } },
{ "type": "Feature", "properties": { "strassenschluessel": "05970000002823079", "bezeichnung": "Max-Präger-Weg" }, "geometry": { "type": "Point", "coordinates": [ 8.406208872911089, 50.927079231747484 ] } },
{ "type": "Feature", "properties": { "strassenschluessel": "05970000002823080", "bezeichnung": "Unterm Hombach" }, "geometry": { "type": "Point", "coordinates": [ 8.418801210062743, 50.927715214096061 ] } },
{ "type": "Feature", "properties": { "strassenschluessel": "05970000002823081", "bezeichnung": "Wasserstraße/Bracht" }, "geometry": { "type": "Point", "coordinates": [ 8.391827075725137, 50.948101406089449 ] } },
{ "type": "Feature", "properties": { "strassenschluessel": "05970000002823082", "bezeichnung": "Obere Rote Hardt" }, "geometry": { "type": "Point", "coordinates": [ 8.427478035824514, 50.935479370244479 ] } },
{ "type": "Feature", "properties": { "strassenschluessel": "05970000002823083", "bezeichnung": "Untere Rote Hardt" }, "geometry": { "type": "Point", "coordinates": [ 8.427304236640094, 50.934917634822064 ] } },
{ "type": "Feature", "properties": { "strassenschluessel": "05970000002823084", "bezeichnung": "Am Waldrand" }, "geometry": { "type": "Point", "coordinates": [ 8.415813943803233, 50.935295040153655 ] } },
{ "type": "Feature", "properties": { "strassenschluessel": "05970000002823085", "bezeichnung": "Kneebuschweg" }, "geometry": { "type": "Point", "coordinates": [ 8.401996459025291, 50.92359352538076 ] } },
{ "type": "Feature", "properties": { "strassenschluessel": "05970000002823086", "bezeichnung": "Unterer Buhlschlag" }, "geometry": { "type": "Point", "coordinates": [ 8.409575770610235, 50.920014989735783 ] } },
{ "type": "Feature", "properties": { "strassenschluessel": "05970000002823087", "bezeichnung": "Vor den Hasseln" }, "geometry": { "type": "Point", "coordinates": [ 8.402605353757897, 50.917497840261476 ] } },
{ "type": "Feature", "properties": { "strassenschluessel": "05970000002823088", "bezeichnung": "Am Lärchenwäldchen" }, "geometry": { "type": "Point", "coordinates": [ 8.403291679285694, 50.917881589165525 ] } },
{ "type": "Feature", "properties": { "strassenschluessel": "05970000002823089", "bezeichnung": "Obere Wallachei" }, "geometry": { "type": "Point", "coordinates": [ 8.403987655514362, 50.91839833171354 ] } },
{ "type": "Feature", "properties": { "strassenschluessel": "05970000002823090", "bezeichnung": "Zum Winterkasten" }, "geometry": { "type": "Point", "coordinates": [ 8.403462761796625, 50.917174115192566 ] } },
{ "type": "Feature", "properties": { "strassenschluessel": "05970000002823091", "bezeichnung": "Am Galgenberg" }, "geometry": { "type": "Point", "coordinates": [ 8.432184176894935, 50.934636225656135 ] } },
{ "type": "Feature", "properties": { "strassenschluessel": "05970000002823092", "bezeichnung": "Niederlaaspher Weg" }, "geometry": { "type": "Point", "coordinates": [ 8.43441590993451, 50.931620645698111 ] } },
{ "type": "Feature", "properties": { "strassenschluessel": "05970000002823093", "bezeichnung": "Sudetenweg" }, "geometry": { "type": "Point", "coordinates": [ 8.435553949742859, 50.932623127132452 ] } },
{ "type": "Feature", "properties": { "strassenschluessel": "05970000002823094", "bezeichnung": "Zum Litzelbach" }, "geometry": { "type": "Point", "coordinates": [ 8.4345387294138, 50.934402248962016 ] } },
{ "type": "Feature", "properties": { "strassenschluessel": "05970000002823095", "bezeichnung": "Kanarienweg" }, "geometry": { "type": "Point", "coordinates": [ 8.436801280471887, 50.93097642709261 ] } },
{ "type": "Feature", "properties": { "strassenschluessel": "05970000002823096", "bezeichnung": "Ludwig-Koch-Straße" }, "geometry": { "type": "Point", "coordinates": [ 8.424337049802791, 50.929059581303271 ] } },
{ "type": "Feature", "properties": { "strassenschluessel": "05970000002823150", "bezeichnung": "Brückenacker" }, "geometry": { "type": "Point", "coordinates": [ 8.375591145881428, 50.924738393140487 ] } },
{ "type": "Feature", "properties": { "strassenschluessel": "05970000002823151", "bezeichnung": "Laaspherhütte" }, "geometry": { "type": "Point", "coordinates": [ 8.38032248787591, 50.921886059962056 ] } },
{ "type": "Feature", "properties": { "strassenschluessel": "05970000002823152", "bezeichnung": "Zum Breitenbach" }, "geometry": { "type": "Point", "coordinates": [ 8.378248271134428, 50.923967029988312 ] } },
{ "type": "Feature", "properties": { "strassenschluessel": "05970000002823153", "bezeichnung": "Zum Grimmseifen" }, "geometry": { "type": "Point", "coordinates": [ 8.379586466251341, 50.923438711830507 ] } },
{ "type": "Feature", "properties": { "strassenschluessel": "05970000002823154", "bezeichnung": "Zum Kalkberg" }, "geometry": { "type": "Point", "coordinates": [ 8.381514802394818, 50.922153656162074 ] } },
{ "type": "Feature", "properties": { "strassenschluessel": "05970000002823200", "bezeichnung": "Amtshäuser Straße" }, "geometry": { "type": "Point", "coordinates": [ 8.30133390267185, 50.975586730547874 ] } },
{ "type": "Feature", "properties": { "strassenschluessel": "05970000002823201", "bezeichnung": "Bärwingweg" }, "geometry": { "type": "Point", "coordinates": [ 8.299221289780096, 50.973949224709628 ] } },
{ "type": "Feature", "properties": { "strassenschluessel": "05970000002823202", "bezeichnung": "Erbergweg" }, "geometry": { "type": "Point", "coordinates": [ 8.297884828146653, 50.97446971704089 ] } },
{ "type": "Feature", "properties": { "strassenschluessel": "05970000002823203", "bezeichnung": "Hülsbachweg" }, "geometry": { "type": "Point", "coordinates": [ 8.303074721650741, 50.976092221279309 ] } },
{ "type": "Feature", "properties": { "strassenschluessel": "05970000002823204", "bezeichnung": "Immergrün" }, "geometry": { "type": "Point", "coordinates": [ 8.292183679854546, 50.98041970267299 ] } },
{ "type": "Feature", "properties": { "strassenschluessel": "05970000002823205", "bezeichnung": "Auf der Leimstruth" }, "geometry": { "type": "Point", "coordinates": [ 8.321876493290292, 50.980354012893969 ] } },
{ "type": "Feature", "properties": { "strassenschluessel": "05970000002823210", "bezeichnung": "Alter Markt" }, "geometry": { "type": "Point", "coordinates": [ 8.3520275588671, 50.91498811105388 ] } },
{ "type": "Feature", "properties": { "strassenschluessel": "05970000002823211", "bezeichnung": "Am Sand" }, "geometry": { "type": "Point", "coordinates": [ 8.35051377428529, 50.911588128774092 ] } },
{ "type": "Feature", "properties": { "strassenschluessel": "05970000002823213", "bezeichnung": "Auf der Heber" }, "geometry": { "type": "Point", "coordinates": [ 8.351876677204995, 50.911308797385679 ] } },
{ "type": "Feature", "properties": { "strassenschluessel": "05970000002823214", "bezeichnung": "Banfetalstraße" }, "geometry": { "type": "Point", "coordinates": [ 8.346439239052472, 50.90950673413797 ] } },
{ "type": "Feature", "properties": { "strassenschluessel": "05970000002823215", "bezeichnung": "Hinterm Holler" }, "geometry": { "type": "Point", "coordinates": [ 8.354525249418371, 50.91249666420579 ] } },
{ "type": "Feature", "properties": { "strassenschluessel": "05970000002823216", "bezeichnung": "Friedenfelder Weg" }, "geometry": { "type": "Point", "coordinates": [ 8.359854888262246, 50.915949797155378 ] } },
{ "type": "Feature", "properties": { "strassenschluessel": "05970000002823218", "bezeichnung": "Hainstraße" }, "geometry": { "type": "Point", "coordinates": [ 8.359529485594116, 50.913938511518168 ] } },
{ "type": "Feature", "properties": { "strassenschluessel": "05970000002823220", "bezeichnung": "Hinter der Heber" }, "geometry": { "type": "Point", "coordinates": [ 8.352824307900159, 50.910919352865193 ] } },
{ "type": "Feature", "properties": { "strassenschluessel": "05970000002823221", "bezeichnung": "Hochstraße" }, "geometry": { "type": "Point", "coordinates": [ 8.348440110175407, 50.91664176066044 ] } },
{ "type": "Feature", "properties": { "strassenschluessel": "05970000002823222", "bezeichnung": "Immenseifen" }, "geometry": { "type": "Point", "coordinates": [ 8.353753639459434, 50.916629420321506 ] } },
{ "type": "Feature", "properties": { "strassenschluessel": "05970000002823223", "bezeichnung": "Im Riegenbach" }, "geometry": { "type": "Point", "coordinates": [ 8.343492376829621, 50.914547431041107 ] } },
{ "type": "Feature", "properties": { "strassenschluessel": "05970000002823224", "bezeichnung": "In der Hege" }, "geometry": { "type": "Point", "coordinates": [ 8.35946985639811, 50.916205723402108 ] } },
{ "type": "Feature", "properties": { "strassenschluessel": "05970000002823225", "bezeichnung": "In der Zeun" }, "geometry": { "type": "Point", "coordinates": [ 8.353713462761633, 50.911622691270239 ] } },
{ "type": "Feature", "properties": { "strassenschluessel": "05970000002823226", "bezeichnung": "Kirchweg" }, "geometry": { "type": "Point", "coordinates": [ 8.350939756504365, 50.914461496819776 ] } },
{ "type": "Feature", "properties": { "strassenschluessel": "05970000002823227", "bezeichnung": "Im Alten Gewanne" }, "geometry": { "type": "Point", "coordinates": [ 8.344812037392517, 50.915451313095737 ] } },
{ "type": "Feature", "properties": { "strassenschluessel": "05970000002823228", "bezeichnung": "Lindenfeld" }, "geometry": { "type": "Point", "coordinates": [ 8.317270508568305, 50.909900988737924 ] } },
{ "type": "Feature", "properties": { "strassenschluessel": "05970000002823229", "bezeichnung": "Lindenfelder Weg" }, "geometry": { "type": "Point", "coordinates": [ 8.348428691844639, 50.915498412810486 ] } },
{ "type": "Feature", "properties": { "strassenschluessel": "05970000002823230", "bezeichnung": "Neuer Weg" }, "geometry": { "type": "Point", "coordinates": [ 8.359305809406875, 50.914593368248944 ] } },
{ "type": "Feature", "properties": { "strassenschluessel": "05970000002823231", "bezeichnung": "Oberer Feldhain" }, "geometry": { "type": "Point", "coordinates": [ 8.348976130056897, 50.908381722487285 ] } },
{ "type": "Feature", "properties": { "strassenschluessel": "05970000002823232", "bezeichnung": "Oberer Laibach" }, "geometry": { "type": "Point", "coordinates": [ 8.345553256462303, 50.909975419975353 ] } },
{ "type": "Feature", "properties": { "strassenschluessel": "05970000002823233", "bezeichnung": "Poststraße" }, "geometry": { "type": "Point", "coordinates": [ 8.353060969605661, 50.912984789113054 ] } },
{ "type": "Feature", "properties": { "strassenschluessel": "05970000002823234", "bezeichnung": "Schulstraße" }, "geometry": { "type": "Point", "coordinates": [ 8.351522669568856, 50.916667905160494 ] } },
{ "type": "Feature", "properties": { "strassenschluessel": "05970000002823235", "bezeichnung": "Talstraße" }, "geometry": { "type": "Point", "coordinates": [ 8.349302507381514, 50.91516302710442 ] } },
{ "type": "Feature", "properties": { "strassenschluessel": "05970000002823236", "bezeichnung": "Unterer Feldhain" }, "geometry": { "type": "Point", "coordinates": [ 8.348929068212923, 50.90880665574408 ] } },
{ "type": "Feature", "properties": { "strassenschluessel": "05970000002823237", "bezeichnung": "Unterer Laibach" }, "geometry": { "type": "Point", "coordinates": [ 8.345868413828276, 50.909460974712651 ] } },
{ "type": "Feature", "properties": { "strassenschluessel": "05970000002823238", "bezeichnung": "Sportplatzstraße" }, "geometry": { "type": "Point", "coordinates": [ 8.348856491293915, 50.911871756123261 ] } },
{ "type": "Feature", "properties": { "strassenschluessel": "05970000002823239", "bezeichnung": "Wiesenstraße" }, "geometry": { "type": "Point", "coordinates": [ 8.356055012417125, 50.914863136046087 ] } },
{ "type": "Feature", "properties": { "strassenschluessel": "05970000002823242", "bezeichnung": "Zum Alertsberg" }, "geometry": { "type": "Point", "coordinates": [ 8.352254124821746, 50.910237408782464 ] } },
{ "type": "Feature", "properties": { "strassenschluessel": "05970000002823280", "bezeichnung": "Am Gottelsberg" }, "geometry": { "type": "Point", "coordinates": [ 8.357643127993661, 50.946841850101045 ] } },
{ "type": "Feature", "properties": { "strassenschluessel": "05970000002823281", "bezeichnung": "Am Kratzenberg" }, "geometry": { "type": "Point", "coordinates": [ 8.344302997261243, 50.95279176203659 ] } },
{ "type": "Feature", "properties": { "strassenschluessel": "05970000002823282", "bezeichnung": "Bermershäuser Straße" }, "geometry": { "type": "Point", "coordinates": [ 8.345506895427098, 50.951288937999017 ] } },
{ "type": "Feature", "properties": { "strassenschluessel": "05970000002823283", "bezeichnung": "Wahlbachsmühle" }, "geometry": { "type": "Point", "coordinates": [ 8.357537045892578, 50.948363136722548 ] } },
{ "type": "Feature", "properties": { "strassenschluessel": "05970000002823284", "bezeichnung": "Zum Hohen Roth" }, "geometry": { "type": "Point", "coordinates": [ 8.346925164232928, 50.951446200963773 ] } },
{ "type": "Feature", "properties": { "strassenschluessel": "05970000002823285", "bezeichnung": "Zur Talwiese" }, "geometry": { "type": "Point", "coordinates": [ 8.340506324177136, 50.949212226198561 ] } },
{ "type": "Feature", "properties": { "strassenschluessel": "05970000002823290", "bezeichnung": "Battenbachweg" }, "geometry": { "type": "Point", "coordinates": [ 8.319710990049103, 50.897904083851074 ] } },
{ "type": "Feature", "properties": { "strassenschluessel": "05970000002823291", "bezeichnung": "Bernshäuser Straße" }, "geometry": { "type": "Point", "coordinates": [ 8.318553987182893, 50.89818399920123 ] } },
{ "type": "Feature", "properties": { "strassenschluessel": "05970000002823292", "bezeichnung": "Hinterfeldweg" }, "geometry": { "type": "Point", "coordinates": [ 8.318916266230538, 50.897808497134186 ] } },
{ "type": "Feature", "properties": { "strassenschluessel": "05970000002823293", "bezeichnung": "Kurzer Weg" }, "geometry": { "type": "Point", "coordinates": [ 8.319378087167808, 50.897826586108444 ] } },
{ "type": "Feature", "properties": { "strassenschluessel": "05970000002823294", "bezeichnung": "Langäcker" }, "geometry": { "type": "Point", "coordinates": [ 8.31991649283637, 50.899178596741969 ] } },
{ "type": "Feature", "properties": { "strassenschluessel": "05970000002823300", "bezeichnung": "Am Bilsedorn" }, "geometry": { "type": "Point", "coordinates": [ 8.336116261269918, 50.938091660989222 ] } },
{ "type": "Feature", "properties": { "strassenschluessel": "05970000002823302", "bezeichnung": "Am Hang" }, "geometry": { "type": "Point", "coordinates": [ 8.319056230448108, 50.936112475324968 ] } },
{ "type": "Feature", "properties": { "strassenschluessel": "05970000002823303", "bezeichnung": "Am Hornberg" }, "geometry": { "type": "Point", "coordinates": [ 8.327774367858895, 50.944666123706881 ] } },
{ "type": "Feature", "properties": { "strassenschluessel": "05970000002823304", "bezeichnung": "Am Köpfchen" }, "geometry": { "type": "Point", "coordinates": [ 8.323489892087249, 50.936819838936444 ] } },
{ "type": "Feature", "properties": { "strassenschluessel": "05970000002823305", "bezeichnung": "Am Langen Land" }, "geometry": { "type": "Point", "coordinates": [ 8.320636534494728, 50.941471757060405 ] } },
{ "type": "Feature", "properties": { "strassenschluessel": "05970000002823306", "bezeichnung": "Am Lindenrain" }, "geometry": { "type": "Point", "coordinates": [ 8.324817940656597, 50.940517167216512 ] } },
{ "type": "Feature", "properties": { "strassenschluessel": "05970000002823307", "bezeichnung": "Amselweg" }, "geometry": { "type": "Point", "coordinates": [ 8.333992118099086, 50.941227440142107 ] } },
{ "type": "Feature", "properties": { "strassenschluessel": "05970000002823308", "bezeichnung": "Am Sasselberg" }, "geometry": { "type": "Point", "coordinates": [ 8.328055756481396, 50.93945721912565 ] } },
{ "type": "Feature", "properties": { "strassenschluessel": "05970000002823309", "bezeichnung": "Am Sonnenhang" }, "geometry": { "type": "Point", "coordinates": [ 8.331283275726852, 50.941737215892402 ] } },
{ "type": "Feature", "properties": { "strassenschluessel": "05970000002823310", "bezeichnung": "Am Vogelsang" }, "geometry": { "type": "Point", "coordinates": [ 8.334833486012675, 50.940594822696944 ] } },
{ "type": "Feature", "properties": { "strassenschluessel": "05970000002823311", "bezeichnung": "Auf der Heide" }, "geometry": { "type": "Point", "coordinates": [ 8.292609812788415, 50.938828916371087 ] } },
{ "type": "Feature", "properties": { "strassenschluessel": "05970000002823312", "bezeichnung": "Auf der Kohr" }, "geometry": { "type": "Point", "coordinates": [ 8.318793295173068, 50.938517611523253 ] } },
{ "type": "Feature", "properties": { "strassenschluessel": "05970000002823313", "bezeichnung": "Auf der Ley" }, "geometry": { "type": "Point", "coordinates": [ 8.325408695230308, 50.941927231291146 ] } },
{ "type": "Feature", "properties": { "strassenschluessel": "05970000002823314", "bezeichnung": "Auf der Schlenke" }, "geometry": { "type": "Point", "coordinates": [ 8.331397361723589, 50.938541380387498 ] } },
{ "type": "Feature", "properties": { "strassenschluessel": "05970000002823315", "bezeichnung": "Auf der Stehde" }, "geometry": { "type": "Point", "coordinates": [ 8.326462115996028, 50.938692739948799 ] } },
{ "type": "Feature", "properties": { "strassenschluessel": "05970000002823316", "bezeichnung": "Auf dem Stein" }, "geometry": { "type": "Point", "coordinates": [ 8.314632248121256, 50.942173708381247 ] } },
{ "type": "Feature", "properties": { "strassenschluessel": "05970000002823317", "bezeichnung": "Auf der Ilgenbrach" }, "geometry": { "type": "Point", "coordinates": [ 8.313636357101451, 50.94206260872604 ] } },
{ "type": "Feature", "properties": { "strassenschluessel": "05970000002823318", "bezeichnung": "Auf dem Breitenacker" }, "geometry": { "type": "Point", "coordinates": [ 8.316622564992018, 50.943125965559709 ] } },
{ "type": "Feature", "properties": { "strassenschluessel": "05970000002823319", "bezeichnung": "Blumenweg" }, "geometry": { "type": "Point", "coordinates": [ 8.321575324542637, 50.938500056899208 ] } },
{ "type": "Feature", "properties": { "strassenschluessel": "05970000002823320", "bezeichnung": "Bornweg" }, "geometry": { "type": "Point", "coordinates": [ 8.324043581936474, 50.941604889439354 ] } },
{ "type": "Feature", "properties": { "strassenschluessel": "05970000002823321", "bezeichnung": "Breslauer Straße" }, "geometry": { "type": "Point", "coordinates": [ 8.31651043688829, 50.941347025812959 ] } },
{ "type": "Feature", "properties": { "strassenschluessel": "05970000002823322", "bezeichnung": "Brunnenweg" }, "geometry": { "type": "Point", "coordinates": [ 8.32410222853057, 50.941112760594415 ] } },
{ "type": "Feature", "properties": { "strassenschluessel": "05970000002823323", "bezeichnung": "Am Hohlen Weg" }, "geometry": { "type": "Point", "coordinates": [ 8.315983851177997, 50.942784918372674 ] } },
{ "type": "Feature", "properties": { "strassenschluessel": "05970000002823324", "bezeichnung": "Friedhofsweg" }, "geometry": { "type": "Point", "coordinates": [ 8.315606916472902, 50.94193030798364 ] } },
{ "type": "Feature", "properties": { "strassenschluessel": "05970000002823325", "bezeichnung": "Auf den Weiherhöfen" }, "geometry": { "type": "Point", "coordinates": [ 8.3234097010379, 50.938503289120568 ] } },
{ "type": "Feature", "properties": { "strassenschluessel": "05970000002823326", "bezeichnung": "Heuweg" }, "geometry": { "type": "Point", "coordinates": [ 8.327314436954916, 50.941018691741071 ] } },
{ "type": "Feature", "properties": { "strassenschluessel": "05970000002823328", "bezeichnung": "Hinterm Tannenwald" }, "geometry": { "type": "Point", "coordinates": [ 8.303505029685372, 50.947504399301593 ] } },
{ "type": "Feature", "properties": { "strassenschluessel": "05970000002823329", "bezeichnung": "Hirtenweg" }, "geometry": { "type": "Point", "coordinates": [ 8.324164994385441, 50.942367689030156 ] } },
{ "type": "Feature", "properties": { "strassenschluessel": "05970000002823330", "bezeichnung": "Hohler Weg" }, "geometry": { "type": "Point", "coordinates": [ 8.312645668676314, 50.943540212349099 ] } },
{ "type": "Feature", "properties": { "strassenschluessel": "05970000002823331", "bezeichnung": "Hüttenstraße" }, "geometry": { "type": "Point", "coordinates": [ 8.339839031585019, 50.940002188973509 ] } },
{ "type": "Feature", "properties": { "strassenschluessel": "05970000002823332", "bezeichnung": "Im Auerbach" }, "geometry": { "type": "Point", "coordinates": [ 8.316104903396566, 50.936371242463842 ] } },
{ "type": "Feature", "properties": { "strassenschluessel": "05970000002823333", "bezeichnung": "Im Brühl" }, "geometry": { "type": "Point", "coordinates": [ 8.328184103962444, 50.942662458711247 ] } },
{ "type": "Feature", "properties": { "strassenschluessel": "05970000002823334", "bezeichnung": "Im Dernbach" }, "geometry": { "type": "Point", "coordinates": [ 8.305239872885464, 50.937992786384797 ] } },
{ "type": "Feature", "properties": { "strassenschluessel": "05970000002823335", "bezeichnung": "Im Einöd" }, "geometry": { "type": "Point", "coordinates": [ 8.339840870060554, 50.944037400255439 ] } },
{ "type": "Feature", "properties": { "strassenschluessel": "05970000002823336", "bezeichnung": "Im Großen Hof" }, "geometry": { "type": "Point", "coordinates": [ 8.326284314612064, 50.940292697497526 ] } },
{ "type": "Feature", "properties": { "strassenschluessel": "05970000002823337", "bezeichnung": "Im Hüttenhof" }, "geometry": { "type": "Point", "coordinates": [ 8.337161415253602, 50.939855944050343 ] } },
{ "type": "Feature", "properties": { "strassenschluessel": "05970000002823339", "bezeichnung": "Im Kalterbach" }, "geometry": { "type": "Point", "coordinates": [ 8.320520749807519, 50.934659003843493 ] } },
{ "type": "Feature", "properties": { "strassenschluessel": "05970000002823340", "bezeichnung": "Im Rohrbach" }, "geometry": { "type": "Point", "coordinates": [ 8.340318689243814, 50.940597321526099 ] } },
{ "type": "Feature", "properties": { "strassenschluessel": "05970000002823341", "bezeichnung": "Im Boden" }, "geometry": { "type": "Point", "coordinates": [ 8.300999127885683, 50.948942147416162 ] } },
{ "type": "Feature", "properties": { "strassenschluessel": "05970000002823342", "bezeichnung": "Im Welsenbach" }, "geometry": { "type": "Point", "coordinates": [ 8.321774680254054, 50.941880185165459 ] } },
{ "type": "Feature", "properties": { "strassenschluessel": "05970000002823344", "bezeichnung": "In der Feudinge" }, "geometry": { "type": "Point", "coordinates": [ 8.32553648742546, 50.946188564699 ] } },
{ "type": "Feature", "properties": { "strassenschluessel": "05970000002823345", "bezeichnung": "In der Gasse" }, "geometry": { "type": "Point", "coordinates": [ 8.325268793738145, 50.941467938326888 ] } },
{ "type": "Feature", "properties": { "strassenschluessel": "05970000002823346", "bezeichnung": "In der Trift" }, "geometry": { "type": "Point", "coordinates": [ 8.323418934317731, 50.939964812939387 ] } },
{ "type": "Feature", "properties": { "strassenschluessel": "05970000002823347", "bezeichnung": "An der Kirche" }, "geometry": { "type": "Point", "coordinates": [ 8.323907239440256, 50.94092376499237 ] } },
{ "type": "Feature", "properties": { "strassenschluessel": "05970000002823348", "bezeichnung": "Kölscher Weg" }, "geometry": { "type": "Point", "coordinates": [ 8.335779356572122, 50.938371963755785 ] } },
{ "type": "Feature", "properties": { "strassenschluessel": "05970000002823349", "bezeichnung": "Lerchenweg" }, "geometry": { "type": "Point", "coordinates": [ 8.330210728276301, 50.941376018983412 ] } },
{ "type": "Feature", "properties": { "strassenschluessel": "05970000002823350", "bezeichnung": "Oberer Hainberg" }, "geometry": { "type": "Point", "coordinates": [ 8.324017165351378, 50.943213578690539 ] } },
{ "type": "Feature", "properties": { "strassenschluessel": "05970000002823351", "bezeichnung": "Obere Espen" }, "geometry": { "type": "Point", "coordinates": [ 8.294846366354669, 50.946407287979142 ] } },
{ "type": "Feature", "properties": { "strassenschluessel": "05970000002823352", "bezeichnung": "Rosenweg" }, "geometry": { "type": "Point", "coordinates": [ 8.321956513614291, 50.93918719258216 ] } },
{ "type": "Feature", "properties": { "strassenschluessel": "05970000002823353", "bezeichnung": "Schlehenweg" }, "geometry": { "type": "Point", "coordinates": [ 8.320643535827179, 50.942660473436653 ] } },
{ "type": "Feature", "properties": { "strassenschluessel": "05970000002823355", "bezeichnung": "Schulweg" }, "geometry": { "type": "Point", "coordinates": [ 8.323658428141247, 50.942545312189182 ] } },
{ "type": "Feature", "properties": { "strassenschluessel": "05970000002823356", "bezeichnung": "Sieg-Lahn-Straße" }, "geometry": { "type": "Point", "coordinates": [ 8.32283594178411, 50.938998205382596 ] } },
{ "type": "Feature", "properties": { "strassenschluessel": "05970000002823358", "bezeichnung": "Untere Kohr" }, "geometry": { "type": "Point", "coordinates": [ 8.319746472153872, 50.938153350887532 ] } },
{ "type": "Feature", "properties": { "strassenschluessel": "05970000002823359", "bezeichnung": "Unterm Köpfchen" }, "geometry": { "type": "Point", "coordinates": [ 8.325420323220699, 50.937713462226057 ] } },
{ "type": "Feature", "properties": { "strassenschluessel": "05970000002823360", "bezeichnung": "Unterm Rain" }, "geometry": { "type": "Point", "coordinates": [ 8.328151590816617, 50.943035972953702 ] } },
{ "type": "Feature", "properties": { "strassenschluessel": "05970000002823361", "bezeichnung": "Weihergasse" }, "geometry": { "type": "Point", "coordinates": [ 8.325140201359346, 50.940186335253742 ] } },
{ "type": "Feature", "properties": { "strassenschluessel": "05970000002823362", "bezeichnung": "Wiesenweg" }, "geometry": { "type": "Point", "coordinates": [ 8.313682837092559, 50.936228418847968 ] } },
{ "type": "Feature", "properties": { "strassenschluessel": "05970000002823363", "bezeichnung": "Zum Boden" }, "geometry": { "type": "Point", "coordinates": [ 8.321541247307552, 50.935154492485431 ] } },
{ "type": "Feature", "properties": { "strassenschluessel": "05970000002823364", "bezeichnung": "Zum Eichholz" }, "geometry": { "type": "Point", "coordinates": [ 8.317819870271038, 50.93719385626661 ] } },
{ "type": "Feature", "properties": { "strassenschluessel": "05970000002823365", "bezeichnung": "Zum Hardtchen" }, "geometry": { "type": "Point", "coordinates": [ 8.318179756215203, 50.939456765352368 ] } },
{ "type": "Feature", "properties": { "strassenschluessel": "05970000002823366", "bezeichnung": "Zum Hermannsteg" }, "geometry": { "type": "Point", "coordinates": [ 8.323692668947743, 50.951001033034174 ] } },
{ "type": "Feature", "properties": { "strassenschluessel": "05970000002823367", "bezeichnung": "Zum Holschenrain" }, "geometry": { "type": "Point", "coordinates": [ 8.320068819414494, 50.943414522487309 ] } },
{ "type": "Feature", "properties": { "strassenschluessel": "05970000002823368", "bezeichnung": "Zum Trauberg" }, "geometry": { "type": "Point", "coordinates": [ 8.326038855859707, 50.945107402436562 ] } },
{ "type": "Feature", "properties": { "strassenschluessel": "05970000002823369", "bezeichnung": "Zur Ammelshelle" }, "geometry": { "type": "Point", "coordinates": [ 8.322918002370594, 50.945256552144777 ] } },
{ "type": "Feature", "properties": { "strassenschluessel": "05970000002823370", "bezeichnung": "Sankt-Michael-Weg" }, "geometry": { "type": "Point", "coordinates": [ 8.317167195442087, 50.942884360444239 ] } },
{ "type": "Feature", "properties": { "strassenschluessel": "05970000002823371", "bezeichnung": "Tannenwald" }, "geometry": { "type": "Point", "coordinates": [ 8.305304261052768, 50.943599316593463 ] } },
{ "type": "Feature", "properties": { "strassenschluessel": "05970000002823372", "bezeichnung": "Siegener Straße" }, "geometry": { "type": "Point", "coordinates": [ 8.292124954106182, 50.939094681289745 ] } },
{ "type": "Feature", "properties": { "strassenschluessel": "05970000002823373", "bezeichnung": "Zum Hainberg" }, "geometry": { "type": "Point", "coordinates": [ 8.325550460302843, 50.941780776359025 ] } },
{ "type": "Feature", "properties": { "strassenschluessel": "05970000002823374", "bezeichnung": "Zum Ilsetal" }, "geometry": { "type": "Point", "coordinates": [ 8.333958366817143, 50.938821821600776 ] } },
{ "type": "Feature", "properties": { "strassenschluessel": "05970000002823375", "bezeichnung": "Im Gründchen" }, "geometry": { "type": "Point", "coordinates": [ 8.316495760051808, 50.952623523952013 ] } },
{ "type": "Feature", "properties": { "strassenschluessel": "05970000002823376", "bezeichnung": "Auf dem Hainberg" }, "geometry": { "type": "Point", "coordinates": [ 8.32065464826899, 50.944865093633389 ] } },
{ "type": "Feature", "properties": { "strassenschluessel": "05970000002823377", "bezeichnung": "Obere Flurstraße" }, "geometry": { "type": "Point", "coordinates": [ 8.32163002548323, 50.944311587313955 ] } },
{ "type": "Feature", "properties": { "strassenschluessel": "05970000002823378", "bezeichnung": "Untere Flurstraße" }, "geometry": { "type": "Point", "coordinates": [ 8.321032199148597, 50.943744638585699 ] } },
{ "type": "Feature", "properties": { "strassenschluessel": "05970000002823379", "bezeichnung": "Umweg" }, "geometry": { "type": "Point", "coordinates": [ 8.322054177425333, 50.944492879446337 ] } },
{ "type": "Feature", "properties": { "strassenschluessel": "05970000002823380", "bezeichnung": "Untere Espen" }, "geometry": { "type": "Point", "coordinates": [ 8.296144025501372, 50.942463586542637 ] } },
{ "type": "Feature", "properties": { "strassenschluessel": "05970000002823400", "bezeichnung": "Alte Eisenstraße" }, "geometry": { "type": "Point", "coordinates": [ 8.352663676136556, 50.873973976719228 ] } },
{ "type": "Feature", "properties": { "strassenschluessel": "05970000002823401", "bezeichnung": "Am Bohnstein" }, "geometry": { "type": "Point", "coordinates": [ 8.350536599080785, 50.8772137631966 ] } },
{ "type": "Feature", "properties": { "strassenschluessel": "05970000002823402", "bezeichnung": "Am Brandweiher" }, "geometry": { "type": "Point", "coordinates": [ 8.354152374117641, 50.872452285111947 ] } },
{ "type": "Feature", "properties": { "strassenschluessel": "05970000002823403", "bezeichnung": "Am Meisekippel" }, "geometry": { "type": "Point", "coordinates": [ 8.351512688199254, 50.875215160562448 ] } },
{ "type": "Feature", "properties": { "strassenschluessel": "05970000002823404", "bezeichnung": "An der Eichert" }, "geometry": { "type": "Point", "coordinates": [ 8.352608322740737, 50.873449316837203 ] } },
{ "type": "Feature", "properties": { "strassenschluessel": "05970000002823405", "bezeichnung": "An der Hager" }, "geometry": { "type": "Point", "coordinates": [ 8.35586237851965, 50.873602517424494 ] } },
{ "type": "Feature", "properties": { "strassenschluessel": "05970000002823406", "bezeichnung": "An der Schmiede" }, "geometry": { "type": "Point", "coordinates": [ 8.356000996360827, 50.871598613503522 ] } },
{ "type": "Feature", "properties": { "strassenschluessel": "05970000002823407", "bezeichnung": "Fischelbacher Straße" }, "geometry": { "type": "Point", "coordinates": [ 8.349893406267443, 50.875557790071682 ] } },
{ "type": "Feature", "properties": { "strassenschluessel": "05970000002823408", "bezeichnung": "Grubenstraße" }, "geometry": { "type": "Point", "coordinates": [ 8.352664163074092, 50.877037245032966 ] } },
{ "type": "Feature", "properties": { "strassenschluessel": "05970000002823409", "bezeichnung": "Im Baumhof" }, "geometry": { "type": "Point", "coordinates": [ 8.35126936623276, 50.873124949161223 ] } },
{ "type": "Feature", "properties": { "strassenschluessel": "05970000002823410", "bezeichnung": "Im Bodengarten" }, "geometry": { "type": "Point", "coordinates": [ 8.357522369809553, 50.874921963475977 ] } },
{ "type": "Feature", "properties": { "strassenschluessel": "05970000002823411", "bezeichnung": "Im Flachsgarten" }, "geometry": { "type": "Point", "coordinates": [ 8.349421063707533, 50.875166021501308 ] } },
{ "type": "Feature", "properties": { "strassenschluessel": "05970000002823412", "bezeichnung": "Im Holzbach" }, "geometry": { "type": "Point", "coordinates": [ 8.345934161966733, 50.877841833090606 ] } },
{ "type": "Feature", "properties": { "strassenschluessel": "05970000002823413", "bezeichnung": "Lutherstraße" }, "geometry": { "type": "Point", "coordinates": [ 8.355016579434224, 50.873850400986598 ] } },
{ "type": "Feature", "properties": { "strassenschluessel": "05970000002823414", "bezeichnung": "Obere Mühlhelle" }, "geometry": { "type": "Point", "coordinates": [ 8.35433413215503, 50.878534866440276 ] } },
{ "type": "Feature", "properties": { "strassenschluessel": "05970000002823415", "bezeichnung": "Oranienstraße" }, "geometry": { "type": "Point", "coordinates": [ 8.346777496797248, 50.875639720046664 ] } },
{ "type": "Feature", "properties": { "strassenschluessel": "05970000002823416", "bezeichnung": "Ortsstraße" }, "geometry": { "type": "Point", "coordinates": [ 8.350269483503977, 50.874736592199959 ] } },
{ "type": "Feature", "properties": { "strassenschluessel": "05970000002823417", "bezeichnung": "Schützenstraße" }, "geometry": { "type": "Point", "coordinates": [ 8.359070320018313, 50.874021021638242 ] } },
{ "type": "Feature", "properties": { "strassenschluessel": "05970000002823418", "bezeichnung": "Sohl" }, "geometry": { "type": "Point", "coordinates": [ 8.296939510922336, 50.871605839600463 ] } },
{ "type": "Feature", "properties": { "strassenschluessel": "05970000002823419", "bezeichnung": "Sohler Weg" }, "geometry": { "type": "Point", "coordinates": [ 8.353731204269693, 50.872995826720462 ] } },
{ "type": "Feature", "properties": { "strassenschluessel": "05970000002823420", "bezeichnung": "Untere Mühlhelle" }, "geometry": { "type": "Point", "coordinates": [ 8.353310866927485, 50.877769264950835 ] } },
{ "type": "Feature", "properties": { "strassenschluessel": "05970000002823421", "bezeichnung": "Zum Sassenborn" }, "geometry": { "type": "Point", "coordinates": [ 8.353247490953995, 50.872877841685899 ] } },
{ "type": "Feature", "properties": { "strassenschluessel": "05970000002823422", "bezeichnung": "Alte Fischelbacher Straße" }, "geometry": { "type": "Point", "coordinates": [ 8.354564064094692, 50.873257107905395 ] } },
{ "type": "Feature", "properties": { "strassenschluessel": "05970000002823450", "bezeichnung": "Am Jägershain" }, "geometry": { "type": "Point", "coordinates": [ 8.258964331801474, 50.914946955955237 ] } },
{ "type": "Feature", "properties": { "strassenschluessel": "05970000002823451", "bezeichnung": "Auf der Höh" }, "geometry": { "type": "Point", "coordinates": [ 8.254791838299321, 50.921595876780366 ] } },
{ "type": "Feature", "properties": { "strassenschluessel": "05970000002823452", "bezeichnung": "Großenbacher Straße" }, "geometry": { "type": "Point", "coordinates": [ 8.255019688443687, 50.918435973123216 ] } },
{ "type": "Feature", "properties": { "strassenschluessel": "05970000002823453", "bezeichnung": "Irleweg" }, "geometry": { "type": "Point", "coordinates": [ 8.255274893133111, 50.919384531970657 ] } },
{ "type": "Feature", "properties": { "strassenschluessel": "05970000002823469", "bezeichnung": "Heiligenborn" }, "geometry": { "type": "Point", "coordinates": [ 8.278478092810014, 50.888545960504366 ] } },
{ "type": "Feature", "properties": { "strassenschluessel": "05970000002823470", "bezeichnung": "Am Mühlhof" }, "geometry": { "type": "Point", "coordinates": [ 8.359650228062845, 50.922478429330617 ] } },
{ "type": "Feature", "properties": { "strassenschluessel": "05970000002823471", "bezeichnung": "Banfetalstraße" }, "geometry": { "type": "Point", "coordinates": [ 8.360429543359936, 50.921844773839076 ] } },
{ "type": "Feature", "properties": { "strassenschluessel": "05970000002823472", "bezeichnung": "Bergseite" }, "geometry": { "type": "Point", "coordinates": [ 8.359507513929097, 50.924406560973566 ] } },
{ "type": "Feature", "properties": { "strassenschluessel": "05970000002823473", "bezeichnung": "Breidenbachweg" }, "geometry": { "type": "Point", "coordinates": [ 8.360814966993285, 50.924233906546284 ] } },
{ "type": "Feature", "properties": { "strassenschluessel": "05970000002823474", "bezeichnung": "Dorbach" }, "geometry": { "type": "Point", "coordinates": [ 8.356286107382738, 50.92395188975425 ] } },
{ "type": "Feature", "properties": { "strassenschluessel": "05970000002823475", "bezeichnung": "Herbertshäuser Straße" }, "geometry": { "type": "Point", "coordinates": [ 8.357834962910903, 50.923119147657737 ] } },
{ "type": "Feature", "properties": { "strassenschluessel": "05970000002823476", "bezeichnung": "Hof Breitenbach" }, "geometry": { "type": "Point", "coordinates": [ 8.352157291565794, 50.934295952901856 ] } },
{ "type": "Feature", "properties": { "strassenschluessel": "05970000002823477", "bezeichnung": "Grimmelshof" }, "geometry": { "type": "Point", "coordinates": [ 8.362461445064113, 50.923551735292172 ] } },
{ "type": "Feature", "properties": { "strassenschluessel": "05970000002823478", "bezeichnung": "Imweg" }, "geometry": { "type": "Point", "coordinates": [ 8.356697564528499, 50.922947456623234 ] } },
{ "type": "Feature", "properties": { "strassenschluessel": "05970000002823479", "bezeichnung": "Oberer Krautgarten" }, "geometry": { "type": "Point", "coordinates": [ 8.364366437271849, 50.924078609290092 ] } },
{ "type": "Feature", "properties": { "strassenschluessel": "05970000002823480", "bezeichnung": "Rauschet" }, "geometry": { "type": "Point", "coordinates": [ 8.355520926256789, 50.923533256812462 ] } },
{ "type": "Feature", "properties": { "strassenschluessel": "05970000002823481", "bezeichnung": "Seifenackerstraße" }, "geometry": { "type": "Point", "coordinates": [ 8.35619325573313, 50.927138168099916 ] } },
{ "type": "Feature", "properties": { "strassenschluessel": "05970000002823482", "bezeichnung": "Unterer Krautgarten" }, "geometry": { "type": "Point", "coordinates": [ 8.36129774371526, 50.923271726968871 ] } },
{ "type": "Feature", "properties": { "strassenschluessel": "05970000002823483", "bezeichnung": "Zeiweg" }, "geometry": { "type": "Point", "coordinates": [ 8.357515061601147, 50.923719460473812 ] } },
{ "type": "Feature", "properties": { "strassenschluessel": "05970000002823490", "bezeichnung": "Am Halberg" }, "geometry": { "type": "Point", "coordinates": [ 8.370102614487026, 50.883459882805433 ] } },
{ "type": "Feature", "properties": { "strassenschluessel": "05970000002823491", "bezeichnung": "Am Perchacker" }, "geometry": { "type": "Point", "coordinates": [ 8.370034320826436, 50.885955058212318 ] } },
{ "type": "Feature", "properties": { "strassenschluessel": "05970000002823492", "bezeichnung": "Am Stollborn" }, "geometry": { "type": "Point", "coordinates": [ 8.368196124573521, 50.8856511496408 ] } },
{ "type": "Feature", "properties": { "strassenschluessel": "05970000002823493", "bezeichnung": "Erlenweg" }, "geometry": { "type": "Point", "coordinates": [ 8.36232267599201, 50.886279697591632 ] } },
{ "type": "Feature", "properties": { "strassenschluessel": "05970000002823494", "bezeichnung": "Hesselbacher Mühle" }, "geometry": null },
{ "type": "Feature", "properties": { "strassenschluessel": "05970000002823495", "bezeichnung": "Hesselbacher Straße" }, "geometry": { "type": "Point", "coordinates": [ 8.377101124002111, 50.88260825714471 ] } },
{ "type": "Feature", "properties": { "strassenschluessel": "05970000002823496", "bezeichnung": "Hinterm Eisenstein" }, "geometry": { "type": "Point", "coordinates": [ 8.362014106660096, 50.886815519601136 ] } },
{ "type": "Feature", "properties": { "strassenschluessel": "05970000002823497", "bezeichnung": "Hofäcker" }, "geometry": { "type": "Point", "coordinates": [ 8.372197478804893, 50.885132279965163 ] } },
{ "type": "Feature", "properties": { "strassenschluessel": "05970000002823498", "bezeichnung": "Holderweg" }, "geometry": { "type": "Point", "coordinates": [ 8.368336802975469, 50.885098737536168 ] } },
{ "type": "Feature", "properties": { "strassenschluessel": "05970000002823499", "bezeichnung": "Im Eichhof" }, "geometry": { "type": "Point", "coordinates": [ 8.365716012310971, 50.886288445409896 ] } },
{ "type": "Feature", "properties": { "strassenschluessel": "05970000002823500", "bezeichnung": "Im Langen Door" }, "geometry": { "type": "Point", "coordinates": [ 8.364143354706085, 50.886866885049464 ] } },
{ "type": "Feature", "properties": { "strassenschluessel": "05970000002823501", "bezeichnung": "Inselweg" }, "geometry": { "type": "Point", "coordinates": [ 8.367436795162071, 50.88587269351035 ] } },
{ "type": "Feature", "properties": { "strassenschluessel": "05970000002823502", "bezeichnung": "Kleine Aue" }, "geometry": { "type": "Point", "coordinates": [ 8.367185915887516, 50.886947257858417 ] } },
{ "type": "Feature", "properties": { "strassenschluessel": "05970000002823503", "bezeichnung": "Kreuzstraße" }, "geometry": { "type": "Point", "coordinates": [ 8.364019865171223, 50.887092578796363 ] } },
{ "type": "Feature", "properties": { "strassenschluessel": "05970000002823504", "bezeichnung": "Römerseifen" }, "geometry": { "type": "Point", "coordinates": [ 8.357395462627093, 50.886542857733936 ] } },
{ "type": "Feature", "properties": { "strassenschluessel": "05970000002823505", "bezeichnung": "Zum Ebsch" }, "geometry": { "type": "Point", "coordinates": [ 8.357482871384317, 50.887314560549541 ] } },
{ "type": "Feature", "properties": { "strassenschluessel": "05970000002823506", "bezeichnung": "Zum Spreit" }, "geometry": { "type": "Point", "coordinates": [ 8.36908861371907, 50.885434709073436 ] } },
{ "type": "Feature", "properties": { "strassenschluessel": "05970000002823507", "bezeichnung": "Forsthaus Ditzrod" }, "geometry": { "type": "Point", "coordinates": [ 8.386395488690907, 50.899046417817949 ] } },
{ "type": "Feature", "properties": { "strassenschluessel": "05970000002823508", "bezeichnung": "Erlenwiese" }, "geometry": { "type": "Point", "coordinates": [ 8.376744767650814, 50.883250886254054 ] } },
{ "type": "Feature", "properties": { "strassenschluessel": "05970000002823509", "bezeichnung": "Lückewiese" }, "geometry": { "type": "Point", "coordinates": [ 8.368474199841865, 50.884212567034972 ] } },
{ "type": "Feature", "properties": { "strassenschluessel": "05970000002823510", "bezeichnung": "In den Baumwiesen" }, "geometry": { "type": "Point", "coordinates": [ 8.371675020560188, 50.885733298711365 ] } },
{ "type": "Feature", "properties": { "strassenschluessel": "05970000002823530", "bezeichnung": "Holzhausen" }, "geometry": { "type": "Point", "coordinates": [ 8.345852414178278, 50.963386064353166 ] } },
{ "type": "Feature", "properties": { "strassenschluessel": "05970000002823545", "bezeichnung": "Friedrichshammer" }, "geometry": { "type": "Point", "coordinates": [ 8.382501258454168, 50.932791265791586 ] } },
{ "type": "Feature", "properties": { "strassenschluessel": "05970000002823546", "bezeichnung": "Friedrichshütte" }, "geometry": { "type": "Point", "coordinates": [ 8.399483313571462, 50.9220726565079 ] } },
{ "type": "Feature", "properties": { "strassenschluessel": "05970000002823547", "bezeichnung": "Kunster Weg" }, "geometry": { "type": "Point", "coordinates": [ 8.400301893044817, 50.921596858953286 ] } },
{ "type": "Feature", "properties": { "strassenschluessel": "05970000002823548", "bezeichnung": "Lindenstraße" }, "geometry": { "type": "Point", "coordinates": [ 8.399909788150097, 50.922609826009463 ] } },
{ "type": "Feature", "properties": { "strassenschluessel": "05970000002823549", "bezeichnung": "Wittgensteiner Straße" }, "geometry": { "type": "Point", "coordinates": [ 8.38990979885439, 50.930776945642243 ] } },
{ "type": "Feature", "properties": { "strassenschluessel": "05970000002823550", "bezeichnung": "Am Bahnhof" }, "geometry": null },
{ "type": "Feature", "properties": { "strassenschluessel": "05970000002823551", "bezeichnung": "Am Entenberg" }, "geometry": { "type": "Point", "coordinates": [ 8.438184635313521, 50.921855191873185 ] } },
{ "type": "Feature", "properties": { "strassenschluessel": "05970000002823552", "bezeichnung": "Auf dem Steidchen" }, "geometry": { "type": "Point", "coordinates": [ 8.446251852784627, 50.923148120305903 ] } },
{ "type": "Feature", "properties": { "strassenschluessel": "05970000002823553", "bezeichnung": "Auweg" }, "geometry": { "type": "Point", "coordinates": [ 8.450831932779598, 50.9187029918821 ] } },
{ "type": "Feature", "properties": { "strassenschluessel": "05970000002823554", "bezeichnung": "Bornstraße" }, "geometry": { "type": "Point", "coordinates": [ 8.446112339201193, 50.922918873038313 ] } },
{ "type": "Feature", "properties": { "strassenschluessel": "05970000002823555", "bezeichnung": "Brückenplatz" }, "geometry": { "type": "Point", "coordinates": [ 8.443981433910613, 50.926052100343391 ] } },
{ "type": "Feature", "properties": { "strassenschluessel": "05970000002823556", "bezeichnung": "Entenbergstraße" }, "geometry": { "type": "Point", "coordinates": [ 8.443409948053272, 50.924149336534853 ] } },
{ "type": "Feature", "properties": { "strassenschluessel": "05970000002823557", "bezeichnung": "Falkenweg" }, "geometry": { "type": "Point", "coordinates": [ 8.439069765622053, 50.927648150238525 ] } },
{ "type": "Feature", "properties": { "strassenschluessel": "05970000002823558", "bezeichnung": "Friedhofstraße" }, "geometry": { "type": "Point", "coordinates": [ 8.443373808479896, 50.927427004103663 ] } },
{ "type": "Feature", "properties": { "strassenschluessel": "05970000002823559", "bezeichnung": "Grenzweg" }, "geometry": { "type": "Point", "coordinates": [ 8.458714645203681, 50.920440914003713 ] } },
{ "type": "Feature", "properties": { "strassenschluessel": "05970000002823560", "bezeichnung": "Großer Hof" }, "geometry": { "type": "Point", "coordinates": [ 8.444971295763771, 50.926946637166687 ] } },
{ "type": "Feature", "properties": { "strassenschluessel": "05970000002823561", "bezeichnung": "Haardtstraße" }, "geometry": { "type": "Point", "coordinates": [ 8.44482901302014, 50.923900051699313 ] } },
{ "type": "Feature", "properties": { "strassenschluessel": "05970000002823562", "bezeichnung": "Hainweg" }, "geometry": { "type": "Point", "coordinates": [ 8.445911056405722, 50.925688399135218 ] } },
{ "type": "Feature", "properties": { "strassenschluessel": "05970000002823563", "bezeichnung": "Hasselbergstraße" }, "geometry": { "type": "Point", "coordinates": [ 8.444960951931842, 50.925820225288525 ] } },
{ "type": "Feature", "properties": { "strassenschluessel": "05970000002823564", "bezeichnung": "Hauptstraße" }, "geometry": { "type": "Point", "coordinates": [ 8.443182279665855, 50.924936335712452 ] } },
{ "type": "Feature", "properties": { "strassenschluessel": "05970000002823565", "bezeichnung": "Heidebergstraße" }, "geometry": { "type": "Point", "coordinates": [ 8.443539214797038, 50.926935064436243 ] } },
{ "type": "Feature", "properties": { "strassenschluessel": "05970000002823566", "bezeichnung": "Hinter der Hardt" }, "geometry": { "type": "Point", "coordinates": [ 8.455805737831943, 50.92469351351675 ] } },
{ "type": "Feature", "properties": { "strassenschluessel": "05970000002823567", "bezeichnung": "Backhausweg" }, "geometry": { "type": "Point", "coordinates": [ 8.442851944877862, 50.926586872298522 ] } },
{ "type": "Feature", "properties": { "strassenschluessel": "05970000002823568", "bezeichnung": "Felsenweg" }, "geometry": { "type": "Point", "coordinates": [ 8.442311639871622, 50.925079589229711 ] } },
{ "type": "Feature", "properties": { "strassenschluessel": "05970000002823569", "bezeichnung": "Jahnstraße" }, "geometry": { "type": "Point", "coordinates": [ 8.442466768857415, 50.92518820647971 ] } },
{ "type": "Feature", "properties": { "strassenschluessel": "05970000002823570", "bezeichnung": "Kirchstraße" }, "geometry": { "type": "Point", "coordinates": [ 8.444414207725428, 50.925205743785483 ] } },
{ "type": "Feature", "properties": { "strassenschluessel": "05970000002823571", "bezeichnung": "Langgasse" }, "geometry": { "type": "Point", "coordinates": [ 8.444717821132748, 50.924127110351371 ] } },
{ "type": "Feature", "properties": { "strassenschluessel": "05970000002823572", "bezeichnung": "Starenweg" }, "geometry": { "type": "Point", "coordinates": [ 8.44620839373585, 50.924603644124076 ] } },
{ "type": "Feature", "properties": { "strassenschluessel": "05970000002823573", "bezeichnung": "Marburger Straße" }, "geometry": { "type": "Point", "coordinates": [ 8.45520893655077, 50.920042968780358 ] } },
{ "type": "Feature", "properties": { "strassenschluessel": "05970000002823574", "bezeichnung": "Mittelstraße" }, "geometry": { "type": "Point", "coordinates": [ 8.43714908997371, 50.930092611186431 ] } },
{ "type": "Feature", "properties": { "strassenschluessel": "05970000002823575", "bezeichnung": "Rainstraße" }, "geometry": { "type": "Point", "coordinates": [ 8.439710271999514, 50.929386357470932 ] } },
{ "type": "Feature", "properties": { "strassenschluessel": "05970000002823576", "bezeichnung": "Ringstraße" }, "geometry": { "type": "Point", "coordinates": [ 8.437214367865971, 50.929142937195458 ] } },
{ "type": "Feature", "properties": { "strassenschluessel": "05970000002823577", "bezeichnung": "Roßbergstraße" }, "geometry": { "type": "Point", "coordinates": [ 8.455602956179288, 50.920641058883938 ] } },
{ "type": "Feature", "properties": { "strassenschluessel": "05970000002823578", "bezeichnung": "Unterm Katzenstein" }, "geometry": { "type": "Point", "coordinates": [ 8.442379231549895, 50.927466521031562 ] } },
{ "type": "Feature", "properties": { "strassenschluessel": "05970000002823579", "bezeichnung": "Schlesierweg" }, "geometry": { "type": "Point", "coordinates": [ 8.443328766299986, 50.929060861559556 ] } },
{ "type": "Feature", "properties": { "strassenschluessel": "05970000002823580", "bezeichnung": "Schwalbenweg" }, "geometry": { "type": "Point", "coordinates": [ 8.440114863793267, 50.926640138055497 ] } },
{ "type": "Feature", "properties": { "strassenschluessel": "05970000002823581", "bezeichnung": "Talweg" }, "geometry": { "type": "Point", "coordinates": [ 8.454875731557308, 50.919050408281265 ] } },
{ "type": "Feature", "properties": { "strassenschluessel": "05970000002823582", "bezeichnung": "Taubenweg" }, "geometry": { "type": "Point", "coordinates": [ 8.43936534170906, 50.926979928231226 ] } },
{ "type": "Feature", "properties": { "strassenschluessel": "05970000002823583", "bezeichnung": "Wallauer Straße" }, "geometry": { "type": "Point", "coordinates": [ 8.456808045319862, 50.92090130854757 ] } },
{ "type": "Feature", "properties": { "strassenschluessel": "05970000002823584", "bezeichnung": "Weststraße" }, "geometry": { "type": "Point", "coordinates": [ 8.438079421547664, 50.927939140747732 ] } },
{ "type": "Feature", "properties": { "strassenschluessel": "05970000002823585", "bezeichnung": "Finkenweg" }, "geometry": { "type": "Point", "coordinates": [ 8.436226142501418, 50.929729449238408 ] } },
{ "type": "Feature", "properties": { "strassenschluessel": "05970000002823586", "bezeichnung": "Oststraße" }, "geometry": { "type": "Point", "coordinates": [ 8.43986940938691, 50.929064759678575 ] } },
{ "type": "Feature", "properties": { "strassenschluessel": "05970000002823587", "bezeichnung": "Bachweg" }, "geometry": { "type": "Point", "coordinates": [ 8.435174181539779, 50.929798051922809 ] } },
{ "type": "Feature", "properties": { "strassenschluessel": "05970000002823588", "bezeichnung": "Birkenstraße" }, "geometry": { "type": "Point", "coordinates": [ 8.442275563732684, 50.926514085659491 ] } },
{ "type": "Feature", "properties": { "strassenschluessel": "05970000002823589", "bezeichnung": "Alte Landstraße" }, "geometry": { "type": "Point", "coordinates": [ 8.439463888147726, 50.926823946302029 ] } },
{ "type": "Feature", "properties": { "strassenschluessel": "05970000002823590", "bezeichnung": "Amalienhütte" }, "geometry": { "type": "Point", "coordinates": [ 8.451776481661467, 50.919867984544581 ] } },
{ "type": "Feature", "properties": { "strassenschluessel": "05970000002823620", "bezeichnung": "Am Aberg" }, "geometry": { "type": "Point", "coordinates": [ 8.294420986009651, 50.958763495064247 ] } },
{ "type": "Feature", "properties": { "strassenschluessel": "05970000002823621", "bezeichnung": "Am Alten Rain" }, "geometry": { "type": "Point", "coordinates": [ 8.298153878248469, 50.959548342269898 ] } },
{ "type": "Feature", "properties": { "strassenschluessel": "05970000002823622", "bezeichnung": "Erndtebrücker Straße" }, "geometry": { "type": "Point", "coordinates": [ 8.298459565683137, 50.959068682525768 ] } },
{ "type": "Feature", "properties": { "strassenschluessel": "05970000002823623", "bezeichnung": "Langenbach" }, "geometry": { "type": "Point", "coordinates": [ 8.299657326129003, 50.957226404369678 ] } },
{ "type": "Feature", "properties": { "strassenschluessel": "05970000002823624", "bezeichnung": "Laubach" }, "geometry": { "type": "Point", "coordinates": [ 8.30175351038284, 50.952264773612434 ] } },
{ "type": "Feature", "properties": { "strassenschluessel": "05970000002823625", "bezeichnung": "Oberndorfer Straße" }, "geometry": { "type": "Point", "coordinates": [ 8.300586796526725, 50.957321712219681 ] } },
{ "type": "Feature", "properties": { "strassenschluessel": "05970000002823626", "bezeichnung": "Siegener Straße" }, "geometry": { "type": "Point", "coordinates": [ 8.301297270829624, 50.955247525588824 ] } },
{ "type": "Feature", "properties": { "strassenschluessel": "05970000002823627", "bezeichnung": "Zum Hollernstrauch" }, "geometry": { "type": "Point", "coordinates": [ 8.299560329569552, 50.958569674338314 ] } },
{ "type": "Feature", "properties": { "strassenschluessel": "05970000002823628", "bezeichnung": "Zur Grundwiese" }, "geometry": { "type": "Point", "coordinates": [ 8.279622469960438, 50.95908355035219 ] } },
{ "type": "Feature", "properties": { "strassenschluessel": "05970000002823629", "bezeichnung": "Schmaler Weg" }, "geometry": { "type": "Point", "coordinates": [ 8.303087009458828, 50.955000892363927 ] } },
{ "type": "Feature", "properties": { "strassenschluessel": "05970000002823650", "bezeichnung": "Am Pfaffenhof" }, "geometry": { "type": "Point", "coordinates": [ 8.444121598396766, 50.949844061589218 ] } },
{ "type": "Feature", "properties": { "strassenschluessel": "05970000002823651", "bezeichnung": "Berliner Straße" }, "geometry": { "type": "Point", "coordinates": [ 8.44417723377577, 50.947654827929512 ] } },
{ "type": "Feature", "properties": { "strassenschluessel": "05970000002823652", "bezeichnung": "Am Naßacker" }, "geometry": { "type": "Point", "coordinates": [ 8.441916226594055, 50.946764247736787 ] } },
{ "type": "Feature", "properties": { "strassenschluessel": "05970000002823653", "bezeichnung": "Eschenstraße" }, "geometry": { "type": "Point", "coordinates": [ 8.444089405021968, 50.950218093127212 ] } },
{ "type": "Feature", "properties": { "strassenschluessel": "05970000002823654", "bezeichnung": "Friedrich-Kiel-Straße" }, "geometry": { "type": "Point", "coordinates": [ 8.444548413296765, 50.950653372697083 ] } },
{ "type": "Feature", "properties": { "strassenschluessel": "05970000002823655", "bezeichnung": "Kirschwiesenweg" }, "geometry": { "type": "Point", "coordinates": [ 8.441526242089857, 50.951177666068396 ] } },
{ "type": "Feature", "properties": { "strassenschluessel": "05970000002823656", "bezeichnung": "Königsberger Straße" }, "geometry": { "type": "Point", "coordinates": [ 8.44299267627299, 50.94761505725095 ] } },
{ "type": "Feature", "properties": { "strassenschluessel": "05970000002823657", "bezeichnung": "Lahn-Eder-Straße" }, "geometry": { "type": "Point", "coordinates": [ 8.441894923550912, 50.944950746739671 ] } },
{ "type": "Feature", "properties": { "strassenschluessel": "05970000002823658", "bezeichnung": "Lohweg" }, "geometry": { "type": "Point", "coordinates": [ 8.44101135175959, 50.953627492746215 ] } },
{ "type": "Feature", "properties": { "strassenschluessel": "05970000002823659", "bezeichnung": "Rosenstraße" }, "geometry": { "type": "Point", "coordinates": [ 8.443673031354439, 50.950667371393166 ] } },
{ "type": "Feature", "properties": { "strassenschluessel": "05970000002823660", "bezeichnung": "Schorrweg" }, "geometry": { "type": "Point", "coordinates": [ 8.440818825247854, 50.944143857485422 ] } },
{ "type": "Feature", "properties": { "strassenschluessel": "05970000002823661", "bezeichnung": "Vor der Höhstadt" }, "geometry": { "type": "Point", "coordinates": [ 8.446847633452014, 50.949215458816312 ] } },
{ "type": "Feature", "properties": { "strassenschluessel": "05970000002823662", "bezeichnung": "Vor der Richtel" }, "geometry": { "type": "Point", "coordinates": [ 8.443947704101069, 50.94471237672623 ] } },
{ "type": "Feature", "properties": { "strassenschluessel": "05970000002823663", "bezeichnung": "Am Schwimmel" }, "geometry": { "type": "Point", "coordinates": [ 8.441249405987421, 50.946191436651219 ] } },
{ "type": "Feature", "properties": { "strassenschluessel": "05970000002823680", "bezeichnung": "Eichwaldstraße" }, "geometry": { "type": "Point", "coordinates": [ 8.296676908739823, 50.95131398924579 ] } },
{ "type": "Feature", "properties": { "strassenschluessel": "05970000002823681", "bezeichnung": "Im Boden" }, "geometry": { "type": "Point", "coordinates": [ 8.299189201033128, 50.950617965532857 ] } },
{ "type": "Feature", "properties": { "strassenschluessel": "05970000002823682", "bezeichnung": "In den Höfen" }, "geometry": { "type": "Point", "coordinates": [ 8.290780124368512, 50.952477094629067 ] } },
{ "type": "Feature", "properties": { "strassenschluessel": "05970000002823683", "bezeichnung": "Rückershäuser Straße" }, "geometry": { "type": "Point", "coordinates": [ 8.297769306906451, 50.951221265068249 ] } },
{ "type": "Feature", "properties": { "strassenschluessel": "05970000002823684", "bezeichnung": "Siegener Straße" }, "geometry": { "type": "Point", "coordinates": [ 8.300156875691489, 50.951243285180261 ] } },
{ "type": "Feature", "properties": { "strassenschluessel": "05970000002823685", "bezeichnung": "Hinterm Hainberg" }, "geometry": { "type": "Point", "coordinates": [ 8.302873559376104, 50.949259625035616 ] } },
{ "type": "Feature", "properties": { "strassenschluessel": "05970000002823686", "bezeichnung": "Obere Weide" }, "geometry": { "type": "Point", "coordinates": [ 8.284970261174886, 50.948478712612726 ] } },
{ "type": "Feature", "properties": { "strassenschluessel": "05970000002823700", "bezeichnung": "Am Hesselberg" }, "geometry": { "type": "Point", "coordinates": [ 8.312390765678128, 50.958671435436912 ] } },
{ "type": "Feature", "properties": { "strassenschluessel": "05970000002823701", "bezeichnung": "Rüppershäuser Straße" }, "geometry": { "type": "Point", "coordinates": [ 8.305800829757674, 50.962283290616639 ] } },
{ "type": "Feature", "properties": { "strassenschluessel": "05970000002823702", "bezeichnung": "Schwarzackerstraße" }, "geometry": { "type": "Point", "coordinates": [ 8.304295087198174, 50.963400135988167 ] } },
{ "type": "Feature", "properties": { "strassenschluessel": "05970000002823703", "bezeichnung": "Sternstraße" }, "geometry": { "type": "Point", "coordinates": [ 8.308169133454605, 50.960581320494128 ] } },
{ "type": "Feature", "properties": { "strassenschluessel": "05970000002823704", "bezeichnung": "Zum Dille" }, "geometry": { "type": "Point", "coordinates": [ 8.308678996142351, 50.958454401039873 ] } },
{ "type": "Feature", "properties": { "strassenschluessel": "05970000002823720", "bezeichnung": "Burgfeld" }, "geometry": { "type": "Point", "coordinates": [ 8.364404774848154, 50.949907637822307 ] } },
{ "type": "Feature", "properties": { "strassenschluessel": "05970000002823721", "bezeichnung": "Dornhof" }, "geometry": { "type": "Point", "coordinates": [ 8.359258987262784, 50.950746226978026 ] } },
{ "type": "Feature", "properties": { "strassenschluessel": "05970000002823722", "bezeichnung": "Enderbach" }, "geometry": { "type": "Point", "coordinates": [ 8.369714037569555, 50.951663168957886 ] } },
{ "type": "Feature", "properties": { "strassenschluessel": "05970000002823723", "bezeichnung": "Goldkaute" }, "geometry": { "type": "Point", "coordinates": [ 8.371658467562357, 50.950773208402772 ] } },
{ "type": "Feature", "properties": { "strassenschluessel": "05970000002823724", "bezeichnung": "Hopfengarten" }, "geometry": { "type": "Point", "coordinates": [ 8.369853227338078, 50.949535512566776 ] } },
{ "type": "Feature", "properties": { "strassenschluessel": "05970000002823725", "bezeichnung": "Kisselsdell" }, "geometry": { "type": "Point", "coordinates": [ 8.371877990167954, 50.949909310627675 ] } },
{ "type": "Feature", "properties": { "strassenschluessel": "05970000002823730", "bezeichnung": "Am Kalmerich" }, "geometry": { "type": "Point", "coordinates": [ 8.322158596226284, 50.962348548487341 ] } },
{ "type": "Feature", "properties": { "strassenschluessel": "05970000002823731", "bezeichnung": "Hünenweg" }, "geometry": { "type": "Point", "coordinates": [ 8.323636090990789, 50.960980827598732 ] } },
{ "type": "Feature", "properties": { "strassenschluessel": "05970000002823732", "bezeichnung": "Steinbacher Weg" }, "geometry": { "type": "Point", "coordinates": [ 8.321347810476837, 50.961333727590905 ] } },
{ "type": "Feature", "properties": { "strassenschluessel": "05970000002823733", "bezeichnung": "Zum Grund" }, "geometry": { "type": "Point", "coordinates": [ 8.321417364990092, 50.962540366026609 ] } },
{ "type": "Feature", "properties": { "strassenschluessel": "05970000002823740", "bezeichnung": "An der Winterseite" }, "geometry": { "type": "Point", "coordinates": [ 8.270782284006728, 50.930067866144618 ] } },
{ "type": "Feature", "properties": { "strassenschluessel": "05970000002823741", "bezeichnung": "Augustenhofweg" }, "geometry": { "type": "Point", "coordinates": [ 8.275174320449306, 50.935358308695825 ] } },
{ "type": "Feature", "properties": { "strassenschluessel": "05970000002823742", "bezeichnung": "Riedhecke" }, "geometry": { "type": "Point", "coordinates": [ 8.288340547829065, 50.939009459703534 ] } },
{ "type": "Feature", "properties": { "strassenschluessel": "05970000002823743", "bezeichnung": "Glashütter Straße" }, "geometry": { "type": "Point", "coordinates": [ 8.282253221523449, 50.928361698222567 ] } },
{ "type": "Feature", "properties": { "strassenschluessel": "05970000002823744", "bezeichnung": "Heckenweg" }, "geometry": { "type": "Point", "coordinates": [ 8.280655792391521, 50.926774583836732 ] } },
{ "type": "Feature", "properties": { "strassenschluessel": "05970000002823745", "bezeichnung": "Lahnhofweg" }, "geometry": { "type": "Point", "coordinates": [ 8.28137190941832, 50.926268609176311 ] } },
{ "type": "Feature", "properties": { "strassenschluessel": "05970000002823746", "bezeichnung": "Mittelweg" }, "geometry": { "type": "Point", "coordinates": [ 8.280278785737393, 50.927815249774859 ] } },
{ "type": "Feature", "properties": { "strassenschluessel": "05970000002823747", "bezeichnung": "Tobach" }, "geometry": { "type": "Point", "coordinates": [ 8.285999938454058, 50.934453073885159 ] } },
{ "type": "Feature", "properties": { "strassenschluessel": "05970000002823748", "bezeichnung": "Volkholzer Straße" }, "geometry": { "type": "Point", "coordinates": [ 8.287529717610608, 50.934787010409167 ] } },
{ "type": "Feature", "properties": { "strassenschluessel": "05970000002823749", "bezeichnung": "Kiefernweg" }, "geometry": { "type": "Point", "coordinates": [ 8.284916224113923, 50.933859800995471 ] } },
{ "type": "Feature", "properties": { "strassenschluessel": "05970000002823780", "bezeichnung": "Eichwaldstraße" }, "geometry": { "type": "Point", "coordinates": [ 8.290588672272554, 50.950262266672347 ] } },
{ "type": "Feature", "properties": { "strassenschluessel": "05970000002823781", "bezeichnung": "Nixenfeld" }, "geometry": { "type": "Point", "coordinates": [ 8.277880236246702, 50.945729716681655 ] } },
{ "type": "Feature", "properties": { "strassenschluessel": "05970000002823782", "bezeichnung": "Obere Weide" }, "geometry": { "type": "Point", "coordinates": [ 8.28176642816265, 50.945086690646072 ] } },
{ "type": "Feature", "properties": { "strassenschluessel": "05970000002823783", "bezeichnung": "Untere Weide" }, "geometry": { "type": "Point", "coordinates": [ 8.28524072545418, 50.942415321591945 ] } },
{ "type": "Feature", "properties": { "strassenschluessel": "05970000002891809", "bezeichnung": "Banfe" }, "geometry": null },
{ "type": "Feature", "properties": { "strassenschluessel": "05970000002891810", "bezeichnung": "Bermershausen" }, "geometry": null },
{ "type": "Feature", "properties": { "strassenschluessel": "05970000002891811", "bezeichnung": "Bernshausen" }, "geometry": null },
{ "type": "Feature", "properties": { "strassenschluessel": "05970000002891812", "bezeichnung": "Fischelbach" }, "geometry": null },
{ "type": "Feature", "properties": { "strassenschluessel": "05970000002891813", "bezeichnung": "Heiligenborn" }, "geometry": null },
{ "type": "Feature", "properties": { "strassenschluessel": "05970000002891814", "bezeichnung": "Herbertshausen" }, "geometry": null },
{ "type": "Feature", "properties": { "strassenschluessel": "05970000002891815", "bezeichnung": "Hesselbach" }, "geometry": null },
{ "type": "Feature", "properties": { "strassenschluessel": "05970000002891816", "bezeichnung": "Holzhausen" }, "geometry": null },
{ "type": "Feature", "properties": { "strassenschluessel": "05970000002891817", "bezeichnung": "Niederlaasphe" }, "geometry": null },
{ "type": "Feature", "properties": { "strassenschluessel": "05970000002891818", "bezeichnung": "Puderbach" }, "geometry": null },
{ "type": "Feature", "properties": { "strassenschluessel": "05970000002891819", "bezeichnung": "Saßmannshausen" }, "geometry": null },
{ "type": "Feature", "properties": { "strassenschluessel": "05970000002891820", "bezeichnung": "Wittgenstein-Kunst" }, "geometry": null },
{ "type": "Feature", "properties": { "strassenschluessel": "05970000002891834", "bezeichnung": "Amtshausen" }, "geometry": null },
{ "type": "Feature", "properties": { "strassenschluessel": "05970000002891837", "bezeichnung": "Feudingen" }, "geometry": null },
{ "type": "Feature", "properties": { "strassenschluessel": "05970000002891838", "bezeichnung": "Großenbach" }, "geometry": null },
{ "type": "Feature", "properties": { "strassenschluessel": "05970000002891840", "bezeichnung": "Oberndorf" }, "geometry": null },
{ "type": "Feature", "properties": { "strassenschluessel": "05970000002891841", "bezeichnung": "Rückershausen" }, "geometry": null },
{ "type": "Feature", "properties": { "strassenschluessel": "05970000002891842", "bezeichnung": "Rüppershausen" }, "geometry": null },
{ "type": "Feature", "properties": { "strassenschluessel": "05970000002891844", "bezeichnung": "Steinbach" }, "geometry": null },
{ "type": "Feature", "properties": { "strassenschluessel": "05970000002891845", "bezeichnung": "Volkholz" }, "geometry": null },
{ "type": "Feature", "properties": { "strassenschluessel": "05970000002891846", "bezeichnung": "Weide" }, "geometry": null },
{ "type": "Feature", "properties": { "strassenschluessel": "05970000002891859", "bezeichnung": "Laasphe" }, "geometry": null },
{ "type": "Feature", "properties": { "strassenschluessel": "059700000028=2870", "bezeichnung": "Kreuztal - Cölbe" }, "geometry": null },
{ "type": "Feature", "properties": { "strassenschluessel": "059700000028B0062", "bezeichnung": "Roth - Barchfeld" }, "geometry": null },
{ "type": "Feature", "properties": { "strassenschluessel": "059700000028K0017", "bezeichnung": "Lahnhof - Banfe" }, "geometry": null },
{ "type": "Feature", "properties": { "strassenschluessel": "059700000028K0033", "bezeichnung": "Zinse - Holzhausen" }, "geometry": null },
{ "type": "Feature", "properties": { "strassenschluessel": "059700000028K0034", "bezeichnung": "Glashütte - Steinbach" }, "geometry": null },
{ "type": "Feature", "properties": { "strassenschluessel": "059700000028K0035", "bezeichnung": "Rückershausen - Fohs Ilsenburg" }, "geometry": null },
{ "type": "Feature", "properties": { "strassenschluessel": "059700000028K0036", "bezeichnung": "Sohl - Bad Laasphe" }, "geometry": null },
{ "type": "Feature", "properties": { "strassenschluessel": "059700000028K0037", "bezeichnung": "Hesselbach - Ldsgrenze Hessen" }, "geometry": null },
{ "type": "Feature", "properties": { "strassenschluessel": "059700000028K0038", "bezeichnung": "Bernshausen - Banfe" }, "geometry": null },
{ "type": "Feature", "properties": { "strassenschluessel": "059700000028K0041", "bezeichnung": "Saßmannshausen - Bad Laasphe" }, "geometry": null },
{ "type": "Feature", "properties": { "strassenschluessel": "059700000028K0045", "bezeichnung": "Leimstruth - Sassenhausen" }, "geometry": null },
{ "type": "Feature", "properties": { "strassenschluessel": "059700000028K0053", "bezeichnung": "Alexanderstein - Beddelhausen" }, "geometry": null },
{ "type": "Feature", "properties": { "strassenschluessel": "059700000028L0632", "bezeichnung": "Feudingen - Leimstruth" }, "geometry": null },
{ "type": "Feature", "properties": { "strassenschluessel": "059700000028L0718", "bezeichnung": "Fischelbach - Bad Berleburg" }, "geometry": null },
{ "type": "Feature", "properties": { "strassenschluessel": "059700000028L0719", "bezeichnung": "Siegen-Saßmannshausen" }, "geometry": null },
{ "type": "Feature", "properties": { "strassenschluessel": "059700000028L0903", "bezeichnung": "Niederlaasphe - Arfeld" }, "geometry": null }
]
}
