{
"type": "FeatureCollection",
"features": [
{ "type": "Feature", "properties": { "strassenschluessel": "05974000000808501", "bezeichnung": "Akazienstraße" }, "geometry": { "type": "Point", "coordinates": [ 8.162251361683785, 51.5898993850682 ] } },
{ "type": "Feature", "properties": { "strassenschluessel": "05974000000808502", "bezeichnung": "Alleestraße" }, "geometry": { "type": "Point", "coordinates": [ 8.169240717367961, 51.584292656542779 ] } },
{ "type": "Feature", "properties": { "strassenschluessel": "05974000000808503", "bezeichnung": "Am Bahnhof" }, "geometry": { "type": "Point", "coordinates": [ 8.163200968489974, 51.587312606332411 ] } },
{ "type": "Feature", "properties": { "strassenschluessel": "05974000000808504", "bezeichnung": "Am Einbäumchen" }, "geometry": { "type": "Point", "coordinates": [ 8.157740477464218, 51.584374201921747 ] } },
{ "type": "Feature", "properties": { "strassenschluessel": "05974000000808505", "bezeichnung": "An der Rosenau" }, "geometry": { "type": "Point", "coordinates": [ 8.165347400704308, 51.584221361942824 ] } },
{ "type": "Feature", "properties": { "strassenschluessel": "05974000000808506", "bezeichnung": "Auf der Breite" }, "geometry": { "type": "Point", "coordinates": [ 8.173483258421758, 51.583066902009165 ] } },
{ "type": "Feature", "properties": { "strassenschluessel": "05974000000808507", "bezeichnung": "Auf dem Kampe" }, "geometry": { "type": "Point", "coordinates": [ 8.169215541652553, 51.583814050967256 ] } },
{ "type": "Feature", "properties": { "strassenschluessel": "05974000000808508", "bezeichnung": "Bachweg" }, "geometry": { "type": "Point", "coordinates": [ 8.166829359133718, 51.585664196842416 ] } },
{ "type": "Feature", "properties": { "strassenschluessel": "05974000000808509", "bezeichnung": "Badestraße" }, "geometry": { "type": "Point", "coordinates": [ 8.169559581527444, 51.586057523751649 ] } },
{ "type": "Feature", "properties": { "strassenschluessel": "05974000000808510", "bezeichnung": "Bahnhofstraße" }, "geometry": { "type": "Point", "coordinates": [ 8.163474832555575, 51.58567244677252 ] } },
{ "type": "Feature", "properties": { "strassenschluessel": "05974000000808511", "bezeichnung": "Berliner Straße" }, "geometry": { "type": "Point", "coordinates": [ 8.17390922032625, 51.590627145171169 ] } },
{ "type": "Feature", "properties": { "strassenschluessel": "05974000000808512", "bezeichnung": "Birkenweg" }, "geometry": { "type": "Point", "coordinates": [ 8.151183833578923, 51.579321776785093 ] } },
{ "type": "Feature", "properties": { "strassenschluessel": "05974000000808513", "bezeichnung": "Bismarckstraße" }, "geometry": { "type": "Point", "coordinates": [ 8.167494869860036, 51.588053825634667 ] } },
{ "type": "Feature", "properties": { "strassenschluessel": "05974000000808514", "bezeichnung": "Blumenstraße" }, "geometry": { "type": "Point", "coordinates": [ 8.16225558279676, 51.590344806380415 ] } },
{ "type": "Feature", "properties": { "strassenschluessel": "05974000000808515", "bezeichnung": "Bundesstraße" }, "geometry": { "type": "Point", "coordinates": [ 8.153346582959788, 51.576660314508224 ] } },
{ "type": "Feature", "properties": { "strassenschluessel": "05974000000808516", "bezeichnung": "Eichendorffstraße" }, "geometry": { "type": "Point", "coordinates": [ 8.171444557334416, 51.583927170579997 ] } },
{ "type": "Feature", "properties": { "strassenschluessel": "05974000000808517", "bezeichnung": "Fliederweg" }, "geometry": { "type": "Point", "coordinates": [ 8.160936994601908, 51.588401249916849 ] } },
{ "type": "Feature", "properties": { "strassenschluessel": "05974000000808518", "bezeichnung": "Freiherr-Vom-Stein-Straße" }, "geometry": { "type": "Point", "coordinates": [ 8.174740791678051, 51.590339772069484 ] } },
{ "type": "Feature", "properties": { "strassenschluessel": "05974000000808519", "bezeichnung": "Freiligrathstraße" }, "geometry": { "type": "Point", "coordinates": [ 8.172053676156604, 51.582363602495811 ] } },
{ "type": "Feature", "properties": { "strassenschluessel": "05974000000808520", "bezeichnung": "Friedhofstraße" }, "geometry": { "type": "Point", "coordinates": [ 8.170620434387265, 51.581068571038784 ] } },
{ "type": "Feature", "properties": { "strassenschluessel": "05974000000808521", "bezeichnung": "Friedrichstraße" }, "geometry": { "type": "Point", "coordinates": [ 8.17014458687234, 51.587029368714475 ] } },
{ "type": "Feature", "properties": { "strassenschluessel": "05974000000808522", "bezeichnung": "Gabrechter Weg" }, "geometry": { "type": "Point", "coordinates": [ 8.173700852727436, 51.596261044054771 ] } },
{ "type": "Feature", "properties": { "strassenschluessel": "05974000000808523", "bezeichnung": "Gartenstraße" }, "geometry": { "type": "Point", "coordinates": [ 8.164844232350969, 51.592286456375007 ] } },
{ "type": "Feature", "properties": { "strassenschluessel": "05974000000808524", "bezeichnung": "Goethestraße" }, "geometry": { "type": "Point", "coordinates": [ 8.174563414352301, 51.584803799312276 ] } },
{ "type": "Feature", "properties": { "strassenschluessel": "05974000000808525", "bezeichnung": "Händelweg" }, "geometry": { "type": "Point", "coordinates": [ 8.165950484251342, 51.594550229914418 ] } },
{ "type": "Feature", "properties": { "strassenschluessel": "05974000000808526", "bezeichnung": "Hermann-Löns-Weg" }, "geometry": { "type": "Point", "coordinates": [ 8.174449880202465, 51.582541056909044 ] } },
{ "type": "Feature", "properties": { "strassenschluessel": "05974000000808527", "bezeichnung": "Im Bruch" }, "geometry": { "type": "Point", "coordinates": [ 8.162758028554675, 51.58853301723525 ] } },
{ "type": "Feature", "properties": { "strassenschluessel": "05974000000808528", "bezeichnung": "Im Grünen Winkel" }, "geometry": { "type": "Point", "coordinates": [ 8.162533923806793, 51.584828446345291 ] } },
{ "type": "Feature", "properties": { "strassenschluessel": "05974000000808529", "bezeichnung": "Im Kurpark" }, "geometry": null },
{ "type": "Feature", "properties": { "strassenschluessel": "05974000000808530", "bezeichnung": "Im Malerwinkel" }, "geometry": { "type": "Point", "coordinates": [ 8.16692743511677, 51.587271189974118 ] } },
{ "type": "Feature", "properties": { "strassenschluessel": "05974000000808531", "bezeichnung": "Jacob-Grimm-Weg" }, "geometry": { "type": "Point", "coordinates": [ 8.175891446890697, 51.582535559809223 ] } },
{ "type": "Feature", "properties": { "strassenschluessel": "05974000000808532", "bezeichnung": "Jahnplatz" }, "geometry": { "type": "Point", "coordinates": [ 8.169571316193201, 51.585527080998339 ] } },
{ "type": "Feature", "properties": { "strassenschluessel": "05974000000808533", "bezeichnung": "Kaiserstraße" }, "geometry": { "type": "Point", "coordinates": [ 8.163759655467357, 51.587935350449627 ] } },
{ "type": "Feature", "properties": { "strassenschluessel": "05974000000808534", "bezeichnung": "Kirchplatz" }, "geometry": { "type": "Point", "coordinates": [ 8.16702321168294, 51.586761899240003 ] } },
{ "type": "Feature", "properties": { "strassenschluessel": "05974000000808535", "bezeichnung": "Kirchweg" }, "geometry": { "type": "Point", "coordinates": [ 8.165332993669578, 51.586690177450706 ] } },
{ "type": "Feature", "properties": { "strassenschluessel": "05974000000808536", "bezeichnung": "Kopernikusstraße" }, "geometry": { "type": "Point", "coordinates": [ 8.172071937906527, 51.587449777779526 ] } },
{ "type": "Feature", "properties": { "strassenschluessel": "05974000000808537", "bezeichnung": "Körnerweg" }, "geometry": { "type": "Point", "coordinates": [ 8.17543454331846, 51.583329654718419 ] } },
{ "type": "Feature", "properties": { "strassenschluessel": "05974000000808538", "bezeichnung": "Kurzer Weg" }, "geometry": { "type": "Point", "coordinates": [ 8.156219396171554, 51.583376613455989 ] } },
{ "type": "Feature", "properties": { "strassenschluessel": "05974000000808539", "bezeichnung": "Landwehr" }, "geometry": { "type": "Point", "coordinates": [ 8.174802770999069, 51.586893541835089 ] } },
{ "type": "Feature", "properties": { "strassenschluessel": "05974000000808540", "bezeichnung": "Lerchensteg" }, "geometry": { "type": "Point", "coordinates": [ 8.167080749844843, 51.584123687379304 ] } },
{ "type": "Feature", "properties": { "strassenschluessel": "05974000000808541", "bezeichnung": "Lessingstraße" }, "geometry": { "type": "Point", "coordinates": [ 8.170550321205772, 51.582856116005303 ] } },
{ "type": "Feature", "properties": { "strassenschluessel": "05974000000808542", "bezeichnung": "Lindenstraße" }, "geometry": { "type": "Point", "coordinates": [ 8.158785306452682, 51.589381934719192 ] } },
{ "type": "Feature", "properties": { "strassenschluessel": "05974000000808543", "bezeichnung": "Lohweg" }, "geometry": { "type": "Point", "coordinates": [ 8.174613478631843, 51.585830925943306 ] } },
{ "type": "Feature", "properties": { "strassenschluessel": "05974000000808544", "bezeichnung": "Lütgenweg" }, "geometry": { "type": "Point", "coordinates": [ 8.168250500294805, 51.592431977761166 ] } },
{ "type": "Feature", "properties": { "strassenschluessel": "05974000000808545", "bezeichnung": "Luisenstraße" }, "geometry": { "type": "Point", "coordinates": [ 8.156682521527014, 51.584006321099253 ] } },
{ "type": "Feature", "properties": { "strassenschluessel": "05974000000808546", "bezeichnung": "Mittelweg" }, "geometry": { "type": "Point", "coordinates": [ 8.165563266872223, 51.587256554358703 ] } },
{ "type": "Feature", "properties": { "strassenschluessel": "05974000000808547", "bezeichnung": "Mörikestraße" }, "geometry": { "type": "Point", "coordinates": [ 8.172400528341155, 51.581839272284128 ] } },
{ "type": "Feature", "properties": { "strassenschluessel": "05974000000808548", "bezeichnung": "Mozartweg" }, "geometry": { "type": "Point", "coordinates": [ 8.167230363993902, 51.595739948934479 ] } },
{ "type": "Feature", "properties": { "strassenschluessel": "05974000000808549", "bezeichnung": "Opmünder Weg" }, "geometry": { "type": "Point", "coordinates": [ 8.168074391082198, 51.579826846448178 ] } },
{ "type": "Feature", "properties": { "strassenschluessel": "05974000000808550", "bezeichnung": "Ostpreußenweg" }, "geometry": { "type": "Point", "coordinates": [ 8.157180573414054, 51.591829035398021 ] } },
{ "type": "Feature", "properties": { "strassenschluessel": "05974000000808551", "bezeichnung": "Oststraße" }, "geometry": { "type": "Point", "coordinates": [ 8.173550941137952, 51.587291748360329 ] } },
{ "type": "Feature", "properties": { "strassenschluessel": "05974000000808552", "bezeichnung": "Reiterweg" }, "geometry": { "type": "Point", "coordinates": [ 8.161414451388666, 51.588370969723897 ] } },
{ "type": "Feature", "properties": { "strassenschluessel": "05974000000808553", "bezeichnung": "Rennweg" }, "geometry": { "type": "Point", "coordinates": [ 8.175671378952023, 51.586666775528059 ] } },
{ "type": "Feature", "properties": { "strassenschluessel": "05974000000808554", "bezeichnung": "Rosenstraße" }, "geometry": { "type": "Point", "coordinates": [ 8.15893607372225, 51.589924861582972 ] } },
{ "type": "Feature", "properties": { "strassenschluessel": "05974000000808555", "bezeichnung": "Salzstraße" }, "geometry": { "type": "Point", "coordinates": [ 8.172441862411814, 51.58850902253176 ] } },
{ "type": "Feature", "properties": { "strassenschluessel": "05974000000808556", "bezeichnung": "Soester Straße" }, "geometry": { "type": "Point", "coordinates": [ 8.159016671691036, 51.58439741610173 ] } },
{ "type": "Feature", "properties": { "strassenschluessel": "05974000000808557", "bezeichnung": "Spindelpfad" }, "geometry": { "type": "Point", "coordinates": [ 8.164899410578677, 51.592995555812088 ] } },
{ "type": "Feature", "properties": { "strassenschluessel": "05974000000808558", "bezeichnung": "Spreitweg" }, "geometry": { "type": "Point", "coordinates": [ 8.156790871157323, 51.587137070078562 ] } },
{ "type": "Feature", "properties": { "strassenschluessel": "05974000000808559", "bezeichnung": "Schillerstraße" }, "geometry": { "type": "Point", "coordinates": [ 8.17359762016504, 51.583748315468149 ] } },
{ "type": "Feature", "properties": { "strassenschluessel": "05974000000808560", "bezeichnung": "Schubertweg" }, "geometry": { "type": "Point", "coordinates": [ 8.167334817059082, 51.596689701988097 ] } },
{ "type": "Feature", "properties": { "strassenschluessel": "05974000000808561", "bezeichnung": "Schützenstraße" }, "geometry": { "type": "Point", "coordinates": [ 8.158311229624262, 51.581093053724004 ] } },
{ "type": "Feature", "properties": { "strassenschluessel": "05974000000808562", "bezeichnung": "Steinmickerweg" }, "geometry": { "type": "Point", "coordinates": [ 8.162072847909922, 51.594534977420061 ] } },
{ "type": "Feature", "properties": { "strassenschluessel": "05974000000808563", "bezeichnung": "Uhlandweg" }, "geometry": { "type": "Point", "coordinates": [ 8.174852683402127, 51.583225945292391 ] } },
{ "type": "Feature", "properties": { "strassenschluessel": "05974000000808564", "bezeichnung": "Ulmenstraße" }, "geometry": { "type": "Point", "coordinates": [ 8.159520109691634, 51.591420660030643 ] } },
{ "type": "Feature", "properties": { "strassenschluessel": "05974000000808565", "bezeichnung": "Viktoriastraße" }, "geometry": { "type": "Point", "coordinates": [ 8.161201381621863, 51.58244424591927 ] } },
{ "type": "Feature", "properties": { "strassenschluessel": "05974000000808566", "bezeichnung": "Wasserstraße" }, "geometry": { "type": "Point", "coordinates": [ 8.166291833129453, 51.585834749229988 ] } },
{ "type": "Feature", "properties": { "strassenschluessel": "05974000000808567", "bezeichnung": "Weslarner Straße" }, "geometry": { "type": "Point", "coordinates": [ 8.177244605904621, 51.603735018006738 ] } },
{ "type": "Feature", "properties": { "strassenschluessel": "05974000000808568", "bezeichnung": "Weststraße" }, "geometry": { "type": "Point", "coordinates": [ 8.160182447406591, 51.589137534105745 ] } },
{ "type": "Feature", "properties": { "strassenschluessel": "05974000000808569", "bezeichnung": "Wiesenstraße" }, "geometry": { "type": "Point", "coordinates": [ 8.172285924152341, 51.589226161312844 ] } },
{ "type": "Feature", "properties": { "strassenschluessel": "05974000000808570", "bezeichnung": "Wilhelm-Busch-Weg" }, "geometry": { "type": "Point", "coordinates": [ 8.175220360008447, 51.58242052537959 ] } },
{ "type": "Feature", "properties": { "strassenschluessel": "05974000000808571", "bezeichnung": "Wilhelmstraße" }, "geometry": { "type": "Point", "coordinates": [ 8.164532299384858, 51.586541870754523 ] } },
{ "type": "Feature", "properties": { "strassenschluessel": "05974000000808572", "bezeichnung": "Zur Hepper Höhe" }, "geometry": { "type": "Point", "coordinates": [ 8.159623267971714, 51.591706987400016 ] } },
{ "type": "Feature", "properties": { "strassenschluessel": "05974000000808573", "bezeichnung": "Zur Wasserfuhr" }, "geometry": { "type": "Point", "coordinates": [ 8.16988643242173, 51.596711595594904 ] } },
{ "type": "Feature", "properties": { "strassenschluessel": "05974000000808574", "bezeichnung": "Sälzerplatz" }, "geometry": { "type": "Point", "coordinates": [ 8.167607093320948, 51.587045569805781 ] } },
{ "type": "Feature", "properties": { "strassenschluessel": "05974000000808575", "bezeichnung": "Im Schulzenhof" }, "geometry": { "type": "Point", "coordinates": [ 8.173403581833023, 51.586498604501962 ] } },
{ "type": "Feature", "properties": { "strassenschluessel": "05974000000808576", "bezeichnung": "Hainbuchenweg" }, "geometry": null },
{ "type": "Feature", "properties": { "strassenschluessel": "05974000000808578", "bezeichnung": "Loerbrocksweg" }, "geometry": { "type": "Point", "coordinates": [ 8.18113803246313, 51.601771452319113 ] } },
{ "type": "Feature", "properties": { "strassenschluessel": "05974000000808579", "bezeichnung": "Parkplatz Strippelhof" }, "geometry": null },
{ "type": "Feature", "properties": { "strassenschluessel": "05974000000808580", "bezeichnung": "Hepper Straße" }, "geometry": null },
{ "type": "Feature", "properties": { "strassenschluessel": "05974000000808581", "bezeichnung": "Ahornstraße" }, "geometry": { "type": "Point", "coordinates": [ 8.160471668520394, 51.586477298516087 ] } },
{ "type": "Feature", "properties": { "strassenschluessel": "05974000000808582", "bezeichnung": "Von-Hardenberg-Straße" }, "geometry": { "type": "Point", "coordinates": [ 8.17548592653486, 51.588473679807926 ] } },
{ "type": "Feature", "properties": { "strassenschluessel": "05974000000808583", "bezeichnung": "Karl-Volke-Platz" }, "geometry": null },
{ "type": "Feature", "properties": { "strassenschluessel": "05974000000808584", "bezeichnung": "Am Sportzentrum" }, "geometry": { "type": "Point", "coordinates": [ 8.161513157506782, 51.595029908805813 ] } },
{ "type": "Feature", "properties": { "strassenschluessel": "05974000000808585", "bezeichnung": "An der Alten Schmiede" }, "geometry": { "type": "Point", "coordinates": [ 8.16346938908713, 51.593454637442548 ] } },
{ "type": "Feature", "properties": { "strassenschluessel": "05974000000808586", "bezeichnung": "Beethovenweg" }, "geometry": { "type": "Point", "coordinates": [ 8.163665918023321, 51.594453417384578 ] } },
{ "type": "Feature", "properties": { "strassenschluessel": "05974000000808587", "bezeichnung": "Am Haullenbach" }, "geometry": { "type": "Point", "coordinates": [ 8.160570943502028, 51.580860739041327 ] } },
{ "type": "Feature", "properties": { "strassenschluessel": "05974000000808588", "bezeichnung": "Alte Ladestraße" }, "geometry": { "type": "Point", "coordinates": [ 8.160080079490207, 51.585926329027075 ] } },
{ "type": "Feature", "properties": { "strassenschluessel": "05974000000808589", "bezeichnung": "Erlenweg" }, "geometry": { "type": "Point", "coordinates": [ 8.159666915217231, 51.585950742809338 ] } },
{ "type": "Feature", "properties": { "strassenschluessel": "05974000000808590", "bezeichnung": "Zur Alten Feldsaline" }, "geometry": { "type": "Point", "coordinates": [ 8.158441295685057, 51.591714929188313 ] } },
{ "type": "Feature", "properties": { "strassenschluessel": "05974000000808591", "bezeichnung": "Buchenstraße" }, "geometry": { "type": "Point", "coordinates": [ 8.16051223755003, 51.587570912187715 ] } },
{ "type": "Feature", "properties": { "strassenschluessel": "05974000000808592", "bezeichnung": "Am Gemkerhof" }, "geometry": null },
{ "type": "Feature", "properties": { "strassenschluessel": "05974000000808593", "bezeichnung": "Kranlandsweg" }, "geometry": null },
{ "type": "Feature", "properties": { "strassenschluessel": "05974000000808594", "bezeichnung": "Enkeser Soestweg" }, "geometry": null },
{ "type": "Feature", "properties": { "strassenschluessel": "05974000000808595", "bezeichnung": "Am Rohrberg" }, "geometry": null },
{ "type": "Feature", "properties": { "strassenschluessel": "05974000000808596", "bezeichnung": "Schüttenbreite" }, "geometry": null },
{ "type": "Feature", "properties": { "strassenschluessel": "05974000000808597", "bezeichnung": "Holzweg" }, "geometry": null },
{ "type": "Feature", "properties": { "strassenschluessel": "05974000000808598", "bezeichnung": "Auf der Fahlen Breite" }, "geometry": null },
{ "type": "Feature", "properties": { "strassenschluessel": "05974000000808599", "bezeichnung": "Schüttweg" }, "geometry": null },
{ "type": "Feature", "properties": { "strassenschluessel": "05974000000808600", "bezeichnung": "Sinnerpfad" }, "geometry": null },
{ "type": "Feature", "properties": { "strassenschluessel": "05974000000808601", "bezeichnung": "Bruchstraße" }, "geometry": null },
{ "type": "Feature", "properties": { "strassenschluessel": "05974000000808602", "bezeichnung": "Stemecke" }, "geometry": { "type": "Point", "coordinates": [ 8.15691602299318, 51.592649193504194 ] } },
{ "type": "Feature", "properties": { "strassenschluessel": "05974000000808603", "bezeichnung": "Zur Sälzerschule" }, "geometry": { "type": "Point", "coordinates": [ 8.157854788190493, 51.594188234820855 ] } },
{ "type": "Feature", "properties": { "strassenschluessel": "05974000000808605", "bezeichnung": "Zum Leinweber" }, "geometry": { "type": "Point", "coordinates": [ 8.178604115910558, 51.58908704976195 ] } },
{ "type": "Feature", "properties": { "strassenschluessel": "05974000000808606", "bezeichnung": "An der Alten Schule" }, "geometry": { "type": "Point", "coordinates": [ 8.180915506764544, 51.588597224343445 ] } },
{ "type": "Feature", "properties": { "strassenschluessel": "05974000000808607", "bezeichnung": "Am Schmielenpfad" }, "geometry": { "type": "Point", "coordinates": [ 8.177044552298629, 51.588014041053682 ] } },
{ "type": "Feature", "properties": { "strassenschluessel": "05974000000808608", "bezeichnung": "Von-Hardenberg-Straße " }, "geometry": { "type": "Point", "coordinates": [ 8.176366868282505, 51.588131495275626 ] } },
{ "type": "Feature", "properties": { "strassenschluessel": "05974000000808609", "bezeichnung": "Siepenpfad" }, "geometry": null },
{ "type": "Feature", "properties": { "strassenschluessel": "05974000000808610", "bezeichnung": "Am Lohof" }, "geometry": { "type": "Point", "coordinates": [ 8.157403102830155, 51.58689397598431 ] } },
{ "type": "Feature", "properties": { "strassenschluessel": "05974000000808611", "bezeichnung": "Am Tiggemann" }, "geometry": { "type": "Point", "coordinates": [ 8.181998763768615, 51.570539866692719 ] } },
{ "type": "Feature", "properties": { "strassenschluessel": "05974000000808631", "bezeichnung": "Am Haselbach" }, "geometry": { "type": "Point", "coordinates": [ 8.190618784583469, 51.619412006009966 ] } },
{ "type": "Feature", "properties": { "strassenschluessel": "05974000000808632", "bezeichnung": "Antoniusweg" }, "geometry": { "type": "Point", "coordinates": [ 8.20144022194394, 51.625605021834744 ] } },
{ "type": "Feature", "properties": { "strassenschluessel": "05974000000808633", "bezeichnung": "Auf der Borg" }, "geometry": { "type": "Point", "coordinates": [ 8.192300702650916, 51.619843593272307 ] } },
{ "type": "Feature", "properties": { "strassenschluessel": "05974000000808634", "bezeichnung": "Brückenstraße" }, "geometry": { "type": "Point", "coordinates": [ 8.201685037164022, 51.623668877827079 ] } },
{ "type": "Feature", "properties": { "strassenschluessel": "05974000000808635", "bezeichnung": "Kapellenweg" }, "geometry": { "type": "Point", "coordinates": [ 8.197072526480868, 51.622984373389478 ] } },
{ "type": "Feature", "properties": { "strassenschluessel": "05974000000808636", "bezeichnung": "Kolpingweg" }, "geometry": { "type": "Point", "coordinates": [ 8.194913999612361, 51.623383751780835 ] } },
{ "type": "Feature", "properties": { "strassenschluessel": "05974000000808637", "bezeichnung": "Lange Straße" }, "geometry": { "type": "Point", "coordinates": [ 8.196917105493378, 51.624358138296728 ] } },
{ "type": "Feature", "properties": { "strassenschluessel": "05974000000808638", "bezeichnung": "Ostermannstraße" }, "geometry": { "type": "Point", "coordinates": [ 8.192821320578972, 51.622861700942124 ] } },
{ "type": "Feature", "properties": { "strassenschluessel": "05974000000808639", "bezeichnung": "Roggenkamp" }, "geometry": { "type": "Point", "coordinates": [ 8.190647286012945, 51.62199226724524 ] } },
{ "type": "Feature", "properties": { "strassenschluessel": "05974000000808640", "bezeichnung": "Schustergasse" }, "geometry": { "type": "Point", "coordinates": [ 8.194371620056646, 51.621112439930208 ] } },
{ "type": "Feature", "properties": { "strassenschluessel": "05974000000808641", "bezeichnung": "Überm Mersch" }, "geometry": { "type": "Point", "coordinates": [ 8.195024720413963, 51.623002937439175 ] } },
{ "type": "Feature", "properties": { "strassenschluessel": "05974000000808642", "bezeichnung": "Woesteweg" }, "geometry": { "type": "Point", "coordinates": [ 8.198257832085336, 51.629048703236208 ] } },
{ "type": "Feature", "properties": { "strassenschluessel": "05974000000808643", "bezeichnung": "Zum Südfeld" }, "geometry": { "type": "Point", "coordinates": [ 8.200679551079629, 51.623298060402256 ] } },
{ "type": "Feature", "properties": { "strassenschluessel": "05974000000808644", "bezeichnung": "Zur Dornheide" }, "geometry": { "type": "Point", "coordinates": [ 8.192851861778108, 51.623210808470283 ] } },
{ "type": "Feature", "properties": { "strassenschluessel": "05974000000808646", "bezeichnung": "Kreuzweg" }, "geometry": null },
{ "type": "Feature", "properties": { "strassenschluessel": "05974000000808647", "bezeichnung": "In der Lander" }, "geometry": null },
{ "type": "Feature", "properties": { "strassenschluessel": "05974000000808648", "bezeichnung": "In den Kämpen" }, "geometry": null },
{ "type": "Feature", "properties": { "strassenschluessel": "05974000000808649", "bezeichnung": "Leimeweg" }, "geometry": null },
{ "type": "Feature", "properties": { "strassenschluessel": "05974000000808650", "bezeichnung": "Am Soestgraben" }, "geometry": null },
{ "type": "Feature", "properties": { "strassenschluessel": "05974000000808651", "bezeichnung": "Zur Feldscheune" }, "geometry": null },
{ "type": "Feature", "properties": { "strassenschluessel": "05974000000808661", "bezeichnung": "Beusingsen" }, "geometry": null },
{ "type": "Feature", "properties": { "strassenschluessel": "05974000000808662", "bezeichnung": "Alter Elfser Weg" }, "geometry": { "type": "Point", "coordinates": [ 8.176248703739155, 51.545936049642201 ] } },
{ "type": "Feature", "properties": { "strassenschluessel": "05974000000808663", "bezeichnung": "Am Kirchhof" }, "geometry": { "type": "Point", "coordinates": [ 8.177615571050813, 51.547725937009155 ] } },
{ "type": "Feature", "properties": { "strassenschluessel": "05974000000808664", "bezeichnung": "Am Sieblinghof" }, "geometry": { "type": "Point", "coordinates": [ 8.18490735851311, 51.544524693835264 ] } },
{ "type": "Feature", "properties": { "strassenschluessel": "05974000000808665", "bezeichnung": "Beusingser Kirchweg" }, "geometry": { "type": "Point", "coordinates": [ 8.17758074536874, 51.546278776059104 ] } },
{ "type": "Feature", "properties": { "strassenschluessel": "05974000000808666", "bezeichnung": "Beusingser Mühle" }, "geometry": { "type": "Point", "coordinates": [ 8.194948927346783, 51.549192383486897 ] } },
{ "type": "Feature", "properties": { "strassenschluessel": "05974000000808667", "bezeichnung": "Hackeloh" }, "geometry": { "type": "Point", "coordinates": [ 8.196088002971315, 51.533243060707385 ] } },
{ "type": "Feature", "properties": { "strassenschluessel": "05974000000808668", "bezeichnung": "Langer Weg" }, "geometry": { "type": "Point", "coordinates": [ 8.179279102434991, 51.547079946568211 ] } },
{ "type": "Feature", "properties": { "strassenschluessel": "05974000000808669", "bezeichnung": "Rüthener Weg" }, "geometry": { "type": "Point", "coordinates": [ 8.179345866183201, 51.539357476937326 ] } },
{ "type": "Feature", "properties": { "strassenschluessel": "05974000000808670", "bezeichnung": "Sattlerweg" }, "geometry": { "type": "Point", "coordinates": [ 8.176455506346255, 51.546243611417374 ] } },
{ "type": "Feature", "properties": { "strassenschluessel": "05974000000808671", "bezeichnung": "Schmiedeweg" }, "geometry": { "type": "Point", "coordinates": [ 8.180672583003396, 51.545008149461282 ] } },
{ "type": "Feature", "properties": { "strassenschluessel": "05974000000808672", "bezeichnung": "Schulweg" }, "geometry": { "type": "Point", "coordinates": [ 8.179266024874073, 51.540438110412921 ] } },
{ "type": "Feature", "properties": { "strassenschluessel": "05974000000808673", "bezeichnung": "Bierpfad" }, "geometry": null },
{ "type": "Feature", "properties": { "strassenschluessel": "05974000000808674", "bezeichnung": "Mühlengraben" }, "geometry": null },
{ "type": "Feature", "properties": { "strassenschluessel": "05974000000808675", "bezeichnung": "Schellbergsweg" }, "geometry": null },
{ "type": "Feature", "properties": { "strassenschluessel": "05974000000808676", "bezeichnung": "Gährensweg" }, "geometry": null },
{ "type": "Feature", "properties": { "strassenschluessel": "05974000000808677", "bezeichnung": "Planweg" }, "geometry": null },
{ "type": "Feature", "properties": { "strassenschluessel": "05974000000808678", "bezeichnung": "Der Grüne Weg" }, "geometry": null },
{ "type": "Feature", "properties": { "strassenschluessel": "05974000000808679", "bezeichnung": "Prozessionsweg" }, "geometry": null },
{ "type": "Feature", "properties": { "strassenschluessel": "05974000000808680", "bezeichnung": "Pals Weg" }, "geometry": null },
{ "type": "Feature", "properties": { "strassenschluessel": "05974000000808681", "bezeichnung": "Viehtrift" }, "geometry": null },
{ "type": "Feature", "properties": { "strassenschluessel": "05974000000808691", "bezeichnung": "Elfsen" }, "geometry": null },
{ "type": "Feature", "properties": { "strassenschluessel": "05974000000808692", "bezeichnung": "Am Langen Busch" }, "geometry": null },
{ "type": "Feature", "properties": { "strassenschluessel": "05974000000808693", "bezeichnung": "Alter Elfser Bahnhof" }, "geometry": { "type": "Point", "coordinates": [ 8.161103313465061, 51.5435395113415 ] } },
{ "type": "Feature", "properties": { "strassenschluessel": "05974000000808694", "bezeichnung": "Am Buksot" }, "geometry": { "type": "Point", "coordinates": [ 8.152982772454671, 51.545888162282601 ] } },
{ "type": "Feature", "properties": { "strassenschluessel": "05974000000808695", "bezeichnung": "Bördenstraße" }, "geometry": { "type": "Point", "coordinates": [ 8.15366770746633, 51.550732585609865 ] } },
{ "type": "Feature", "properties": { "strassenschluessel": "05974000000808696", "bezeichnung": "Elfser Bruch" }, "geometry": { "type": "Point", "coordinates": [ 8.157134276794723, 51.545330312629844 ] } },
{ "type": "Feature", "properties": { "strassenschluessel": "05974000000808697", "bezeichnung": "Elfser Markt" }, "geometry": { "type": "Point", "coordinates": [ 8.155376220776585, 51.5480402398615 ] } },
{ "type": "Feature", "properties": { "strassenschluessel": "05974000000808698", "bezeichnung": "Elfser Straße" }, "geometry": { "type": "Point", "coordinates": [ 8.154354869085594, 51.546689434270064 ] } },
{ "type": "Feature", "properties": { "strassenschluessel": "05974000000808699", "bezeichnung": "Steinweg" }, "geometry": { "type": "Point", "coordinates": [ 8.155138000712009, 51.545423048788223 ] } },
{ "type": "Feature", "properties": { "strassenschluessel": "05974000000808700", "bezeichnung": "Am Aakgraben" }, "geometry": null },
{ "type": "Feature", "properties": { "strassenschluessel": "05974000000808701", "bezeichnung": "Bukweg" }, "geometry": null },
{ "type": "Feature", "properties": { "strassenschluessel": "05974000000808721", "bezeichnung": "Enkesen im Klei" }, "geometry": null },
{ "type": "Feature", "properties": { "strassenschluessel": "05974000000808722", "bezeichnung": "Breiteweg" }, "geometry": { "type": "Point", "coordinates": [ 8.21584993004819, 51.567107097359475 ] } },
{ "type": "Feature", "properties": { "strassenschluessel": "05974000000808723", "bezeichnung": "Eskenholz" }, "geometry": { "type": "Point", "coordinates": [ 8.218014784652997, 51.566963682145818 ] } },
{ "type": "Feature", "properties": { "strassenschluessel": "05974000000808724", "bezeichnung": "Goren" }, "geometry": { "type": "Point", "coordinates": [ 8.212371300238814, 51.567592478457605 ] } },
{ "type": "Feature", "properties": { "strassenschluessel": "05974000000808725", "bezeichnung": "Kleiweg" }, "geometry": { "type": "Point", "coordinates": [ 8.214863567700501, 51.568521047392345 ] } },
{ "type": "Feature", "properties": { "strassenschluessel": "05974000000808726", "bezeichnung": "Lindenhof" }, "geometry": { "type": "Point", "coordinates": [ 8.211677721231405, 51.568519256732877 ] } },
{ "type": "Feature", "properties": { "strassenschluessel": "05974000000808727", "bezeichnung": "Neuengeseker Straße" }, "geometry": { "type": "Point", "coordinates": [ 8.212267249390395, 51.567116283847653 ] } },
{ "type": "Feature", "properties": { "strassenschluessel": "05974000000808728", "bezeichnung": "Seringhauser Weg" }, "geometry": null },
{ "type": "Feature", "properties": { "strassenschluessel": "05974000000808729", "bezeichnung": "Dahleweg" }, "geometry": null },
{ "type": "Feature", "properties": { "strassenschluessel": "05974000000808730", "bezeichnung": "Holzstraße" }, "geometry": null },
{ "type": "Feature", "properties": { "strassenschluessel": "05974000000808731", "bezeichnung": "Warteweg" }, "geometry": null },
{ "type": "Feature", "properties": { "strassenschluessel": "05974000000808732", "bezeichnung": "Neuengeseker Grenzweg" }, "geometry": null },
{ "type": "Feature", "properties": { "strassenschluessel": "05974000000808733", "bezeichnung": "An der Holzstraße" }, "geometry": null },
{ "type": "Feature", "properties": { "strassenschluessel": "05974000000808734", "bezeichnung": "Heiligenhäuschenweg" }, "geometry": null },
{ "type": "Feature", "properties": { "strassenschluessel": "05974000000808735", "bezeichnung": "Zum Rübenkamp" }, "geometry": null },
{ "type": "Feature", "properties": { "strassenschluessel": "05974000000808736", "bezeichnung": "Sackpfeife" }, "geometry": null },
{ "type": "Feature", "properties": { "strassenschluessel": "05974000000808752", "bezeichnung": "Alter Soestweg" }, "geometry": { "type": "Point", "coordinates": [ 8.146049272687284, 51.59590923598833 ] } },
{ "type": "Feature", "properties": { "strassenschluessel": "05974000000808753", "bezeichnung": "Gabrechter Weg" }, "geometry": { "type": "Point", "coordinates": [ 8.14897382878574, 51.598272921135475 ] } },
{ "type": "Feature", "properties": { "strassenschluessel": "05974000000808754", "bezeichnung": "Gemkerweg" }, "geometry": null },
{ "type": "Feature", "properties": { "strassenschluessel": "05974000000808755", "bezeichnung": "Hepper Straße" }, "geometry": { "type": "Point", "coordinates": [ 8.142454677067468, 51.598833961800146 ] } },
{ "type": "Feature", "properties": { "strassenschluessel": "05974000000808756", "bezeichnung": "Im Oberdorf" }, "geometry": { "type": "Point", "coordinates": [ 8.148184488015882, 51.600065601048485 ] } },
{ "type": "Feature", "properties": { "strassenschluessel": "05974000000808757", "bezeichnung": "Kampsweg" }, "geometry": { "type": "Point", "coordinates": [ 8.140395128528416, 51.597944471850248 ] } },
{ "type": "Feature", "properties": { "strassenschluessel": "05974000000808758", "bezeichnung": "Lindenweg" }, "geometry": { "type": "Point", "coordinates": [ 8.142309413460252, 51.597790138825737 ] } },
{ "type": "Feature", "properties": { "strassenschluessel": "05974000000808759", "bezeichnung": "Schneiderstraße" }, "geometry": { "type": "Point", "coordinates": [ 8.145773204738605, 51.597832264998672 ] } },
{ "type": "Feature", "properties": { "strassenschluessel": "05974000000808760", "bezeichnung": "Tippenweg" }, "geometry": null },
{ "type": "Feature", "properties": { "strassenschluessel": "05974000000808761", "bezeichnung": "Weslarner Weg" }, "geometry": { "type": "Point", "coordinates": [ 8.13101390917288, 51.597940382654848 ] } },
{ "type": "Feature", "properties": { "strassenschluessel": "05974000000808762", "bezeichnung": "Am Sassendorfer Wege" }, "geometry": { "type": "Point", "coordinates": [ 8.153861585966562, 51.595350185841781 ] } },
{ "type": "Feature", "properties": { "strassenschluessel": "05974000000808763", "bezeichnung": "Zur Sälzerschule" }, "geometry": { "type": "Point", "coordinates": [ 8.156892306042998, 51.595098237795277 ] } },
{ "type": "Feature", "properties": { "strassenschluessel": "05974000000808764", "bezeichnung": "Eichkampweg" }, "geometry": null },
{ "type": "Feature", "properties": { "strassenschluessel": "05974000000808765", "bezeichnung": "Langer Patt" }, "geometry": null },
{ "type": "Feature", "properties": { "strassenschluessel": "05974000000808766", "bezeichnung": "An der Subbieke" }, "geometry": null },
{ "type": "Feature", "properties": { "strassenschluessel": "05974000000808767", "bezeichnung": "An den Vogelpöten" }, "geometry": null },
{ "type": "Feature", "properties": { "strassenschluessel": "05974000000808781", "bezeichnung": "Herringsen" }, "geometry": null },
{ "type": "Feature", "properties": { "strassenschluessel": "05974000000808783", "bezeichnung": "Esken Weg" }, "geometry": { "type": "Point", "coordinates": [ 8.238672774165662, 51.541617280648886 ] } },
{ "type": "Feature", "properties": { "strassenschluessel": "05974000000808784", "bezeichnung": "Herringser Höfe" }, "geometry": { "type": "Point", "coordinates": [ 8.206688792600227, 51.54036685572413 ] } },
{ "type": "Feature", "properties": { "strassenschluessel": "05974000000808785", "bezeichnung": "Im Grunde" }, "geometry": { "type": "Point", "coordinates": [ 8.226475042364452, 51.540467838569157 ] } },
{ "type": "Feature", "properties": { "strassenschluessel": "05974000000808786", "bezeichnung": "Ostheide" }, "geometry": { "type": "Point", "coordinates": [ 8.237551425227119, 51.530405648594432 ] } },
{ "type": "Feature", "properties": { "strassenschluessel": "05974000000808787", "bezeichnung": "Sicksgraben" }, "geometry": { "type": "Point", "coordinates": [ 8.233150917745688, 51.542764567215599 ] } },
{ "type": "Feature", "properties": { "strassenschluessel": "05974000000808788", "bezeichnung": "Zum Hahnekamp" }, "geometry": { "type": "Point", "coordinates": [ 8.232628216252278, 51.541656438817441 ] } },
{ "type": "Feature", "properties": { "strassenschluessel": "05974000000808789", "bezeichnung": "Warteweg" }, "geometry": null },
{ "type": "Feature", "properties": { "strassenschluessel": "05974000000808790", "bezeichnung": "Kastenweg" }, "geometry": null },
{ "type": "Feature", "properties": { "strassenschluessel": "05974000000808791", "bezeichnung": "Arnsberger Weg" }, "geometry": null },
{ "type": "Feature", "properties": { "strassenschluessel": "05974000000808792", "bezeichnung": "Kirschenallee" }, "geometry": null },
{ "type": "Feature", "properties": { "strassenschluessel": "05974000000808793", "bezeichnung": "Schildweg" }, "geometry": null },
{ "type": "Feature", "properties": { "strassenschluessel": "05974000000808794", "bezeichnung": "Breiter Weg" }, "geometry": null },
{ "type": "Feature", "properties": { "strassenschluessel": "05974000000808811", "bezeichnung": "Bundesstraße" }, "geometry": { "type": "Point", "coordinates": [ 8.19432189436, 51.585050321482328 ] } },
{ "type": "Feature", "properties": { "strassenschluessel": "05974000000808812", "bezeichnung": "Gabrechten" }, "geometry": { "type": "Point", "coordinates": [ 8.165966446414462, 51.60331878817631 ] } },
{ "type": "Feature", "properties": { "strassenschluessel": "05974000000808813", "bezeichnung": "Hellweg" }, "geometry": { "type": "Point", "coordinates": [ 8.183170594814788, 51.585015796037496 ] } },
{ "type": "Feature", "properties": { "strassenschluessel": "05974000000808814", "bezeichnung": "In der Lander" }, "geometry": { "type": "Point", "coordinates": [ 8.189843773593834, 51.588289733396273 ] } },
{ "type": "Feature", "properties": { "strassenschluessel": "05974000000808815", "bezeichnung": "Kittelhakenstraße" }, "geometry": { "type": "Point", "coordinates": [ 8.187802557720644, 51.587745146732132 ] } },
{ "type": "Feature", "properties": { "strassenschluessel": "05974000000808816", "bezeichnung": "Kützelbachstraße" }, "geometry": { "type": "Point", "coordinates": [ 8.182969565838983, 51.588945684307134 ] } },
{ "type": "Feature", "properties": { "strassenschluessel": "05974000000808817", "bezeichnung": "Loerbrocksweg" }, "geometry": { "type": "Point", "coordinates": [ 8.18379312910718, 51.60169695015211 ] } },
{ "type": "Feature", "properties": { "strassenschluessel": "05974000000808818", "bezeichnung": "Neuer Weg" }, "geometry": { "type": "Point", "coordinates": [ 8.181694127083775, 51.56647460483066 ] } },
{ "type": "Feature", "properties": { "strassenschluessel": "05974000000808819", "bezeichnung": "Oberm Teich" }, "geometry": { "type": "Point", "coordinates": [ 8.180952993550541, 51.585628015222348 ] } },
{ "type": "Feature", "properties": { "strassenschluessel": "05974000000808820", "bezeichnung": "Rennweg" }, "geometry": { "type": "Point", "coordinates": [ 8.176552974653836, 51.582089695051486 ] } },
{ "type": "Feature", "properties": { "strassenschluessel": "05974000000808821", "bezeichnung": "Sauerstraße" }, "geometry": { "type": "Point", "coordinates": [ 8.187184672011064, 51.586716065284634 ] } },
{ "type": "Feature", "properties": { "strassenschluessel": "05974000000808822", "bezeichnung": "Schallerweg" }, "geometry": { "type": "Point", "coordinates": [ 8.189812397277782, 51.590500706912266 ] } },
{ "type": "Feature", "properties": { "strassenschluessel": "05974000000808823", "bezeichnung": "Schleppsgraben" }, "geometry": { "type": "Point", "coordinates": [ 8.190693698767149, 51.588906121546842 ] } },
{ "type": "Feature", "properties": { "strassenschluessel": "05974000000808824", "bezeichnung": "Steinacker" }, "geometry": { "type": "Point", "coordinates": [ 8.183449714869235, 51.583786274515717 ] } },
{ "type": "Feature", "properties": { "strassenschluessel": "05974000000808825", "bezeichnung": "Teichstraße" }, "geometry": { "type": "Point", "coordinates": [ 8.1864727646714, 51.586977488308513 ] } },
{ "type": "Feature", "properties": { "strassenschluessel": "05974000000808826", "bezeichnung": "Unter den Bäumen" }, "geometry": { "type": "Point", "coordinates": [ 8.183364472420406, 51.588306840671237 ] } },
{ "type": "Feature", "properties": { "strassenschluessel": "05974000000808827", "bezeichnung": "Wegener Straße" }, "geometry": { "type": "Point", "coordinates": [ 8.187949646448589, 51.588709419666372 ] } },
{ "type": "Feature", "properties": { "strassenschluessel": "05974000000808828", "bezeichnung": "Lohner Höhe" }, "geometry": { "type": "Point", "coordinates": [ 8.177716419713571, 51.586291649072578 ] } },
{ "type": "Feature", "properties": { "strassenschluessel": "05974000000808829", "bezeichnung": "Lohweg" }, "geometry": { "type": "Point", "coordinates": [ 8.176614905256661, 51.585441943359271 ] } },
{ "type": "Feature", "properties": { "strassenschluessel": "05974000000808830", "bezeichnung": "Landerpfad" }, "geometry": { "type": "Point", "coordinates": [ 8.181606846091903, 51.587852085552157 ] } },
{ "type": "Feature", "properties": { "strassenschluessel": "05974000000808831", "bezeichnung": "Homegge" }, "geometry": { "type": "Point", "coordinates": [ 8.179115643924625, 51.584109726456006 ] } },
{ "type": "Feature", "properties": { "strassenschluessel": "05974000000808832", "bezeichnung": "Auf der Kluse" }, "geometry": { "type": "Point", "coordinates": [ 8.17950119935305, 51.584727111244788 ] } },
{ "type": "Feature", "properties": { "strassenschluessel": "05974000000808833", "bezeichnung": "Albert-Otto-Weg" }, "geometry": { "type": "Point", "coordinates": [ 8.180591101901298, 51.586983386556838 ] } },
{ "type": "Feature", "properties": { "strassenschluessel": "05974000000808834", "bezeichnung": "Steinkuhler Weg" }, "geometry": { "type": "Point", "coordinates": [ 8.185420194205594, 51.579058370068211 ] } },
{ "type": "Feature", "properties": { "strassenschluessel": "05974000000808835", "bezeichnung": "Im Lohner Klei" }, "geometry": null },
{ "type": "Feature", "properties": { "strassenschluessel": "05974000000808836", "bezeichnung": "Rauklohweg" }, "geometry": { "type": "Point", "coordinates": [ 8.182581750972265, 51.584549463943773 ] } },
{ "type": "Feature", "properties": { "strassenschluessel": "05974000000808837", "bezeichnung": "Schleddebreite" }, "geometry": { "type": "Point", "coordinates": [ 8.180784351642988, 51.583325151729284 ] } },
{ "type": "Feature", "properties": { "strassenschluessel": "05974000000808838", "bezeichnung": "An der Helle" }, "geometry": { "type": "Point", "coordinates": [ 8.189945171758595, 51.564155091680838 ] } },
{ "type": "Feature", "properties": { "strassenschluessel": "05974000000808839", "bezeichnung": "Hagenbusch" }, "geometry": { "type": "Point", "coordinates": [ 8.185414877848192, 51.565008700284395 ] } },
{ "type": "Feature", "properties": { "strassenschluessel": "05974000000808840", "bezeichnung": "Lohrbusch" }, "geometry": { "type": "Point", "coordinates": [ 8.187102357204617, 51.567290820621331 ] } },
{ "type": "Feature", "properties": { "strassenschluessel": "05974000000808841", "bezeichnung": "Tiefen Stette" }, "geometry": { "type": "Point", "coordinates": [ 8.187587752816803, 51.564974622280708 ] } },
{ "type": "Feature", "properties": { "strassenschluessel": "05974000000808842", "bezeichnung": "Westerklei" }, "geometry": { "type": "Point", "coordinates": [ 8.18475859063307, 51.566437225282179 ] } },
{ "type": "Feature", "properties": { "strassenschluessel": "05974000000808843", "bezeichnung": "Auf'm Alten Garten" }, "geometry": { "type": "Point", "coordinates": [ 8.191600427141035, 51.589527012886812 ] } },
{ "type": "Feature", "properties": { "strassenschluessel": "05974000000808844", "bezeichnung": "Unter den Linden" }, "geometry": { "type": "Point", "coordinates": [ 8.186213249514189, 51.586108124468673 ] } },
{ "type": "Feature", "properties": { "strassenschluessel": "05974000000808845", "bezeichnung": "Oberm Hellweg" }, "geometry": { "type": "Point", "coordinates": [ 8.184332805869968, 51.58491969933965 ] } },
{ "type": "Feature", "properties": { "strassenschluessel": "05974000000808846", "bezeichnung": "Papierne Trift" }, "geometry": { "type": "Point", "coordinates": [ 8.185254381743603, 51.594355338037609 ] } },
{ "type": "Feature", "properties": { "strassenschluessel": "05974000000808847", "bezeichnung": "Alter Hellweg" }, "geometry": { "type": "Point", "coordinates": [ 8.176689914658464, 51.582871477628068 ] } },
{ "type": "Feature", "properties": { "strassenschluessel": "05974000000808848", "bezeichnung": "Loerbrockshof" }, "geometry": { "type": "Point", "coordinates": [ 8.190973975384439, 51.602832226538766 ] } },
{ "type": "Feature", "properties": { "strassenschluessel": "05974000000808849", "bezeichnung": "Sielenkamp" }, "geometry": { "type": "Point", "coordinates": [ 8.183164338572357, 51.565626378970606 ] } },
{ "type": "Feature", "properties": { "strassenschluessel": "05974000000808850", "bezeichnung": "Alter Feldweg" }, "geometry": null },
{ "type": "Feature", "properties": { "strassenschluessel": "05974000000808851", "bezeichnung": "Walbke" }, "geometry": null },
{ "type": "Feature", "properties": { "strassenschluessel": "05974000000808852", "bezeichnung": "Lange Land" }, "geometry": null },
{ "type": "Feature", "properties": { "strassenschluessel": "05974000000808853", "bezeichnung": "Am Flugplatz" }, "geometry": { "type": "Point", "coordinates": [ 8.214415472082026, 51.578913439288144 ] } },
{ "type": "Feature", "properties": { "strassenschluessel": "05974000000808854", "bezeichnung": "Zum Hexenhügel" }, "geometry": null },
{ "type": "Feature", "properties": { "strassenschluessel": "05974000000808855", "bezeichnung": "Köhlingsweg" }, "geometry": null },
{ "type": "Feature", "properties": { "strassenschluessel": "05974000000808856", "bezeichnung": "Sudweg" }, "geometry": null },
{ "type": "Feature", "properties": { "strassenschluessel": "05974000000808857", "bezeichnung": "Enkeser Soestweg" }, "geometry": { "type": "Point", "coordinates": [ 8.179941644948778, 51.569411099184805 ] } },
{ "type": "Feature", "properties": { "strassenschluessel": "05974000000808858", "bezeichnung": "Lohner Weg" }, "geometry": null },
{ "type": "Feature", "properties": { "strassenschluessel": "05974000000808859", "bezeichnung": "Zum Sportplatz" }, "geometry": { "type": "Point", "coordinates": [ 8.201307602357053, 51.55682111366179 ] } },
{ "type": "Feature", "properties": { "strassenschluessel": "05974000000808860", "bezeichnung": "Am Baisenpoth" }, "geometry": { "type": "Point", "coordinates": [ 8.209382201443642, 51.548044772530432 ] } },
{ "type": "Feature", "properties": { "strassenschluessel": "05974000000808861", "bezeichnung": "Am Haienpoth" }, "geometry": { "type": "Point", "coordinates": [ 8.203542382309356, 51.555568444822896 ] } },
{ "type": "Feature", "properties": { "strassenschluessel": "05974000000808862", "bezeichnung": "Arensweg" }, "geometry": { "type": "Point", "coordinates": [ 8.209433216188875, 51.549323460014982 ] } },
{ "type": "Feature", "properties": { "strassenschluessel": "05974000000808863", "bezeichnung": "Beusingser Straße" }, "geometry": { "type": "Point", "coordinates": [ 8.201847974265839, 51.54952578776782 ] } },
{ "type": "Feature", "properties": { "strassenschluessel": "05974000000808864", "bezeichnung": "Bierpfad" }, "geometry": { "type": "Point", "coordinates": [ 8.186767767095713, 51.556143956194191 ] } },
{ "type": "Feature", "properties": { "strassenschluessel": "05974000000808865", "bezeichnung": "Enkeser Straße" }, "geometry": { "type": "Point", "coordinates": [ 8.204424630946676, 51.553388675226486 ] } },
{ "type": "Feature", "properties": { "strassenschluessel": "05974000000808866", "bezeichnung": "Im Sonnenkamp" }, "geometry": { "type": "Point", "coordinates": [ 8.198836587522953, 51.547393753911386 ] } },
{ "type": "Feature", "properties": { "strassenschluessel": "05974000000808867", "bezeichnung": "Kastenweg" }, "geometry": { "type": "Point", "coordinates": [ 8.207614036341809, 51.549038871247447 ] } },
{ "type": "Feature", "properties": { "strassenschluessel": "05974000000808868", "bezeichnung": "Neuengeseker Heide" }, "geometry": { "type": "Point", "coordinates": [ 8.203334287306753, 51.54037726187417 ] } },
{ "type": "Feature", "properties": { "strassenschluessel": "05974000000808869", "bezeichnung": "Oberdorf" }, "geometry": { "type": "Point", "coordinates": [ 8.20789446925601, 51.550256902739029 ] } },
{ "type": "Feature", "properties": { "strassenschluessel": "05974000000808870", "bezeichnung": "Schluppergasse" }, "geometry": { "type": "Point", "coordinates": [ 8.205013929750146, 51.549657691001663 ] } },
{ "type": "Feature", "properties": { "strassenschluessel": "05974000000808871", "bezeichnung": "Alter Steinweg" }, "geometry": null },
{ "type": "Feature", "properties": { "strassenschluessel": "05974000000808872", "bezeichnung": "Zum Kämpchen" }, "geometry": { "type": "Point", "coordinates": [ 8.209512141095104, 51.554608847339637 ] } },
{ "type": "Feature", "properties": { "strassenschluessel": "05974000000808873", "bezeichnung": "Am Eichenwald" }, "geometry": { "type": "Point", "coordinates": [ 8.206966302349313, 51.554466656228854 ] } },
{ "type": "Feature", "properties": { "strassenschluessel": "05974000000808874", "bezeichnung": "An den Weiden" }, "geometry": { "type": "Point", "coordinates": [ 8.208202367495677, 51.55505853753742 ] } },
{ "type": "Feature", "properties": { "strassenschluessel": "05974000000808875", "bezeichnung": "In der Lanner" }, "geometry": { "type": "Point", "coordinates": [ 8.195657668027732, 51.539879537963294 ] } },
{ "type": "Feature", "properties": { "strassenschluessel": "05974000000808876", "bezeichnung": "Ruhnausweg" }, "geometry": { "type": "Point", "coordinates": [ 8.201639921444009, 51.542612118634132 ] } },
{ "type": "Feature", "properties": { "strassenschluessel": "05974000000808877", "bezeichnung": "Schenzerweg" }, "geometry": { "type": "Point", "coordinates": [ 8.202341361260411, 51.544432021564198 ] } },
{ "type": "Feature", "properties": { "strassenschluessel": "05974000000808878", "bezeichnung": "Herringser Höfe" }, "geometry": { "type": "Point", "coordinates": [ 8.201457177655657, 51.541642973291054 ] } },
{ "type": "Feature", "properties": { "strassenschluessel": "05974000000808879", "bezeichnung": "Niederster Weg" }, "geometry": null },
{ "type": "Feature", "properties": { "strassenschluessel": "05974000000808880", "bezeichnung": "Lohner Weg" }, "geometry": null },
{ "type": "Feature", "properties": { "strassenschluessel": "05974000000808881", "bezeichnung": "Warteweg" }, "geometry": null },
{ "type": "Feature", "properties": { "strassenschluessel": "05974000000808882", "bezeichnung": "Unter den Weiden" }, "geometry": null },
{ "type": "Feature", "properties": { "strassenschluessel": "05974000000808883", "bezeichnung": "Grünnersweg" }, "geometry": null },
{ "type": "Feature", "properties": { "strassenschluessel": "05974000000808884", "bezeichnung": "Neuengeseker Grenzweg" }, "geometry": null },
{ "type": "Feature", "properties": { "strassenschluessel": "05974000000808885", "bezeichnung": "An der Holzstraße" }, "geometry": null },
{ "type": "Feature", "properties": { "strassenschluessel": "05974000000808886", "bezeichnung": "An der Kegelbreite" }, "geometry": null },
{ "type": "Feature", "properties": { "strassenschluessel": "05974000000808887", "bezeichnung": "An Rötgers Kuhle" }, "geometry": null },
{ "type": "Feature", "properties": { "strassenschluessel": "05974000000808888", "bezeichnung": "Am Brassen Hof" }, "geometry": null },
{ "type": "Feature", "properties": { "strassenschluessel": "05974000000808891", "bezeichnung": "Opmünden" }, "geometry": null },
{ "type": "Feature", "properties": { "strassenschluessel": "05974000000808892", "bezeichnung": "Aakweg" }, "geometry": { "type": "Point", "coordinates": [ 8.164403082959302, 51.55825161086446 ] } },
{ "type": "Feature", "properties": { "strassenschluessel": "05974000000808893", "bezeichnung": "Am Eichweg" }, "geometry": { "type": "Point", "coordinates": [ 8.159147773272148, 51.558402900552764 ] } },
{ "type": "Feature", "properties": { "strassenschluessel": "05974000000808894", "bezeichnung": "Auf dem Hügel" }, "geometry": { "type": "Point", "coordinates": [ 8.163342702435733, 51.561779139080954 ] } },
{ "type": "Feature", "properties": { "strassenschluessel": "05974000000808895", "bezeichnung": "Auf den Höfen" }, "geometry": { "type": "Point", "coordinates": [ 8.161173172997616, 51.559099671066996 ] } },
{ "type": "Feature", "properties": { "strassenschluessel": "05974000000808896", "bezeichnung": "Auf der Bauer" }, "geometry": { "type": "Point", "coordinates": [ 8.16368124154322, 51.559948671388312 ] } },
{ "type": "Feature", "properties": { "strassenschluessel": "05974000000808897", "bezeichnung": "Auf der Hege" }, "geometry": { "type": "Point", "coordinates": [ 8.168910233549747, 51.555116624484917 ] } },
{ "type": "Feature", "properties": { "strassenschluessel": "05974000000808898", "bezeichnung": "Dunkler Weg" }, "geometry": { "type": "Point", "coordinates": [ 8.16178631819224, 51.558810135604233 ] } },
{ "type": "Feature", "properties": { "strassenschluessel": "05974000000808899", "bezeichnung": "In der Steinkuhle" }, "geometry": { "type": "Point", "coordinates": [ 8.168055792696144, 51.556321610963678 ] } },
{ "type": "Feature", "properties": { "strassenschluessel": "05974000000808900", "bezeichnung": "Opmünder Weg" }, "geometry": { "type": "Point", "coordinates": [ 8.167592758387899, 51.578066276827919 ] } },
{ "type": "Feature", "properties": { "strassenschluessel": "05974000000808901", "bezeichnung": "Twiete" }, "geometry": { "type": "Point", "coordinates": [ 8.162641731110613, 51.560202237947358 ] } },
{ "type": "Feature", "properties": { "strassenschluessel": "05974000000808902", "bezeichnung": "Niederster Weg" }, "geometry": null },
{ "type": "Feature", "properties": { "strassenschluessel": "05974000000808903", "bezeichnung": "Bierpfad" }, "geometry": null },
{ "type": "Feature", "properties": { "strassenschluessel": "05974000000808904", "bezeichnung": "Auf der Fahlen Breite" }, "geometry": null },
{ "type": "Feature", "properties": { "strassenschluessel": "05974000000808905", "bezeichnung": "Schüttweg" }, "geometry": null },
{ "type": "Feature", "properties": { "strassenschluessel": "05974000000808921", "bezeichnung": "Ahseweg" }, "geometry": { "type": "Point", "coordinates": [ 8.18044087345381, 51.635080635177133 ] } },
{ "type": "Feature", "properties": { "strassenschluessel": "05974000000808922", "bezeichnung": "Bettinghauser Straße" }, "geometry": null },
{ "type": "Feature", "properties": { "strassenschluessel": "05974000000808923", "bezeichnung": "Eickelborner Straße" }, "geometry": { "type": "Point", "coordinates": [ 8.202214262185279, 51.637673814613628 ] } },
{ "type": "Feature", "properties": { "strassenschluessel": "05974000000808924", "bezeichnung": "Hauptstraße" }, "geometry": { "type": "Point", "coordinates": [ 8.195865600641474, 51.633290467022618 ] } },
{ "type": "Feature", "properties": { "strassenschluessel": "05974000000808925", "bezeichnung": "Haus Düsse" }, "geometry": { "type": "Point", "coordinates": [ 8.190089150507003, 51.636096089689417 ] } },
{ "type": "Feature", "properties": { "strassenschluessel": "05974000000808926", "bezeichnung": "Horstweg" }, "geometry": { "type": "Point", "coordinates": [ 8.196780932021296, 51.636880832174732 ] } },
{ "type": "Feature", "properties": { "strassenschluessel": "05974000000808927", "bezeichnung": "Im stillen Grund" }, "geometry": { "type": "Point", "coordinates": [ 8.207220611129779, 51.641452929848732 ] } },
{ "type": "Feature", "properties": { "strassenschluessel": "05974000000808928", "bezeichnung": "Kampstraße" }, "geometry": { "type": "Point", "coordinates": [ 8.202821477536709, 51.635031163699139 ] } },
{ "type": "Feature", "properties": { "strassenschluessel": "05974000000808929", "bezeichnung": "Kirchstraße" }, "geometry": { "type": "Point", "coordinates": [ 8.196694239228471, 51.634841348524375 ] } },
{ "type": "Feature", "properties": { "strassenschluessel": "05974000000808930", "bezeichnung": "Loher Straße" }, "geometry": { "type": "Point", "coordinates": [ 8.203498111455437, 51.636044895858049 ] } },
{ "type": "Feature", "properties": { "strassenschluessel": "05974000000808931", "bezeichnung": "Lütgen Busch" }, "geometry": { "type": "Point", "coordinates": [ 8.207267887850515, 51.642633563269207 ] } },
{ "type": "Feature", "properties": { "strassenschluessel": "05974000000808932", "bezeichnung": "Neuenkamp" }, "geometry": { "type": "Point", "coordinates": [ 8.201595777363439, 51.641853400734306 ] } },
{ "type": "Feature", "properties": { "strassenschluessel": "05974000000808933", "bezeichnung": "Schoneberger Straße" }, "geometry": { "type": "Point", "coordinates": [ 8.19592308282999, 51.636556267570846 ] } },
{ "type": "Feature", "properties": { "strassenschluessel": "05974000000808934", "bezeichnung": "Schulstraße" }, "geometry": { "type": "Point", "coordinates": [ 8.202976635379889, 51.635404725865129 ] } },
{ "type": "Feature", "properties": { "strassenschluessel": "05974000000808935", "bezeichnung": "Überm Dorf" }, "geometry": { "type": "Point", "coordinates": [ 8.198231293882275, 51.636319940844928 ] } },
{ "type": "Feature", "properties": { "strassenschluessel": "05974000000808936", "bezeichnung": "Waldweg" }, "geometry": { "type": "Point", "coordinates": [ 8.195353891684908, 51.635920232635883 ] } },
{ "type": "Feature", "properties": { "strassenschluessel": "05974000000808937", "bezeichnung": "Auf der Horst" }, "geometry": { "type": "Point", "coordinates": [ 8.200523422108001, 51.63738395834195 ] } },
{ "type": "Feature", "properties": { "strassenschluessel": "05974000000808938", "bezeichnung": "Zum Ostfeld" }, "geometry": null },
{ "type": "Feature", "properties": { "strassenschluessel": "05974000000808939", "bezeichnung": "Zum Süßholz" }, "geometry": null },
{ "type": "Feature", "properties": { "strassenschluessel": "05974000000808940", "bezeichnung": "Lippweg" }, "geometry": null },
{ "type": "Feature", "properties": { "strassenschluessel": "05974000000808941", "bezeichnung": "Weg zur Brunecke" }, "geometry": null },
{ "type": "Feature", "properties": { "strassenschluessel": "05974000000808942", "bezeichnung": "Woesteweg" }, "geometry": null },
{ "type": "Feature", "properties": { "strassenschluessel": "05974000000808943", "bezeichnung": "Zur Dornheide" }, "geometry": null },
{ "type": "Feature", "properties": { "strassenschluessel": "05974000000808944", "bezeichnung": "Kalthof Weg" }, "geometry": null },
{ "type": "Feature", "properties": { "strassenschluessel": "05974000000808945", "bezeichnung": "Loher Weg" }, "geometry": null },
{ "type": "Feature", "properties": { "strassenschluessel": "05974000000808946", "bezeichnung": "Am Hellenbrink" }, "geometry": { "type": "Point", "coordinates": [ 8.203129697253901, 51.636852783707965 ] } },
{ "type": "Feature", "properties": { "strassenschluessel": "05974000000808951", "bezeichnung": "Bettinghauser Weg" }, "geometry": { "type": "Point", "coordinates": [ 8.169754693362224, 51.620415025193878 ] } },
{ "type": "Feature", "properties": { "strassenschluessel": "05974000000808952", "bezeichnung": "Dorfstraße" }, "geometry": { "type": "Point", "coordinates": [ 8.167849659702517, 51.622142630301866 ] } },
{ "type": "Feature", "properties": { "strassenschluessel": "05974000000808953", "bezeichnung": "Haus Ahse" }, "geometry": { "type": "Point", "coordinates": [ 8.154625076016009, 51.635838221511797 ] } },
{ "type": "Feature", "properties": { "strassenschluessel": "05974000000808954", "bezeichnung": "Hovestädter Weg" }, "geometry": { "type": "Point", "coordinates": [ 8.163332149440528, 51.624487307130472 ] } },
{ "type": "Feature", "properties": { "strassenschluessel": "05974000000808955", "bezeichnung": "Im Kuhlen" }, "geometry": { "type": "Point", "coordinates": [ 8.159630173844135, 51.623477296326257 ] } },
{ "type": "Feature", "properties": { "strassenschluessel": "05974000000808956", "bezeichnung": "Im Wiemhof" }, "geometry": { "type": "Point", "coordinates": [ 8.164476462933992, 51.621755496881086 ] } },
{ "type": "Feature", "properties": { "strassenschluessel": "05974000000808957", "bezeichnung": "Kirchkamp" }, "geometry": { "type": "Point", "coordinates": [ 8.165561971512686, 51.619890323205652 ] } },
{ "type": "Feature", "properties": { "strassenschluessel": "05974000000808958", "bezeichnung": "Lehmweg" }, "geometry": { "type": "Point", "coordinates": [ 8.159318935012333, 51.620399040807406 ] } },
{ "type": "Feature", "properties": { "strassenschluessel": "05974000000808959", "bezeichnung": "Mühlengasse" }, "geometry": { "type": "Point", "coordinates": [ 8.164294234704808, 51.618865605837271 ] } },
{ "type": "Feature", "properties": { "strassenschluessel": "05974000000808960", "bezeichnung": "Mühlenweg" }, "geometry": { "type": "Point", "coordinates": [ 8.165936648376926, 51.61831416706179 ] } },
{ "type": "Feature", "properties": { "strassenschluessel": "05974000000808961", "bezeichnung": "Sieningsen" }, "geometry": null },
{ "type": "Feature", "properties": { "strassenschluessel": "05974000000808962", "bezeichnung": "Staken Weg" }, "geometry": { "type": "Point", "coordinates": [ 8.166465132299386, 51.623968817708743 ] } },
{ "type": "Feature", "properties": { "strassenschluessel": "05974000000808963", "bezeichnung": "Erbrocksweg" }, "geometry": { "type": "Point", "coordinates": [ 8.152283894263892, 51.615010105099515 ] } },
{ "type": "Feature", "properties": { "strassenschluessel": "05974000000808964", "bezeichnung": "Boven Hoten" }, "geometry": { "type": "Point", "coordinates": [ 8.158012810598091, 51.622405913055111 ] } },
{ "type": "Feature", "properties": { "strassenschluessel": "05974000000808965", "bezeichnung": "Grüner Weg" }, "geometry": { "type": "Point", "coordinates": [ 8.159407798507779, 51.621291165347756 ] } },
{ "type": "Feature", "properties": { "strassenschluessel": "05974000000808966", "bezeichnung": "Zum Stüttie" }, "geometry": { "type": "Point", "coordinates": [ 8.158881366969938, 51.622142035089936 ] } },
{ "type": "Feature", "properties": { "strassenschluessel": "05974000000808967", "bezeichnung": "Eichkampweg" }, "geometry": { "type": "Point", "coordinates": [ 8.155156805905889, 51.610121303865967 ] } },
{ "type": "Feature", "properties": { "strassenschluessel": "05974000000808968", "bezeichnung": "In den Wiesen" }, "geometry": { "type": "Point", "coordinates": [ 8.160274366466043, 51.610934172746603 ] } },
{ "type": "Feature", "properties": { "strassenschluessel": "05974000000808969", "bezeichnung": "Sieningser Weg" }, "geometry": { "type": "Point", "coordinates": [ 8.156897933122817, 51.610168897796676 ] } },
{ "type": "Feature", "properties": { "strassenschluessel": "05974000000808970", "bezeichnung": "Am Rottenbeck" }, "geometry": { "type": "Point", "coordinates": [ 8.169453102489989, 51.622214687240032 ] } },
{ "type": "Feature", "properties": { "strassenschluessel": "05974000000808971", "bezeichnung": "Hüttinghauser Weg" }, "geometry": null },
{ "type": "Feature", "properties": { "strassenschluessel": "05974000000808972", "bezeichnung": "Schmaler Patt" }, "geometry": null },
{ "type": "Feature", "properties": { "strassenschluessel": "05974000000808973", "bezeichnung": "Ahseweg" }, "geometry": null },
{ "type": "Feature", "properties": { "strassenschluessel": "05974000000808974", "bezeichnung": "Kreuzweg" }, "geometry": null },
{ "type": "Feature", "properties": { "strassenschluessel": "05974000000808975", "bezeichnung": "Im Mühlenfeld" }, "geometry": null },
{ "type": "Feature", "properties": { "strassenschluessel": "05974000000891709", "bezeichnung": "Weslarn" }, "geometry": { "type": "Point", "coordinates": [ 8.154488778983776, 51.623376497578548 ] } },
{ "type": "Feature", "properties": { "strassenschluessel": "05974000000891743", "bezeichnung": "Beusingsen" }, "geometry": { "type": "Point", "coordinates": [ 8.1677825004917, 51.553478749673388 ] } },
{ "type": "Feature", "properties": { "strassenschluessel": "05974000000891745", "bezeichnung": "Elfsen" }, "geometry": null },
{ "type": "Feature", "properties": { "strassenschluessel": "05974000000891746", "bezeichnung": "Enkesen im Klei" }, "geometry": null },
{ "type": "Feature", "properties": { "strassenschluessel": "05974000000891747", "bezeichnung": "Heppen" }, "geometry": null },
{ "type": "Feature", "properties": { "strassenschluessel": "05974000000891748", "bezeichnung": "Herringsen" }, "geometry": null },
{ "type": "Feature", "properties": { "strassenschluessel": "05974000000891751", "bezeichnung": "Lohne" }, "geometry": null },
{ "type": "Feature", "properties": { "strassenschluessel": "05974000000891753", "bezeichnung": "Neuengeseke" }, "geometry": { "type": "Point", "coordinates": [ 8.195346286702566, 51.548587844292221 ] } },
{ "type": "Feature", "properties": { "strassenschluessel": "05974000000891754", "bezeichnung": "Opmünden" }, "geometry": null },
{ "type": "Feature", "properties": { "strassenschluessel": "05974000000891756", "bezeichnung": "Sassendorf" }, "geometry": { "type": "Point", "coordinates": [ 8.173220952945091, 51.576166784080925 ] } },
{ "type": "Feature", "properties": { "strassenschluessel": "05974000000891757", "bezeichnung": "Bettinghausen" }, "geometry": null },
{ "type": "Feature", "properties": { "strassenschluessel": "05974000000891766", "bezeichnung": "Ostinghausen" }, "geometry": { "type": "Point", "coordinates": [ 8.194344294728172, 51.634053246221747 ] } },
{ "type": "Feature", "properties": { "strassenschluessel": "05974000000891925", "bezeichnung": "Gabrechten" }, "geometry": null }
]
}
