{
"type": "FeatureCollection",
"features": [
{ "type": "Feature", "properties": { "strassenschluessel": "05958000000803501", "bezeichnung": "Am Knochen" }, "geometry": { "type": "Point", "coordinates": [ 8.405462603723135, 51.361982481455016 ] } },
{ "type": "Feature", "properties": { "strassenschluessel": "05958000000803502", "bezeichnung": "Am Breberg" }, "geometry": { "type": "Point", "coordinates": [ 8.403296394176841, 51.36090860911186 ] } },
{ "type": "Feature", "properties": { "strassenschluessel": "05958000000803503", "bezeichnung": "Bergkloster" }, "geometry": { "type": "Point", "coordinates": [ 8.404696039368311, 51.360392859354455 ] } },
{ "type": "Feature", "properties": { "strassenschluessel": "05958000000803504", "bezeichnung": "Bundesstraße" }, "geometry": { "type": "Point", "coordinates": [ 8.398985056678352, 51.362021620976535 ] } },
{ "type": "Feature", "properties": { "strassenschluessel": "05958000000803505", "bezeichnung": "Am Bähnchen" }, "geometry": { "type": "Point", "coordinates": [ 8.404650463907274, 51.357180082294562 ] } },
{ "type": "Feature", "properties": { "strassenschluessel": "05958000000803506", "bezeichnung": "Marienstraße" }, "geometry": { "type": "Point", "coordinates": [ 8.402049468807503, 51.359406981823298 ] } },
{ "type": "Feature", "properties": { "strassenschluessel": "05958000000803507", "bezeichnung": "Ludwigstraße" }, "geometry": { "type": "Point", "coordinates": [ 8.400162304270454, 51.360653192173302 ] } },
{ "type": "Feature", "properties": { "strassenschluessel": "05958000000803508", "bezeichnung": "Heringhauser Straße" }, "geometry": { "type": "Point", "coordinates": [ 8.406211825047972, 51.352530515827752 ] } },
{ "type": "Feature", "properties": { "strassenschluessel": "05958000000803509", "bezeichnung": "Heinrich-Heine-Straße" }, "geometry": { "type": "Point", "coordinates": [ 8.396966164289195, 51.358532402023755 ] } },
{ "type": "Feature", "properties": { "strassenschluessel": "05958000000803510", "bezeichnung": "Ruhrstraße" }, "geometry": { "type": "Point", "coordinates": [ 8.391701351516732, 51.360353907168964 ] } },
{ "type": "Feature", "properties": { "strassenschluessel": "05958000000803511", "bezeichnung": "Antoniusstraße" }, "geometry": { "type": "Point", "coordinates": [ 8.397793436380319, 51.361013059524971 ] } },
{ "type": "Feature", "properties": { "strassenschluessel": "05958000000803512", "bezeichnung": "Im Wiebusch" }, "geometry": { "type": "Point", "coordinates": [ 8.39502508393516, 51.360531714621487 ] } },
{ "type": "Feature", "properties": { "strassenschluessel": "05958000000803513", "bezeichnung": "Hermann-Löns-Straße" }, "geometry": { "type": "Point", "coordinates": [ 8.395941837766001, 51.359088580218085 ] } },
{ "type": "Feature", "properties": { "strassenschluessel": "05958000000803514", "bezeichnung": "A.v.Droste-Hülshoff-Weg" }, "geometry": { "type": "Point", "coordinates": [ 8.395179405501935, 51.359189898813987 ] } },
{ "type": "Feature", "properties": { "strassenschluessel": "05958000000803515", "bezeichnung": "Friedr.-Wilhelm-Weber-Weg" }, "geometry": { "type": "Point", "coordinates": [ 8.396589843902083, 51.35937944932494 ] } },
{ "type": "Feature", "properties": { "strassenschluessel": "05958000000803516", "bezeichnung": "Christine-Koch-Weg" }, "geometry": { "type": "Point", "coordinates": [ 8.396979387971848, 51.36000059376606 ] } },
{ "type": "Feature", "properties": { "strassenschluessel": "05958000000803517", "bezeichnung": "Wilhelm-Busch-Weg" }, "geometry": { "type": "Point", "coordinates": [ 8.398638641414841, 51.359641436956863 ] } },
{ "type": "Feature", "properties": { "strassenschluessel": "05958000000803518", "bezeichnung": "Grimmestraße" }, "geometry": { "type": "Point", "coordinates": [ 8.395110966096723, 51.357582736999348 ] } },
{ "type": "Feature", "properties": { "strassenschluessel": "05958000000803519", "bezeichnung": "Vereinsstraße" }, "geometry": { "type": "Point", "coordinates": [ 8.393238598779634, 51.359828856343746 ] } },
{ "type": "Feature", "properties": { "strassenschluessel": "05958000000803520", "bezeichnung": "Friedensstraße" }, "geometry": { "type": "Point", "coordinates": [ 8.39258673570578, 51.358765450171958 ] } },
{ "type": "Feature", "properties": { "strassenschluessel": "05958000000803521", "bezeichnung": "Am Stode" }, "geometry": { "type": "Point", "coordinates": [ 8.394686083793538, 51.358017205881325 ] } },
{ "type": "Feature", "properties": { "strassenschluessel": "05958000000803522", "bezeichnung": "Zum Bergkloster" }, "geometry": { "type": "Point", "coordinates": [ 8.406673023576072, 51.361848979848396 ] } },
{ "type": "Feature", "properties": { "strassenschluessel": "05958000000803523", "bezeichnung": "Kapellenstraße" }, "geometry": { "type": "Point", "coordinates": [ 8.39441961803303, 51.357076464579301 ] } },
{ "type": "Feature", "properties": { "strassenschluessel": "05958000000803524", "bezeichnung": "Westfeld" }, "geometry": { "type": "Point", "coordinates": [ 8.406918109705233, 51.362965198425094 ] } },
{ "type": "Feature", "properties": { "strassenschluessel": "05958000000803525", "bezeichnung": "Borghausen" }, "geometry": { "type": "Point", "coordinates": [ 8.412625445288816, 51.366701934076751 ] } },
{ "type": "Feature", "properties": { "strassenschluessel": "05958000000803526", "bezeichnung": "Rathausplatz" }, "geometry": { "type": "Point", "coordinates": [ 8.40143844667764, 51.360808186407397 ] } },
{ "type": "Feature", "properties": { "strassenschluessel": "05958000000803527", "bezeichnung": "Am Alten Güterbahnhof" }, "geometry": { "type": "Point", "coordinates": [ 8.402990933166022, 51.363145902057539 ] } },
{ "type": "Feature", "properties": { "strassenschluessel": "05958000000803528", "bezeichnung": "Hegeners Feld" }, "geometry": { "type": "Point", "coordinates": [ 8.39936051910399, 51.359195959911716 ] } },
{ "type": "Feature", "properties": { "strassenschluessel": "05958000000803529", "bezeichnung": "Thomas-Mann-Straße" }, "geometry": { "type": "Point", "coordinates": [ 8.395790850742859, 51.358061960989303 ] } },
{ "type": "Feature", "properties": { "strassenschluessel": "05958000000803530", "bezeichnung": "Kellhöhle" }, "geometry": { "type": "Point", "coordinates": [ 8.398668957427285, 51.356330178220603 ] } },
{ "type": "Feature", "properties": { "strassenschluessel": "05958000000803540", "bezeichnung": "Bundesstraße" }, "geometry": { "type": "Point", "coordinates": [ 8.371771759556733, 51.356731088509108 ] } },
{ "type": "Feature", "properties": { "strassenschluessel": "05958000000803543", "bezeichnung": "Manhennenweg" }, "geometry": { "type": "Point", "coordinates": [ 8.391845510016783, 51.357921360182203 ] } },
{ "type": "Feature", "properties": { "strassenschluessel": "05958000000803544", "bezeichnung": "Zum Schützenplatz" }, "geometry": { "type": "Point", "coordinates": [ 8.388922619618066, 51.358401173447703 ] } },
{ "type": "Feature", "properties": { "strassenschluessel": "05958000000803545", "bezeichnung": "Gartenstraße" }, "geometry": { "type": "Point", "coordinates": [ 8.389751118650793, 51.358414465806682 ] } },
{ "type": "Feature", "properties": { "strassenschluessel": "05958000000803546", "bezeichnung": "Kapellenstraße" }, "geometry": { "type": "Point", "coordinates": [ 8.391102606335007, 51.357611025242441 ] } },
{ "type": "Feature", "properties": { "strassenschluessel": "05958000000803547", "bezeichnung": "Zum Ostenberg" }, "geometry": { "type": "Point", "coordinates": [ 8.386492521456164, 51.357105477396345 ] } },
{ "type": "Feature", "properties": { "strassenschluessel": "05958000000803548", "bezeichnung": "Andreasstraße" }, "geometry": { "type": "Point", "coordinates": [ 8.388733903921937, 51.357542949040415 ] } },
{ "type": "Feature", "properties": { "strassenschluessel": "05958000000803550", "bezeichnung": "Schlesier Straße" }, "geometry": { "type": "Point", "coordinates": [ 8.389181617072873, 51.356537157206105 ] } },
{ "type": "Feature", "properties": { "strassenschluessel": "05958000000803551", "bezeichnung": "Südstraße" }, "geometry": { "type": "Point", "coordinates": [ 8.384402141212036, 51.356676327593576 ] } },
{ "type": "Feature", "properties": { "strassenschluessel": "05958000000803552", "bezeichnung": "Feldstraße" }, "geometry": { "type": "Point", "coordinates": [ 8.383161550040036, 51.356717568333998 ] } },
{ "type": "Feature", "properties": { "strassenschluessel": "05958000000803553", "bezeichnung": "Lindenweg" }, "geometry": { "type": "Point", "coordinates": [ 8.386302013428777, 51.356360449469143 ] } },
{ "type": "Feature", "properties": { "strassenschluessel": "05958000000803554", "bezeichnung": "Oberm Kirchhof" }, "geometry": { "type": "Point", "coordinates": [ 8.380463074703401, 51.355972203094225 ] } },
{ "type": "Feature", "properties": { "strassenschluessel": "05958000000803555", "bezeichnung": "Baumhofstraße" }, "geometry": { "type": "Point", "coordinates": [ 8.379135531946732, 51.35523313137621 ] } },
{ "type": "Feature", "properties": { "strassenschluessel": "05958000000803556", "bezeichnung": "Alter Kirchplatz" }, "geometry": { "type": "Point", "coordinates": [ 8.377895745047116, 51.357106948533023 ] } },
{ "type": "Feature", "properties": { "strassenschluessel": "05958000000803557", "bezeichnung": "An der Kleinen Ruhr" }, "geometry": { "type": "Point", "coordinates": [ 8.374190252799112, 51.356983148976774 ] } },
{ "type": "Feature", "properties": { "strassenschluessel": "05958000000803558", "bezeichnung": "Heimes Hof" }, "geometry": { "type": "Point", "coordinates": [ 8.373860536953254, 51.35652040903841 ] } },
{ "type": "Feature", "properties": { "strassenschluessel": "05958000000803559", "bezeichnung": "Halbeswiger Straße" }, "geometry": { "type": "Point", "coordinates": [ 8.371911567820648, 51.352279486271918 ] } },
{ "type": "Feature", "properties": { "strassenschluessel": "05958000000803560", "bezeichnung": "Elisabethstraße" }, "geometry": { "type": "Point", "coordinates": [ 8.370742767990766, 51.355797000404628 ] } },
{ "type": "Feature", "properties": { "strassenschluessel": "05958000000803561", "bezeichnung": "Veledastraße" }, "geometry": { "type": "Point", "coordinates": [ 8.370905317938512, 51.354157665777429 ] } },
{ "type": "Feature", "properties": { "strassenschluessel": "05958000000803562", "bezeichnung": "Wiemecker Straße" }, "geometry": { "type": "Point", "coordinates": [ 8.370139176463196, 51.35557443138709 ] } },
{ "type": "Feature", "properties": { "strassenschluessel": "05958000000803563", "bezeichnung": "Amselweg" }, "geometry": { "type": "Point", "coordinates": [ 8.369009800059342, 51.356072647476047 ] } },
{ "type": "Feature", "properties": { "strassenschluessel": "05958000000803564", "bezeichnung": "Finkenweg" }, "geometry": { "type": "Point", "coordinates": [ 8.368706181971797, 51.354815664878707 ] } },
{ "type": "Feature", "properties": { "strassenschluessel": "05958000000803565", "bezeichnung": "Drosselweg" }, "geometry": { "type": "Point", "coordinates": [ 8.368359250182719, 51.354979204098072 ] } },
{ "type": "Feature", "properties": { "strassenschluessel": "05958000000803566", "bezeichnung": "Meisenweg" }, "geometry": { "type": "Point", "coordinates": [ 8.369867955122677, 51.355223136456239 ] } },
{ "type": "Feature", "properties": { "strassenschluessel": "05958000000803567", "bezeichnung": "Kanalstraße" }, "geometry": { "type": "Point", "coordinates": [ 8.379323219026736, 51.360277881830662 ] } },
{ "type": "Feature", "properties": { "strassenschluessel": "05958000000803568", "bezeichnung": "Mühlenstraße" }, "geometry": { "type": "Point", "coordinates": [ 8.374240773006482, 51.358621539218767 ] } },
{ "type": "Feature", "properties": { "strassenschluessel": "05958000000803569", "bezeichnung": "Gepkerweg" }, "geometry": { "type": "Point", "coordinates": [ 8.376098503626411, 51.358957660725522 ] } },
{ "type": "Feature", "properties": { "strassenschluessel": "05958000000803570", "bezeichnung": "Am Stockey" }, "geometry": { "type": "Point", "coordinates": [ 8.374826037949031, 51.360012210805372 ] } },
{ "type": "Feature", "properties": { "strassenschluessel": "05958000000803571", "bezeichnung": "Oststraße" }, "geometry": { "type": "Point", "coordinates": [ 8.389633106006766, 51.363084710831671 ] } },
{ "type": "Feature", "properties": { "strassenschluessel": "05958000000803572", "bezeichnung": "Unterm Schieferberg" }, "geometry": { "type": "Point", "coordinates": [ 8.378581268614919, 51.358635307760927 ] } },
{ "type": "Feature", "properties": { "strassenschluessel": "05958000000803573", "bezeichnung": "Zum Hainberg" }, "geometry": { "type": "Point", "coordinates": [ 8.378824223786404, 51.359581311059465 ] } },
{ "type": "Feature", "properties": { "strassenschluessel": "05958000000803574", "bezeichnung": "Abt-Anno-Straße" }, "geometry": { "type": "Point", "coordinates": [ 8.374450102540765, 51.355147295479902 ] } },
{ "type": "Feature", "properties": { "strassenschluessel": "05958000000803575", "bezeichnung": "Rüdenbergstraße" }, "geometry": { "type": "Point", "coordinates": [ 8.376786151357271, 51.353636974354941 ] } },
{ "type": "Feature", "properties": { "strassenschluessel": "05958000000803576", "bezeichnung": "Graf-Gottfried-Straße" }, "geometry": { "type": "Point", "coordinates": [ 8.373854307987635, 51.353555654604946 ] } },
{ "type": "Feature", "properties": { "strassenschluessel": "05958000000803577", "bezeichnung": "Wilmes Kamp" }, "geometry": { "type": "Point", "coordinates": [ 8.375713978851376, 51.356105847333424 ] } },
{ "type": "Feature", "properties": { "strassenschluessel": "05958000000803578", "bezeichnung": "Dechant-Nies-Weg" }, "geometry": { "type": "Point", "coordinates": [ 8.374535700917408, 51.354531022438728 ] } },
{ "type": "Feature", "properties": { "strassenschluessel": "05958000000803579", "bezeichnung": "Hinterm Hofe" }, "geometry": { "type": "Point", "coordinates": [ 8.385534047115144, 51.360391628961963 ] } },
{ "type": "Feature", "properties": { "strassenschluessel": "05958000000803580", "bezeichnung": "Wiemecker Feld" }, "geometry": { "type": "Point", "coordinates": [ 8.355844231147589, 51.352953828628955 ] } },
{ "type": "Feature", "properties": { "strassenschluessel": "05958000000803581", "bezeichnung": "Im Öhler" }, "geometry": { "type": "Point", "coordinates": [ 8.361274067910148, 51.355256520544117 ] } },
{ "type": "Feature", "properties": { "strassenschluessel": "05958000000803582", "bezeichnung": "Femeweg" }, "geometry": { "type": "Point", "coordinates": [ 8.375028719215859, 51.354592092929906 ] } },
{ "type": "Feature", "properties": { "strassenschluessel": "05958000000803583", "bezeichnung": "Zur Hammecke" }, "geometry": { "type": "Point", "coordinates": [ 8.382424310976566, 51.360989085324135 ] } },
{ "type": "Feature", "properties": { "strassenschluessel": "05958000000803615", "bezeichnung": "Föckinghausen" }, "geometry": { "type": "Point", "coordinates": [ 8.390290781591062, 51.372013799736493 ] } },
{ "type": "Feature", "properties": { "strassenschluessel": "05958000000803616", "bezeichnung": "Nierbachtal" }, "geometry": { "type": "Point", "coordinates": [ 8.3591583616913, 51.340160841811347 ] } },
{ "type": "Feature", "properties": { "strassenschluessel": "05958000000803617", "bezeichnung": "Halbeswig" }, "geometry": { "type": "Point", "coordinates": [ 8.394803910316011, 51.34093769266245 ] } },
{ "type": "Feature", "properties": { "strassenschluessel": "05958000000803618", "bezeichnung": "Köster's Kamp" }, "geometry": { "type": "Point", "coordinates": [ 8.381386544296971, 51.356312801518072 ] } },
{ "type": "Feature", "properties": { "strassenschluessel": "05958000000803619", "bezeichnung": "An der Andreaskirche" }, "geometry": { "type": "Point", "coordinates": [ 8.376160156668183, 51.356952300206849 ] } },
{ "type": "Feature", "properties": { "strassenschluessel": "05958000000803620", "bezeichnung": "Grafschafter Weg" }, "geometry": { "type": "Point", "coordinates": [ 8.378766270436685, 51.354423236662683 ] } },
{ "type": "Feature", "properties": { "strassenschluessel": "05958000000803621", "bezeichnung": "Vereinsstraße" }, "geometry": { "type": "Point", "coordinates": [ 8.391514523193988, 51.359206737718338 ] } },
{ "type": "Feature", "properties": { "strassenschluessel": "05958000000803622", "bezeichnung": "Friedensstraße" }, "geometry": { "type": "Point", "coordinates": [ 8.392250813726347, 51.358771935860403 ] } },
{ "type": "Feature", "properties": { "strassenschluessel": "05958000000803623", "bezeichnung": "Am Stode" }, "geometry": { "type": "Point", "coordinates": [ 8.392722295299842, 51.357881865006441 ] } },
{ "type": "Feature", "properties": { "strassenschluessel": "05958000000803624", "bezeichnung": "Im Hinterfeld" }, "geometry": { "type": "Point", "coordinates": [ 8.380609789729647, 51.359704918475593 ] } },
{ "type": "Feature", "properties": { "strassenschluessel": "05958000000803632", "bezeichnung": "Alfert" }, "geometry": { "type": "Point", "coordinates": [ 8.411356953235217, 51.367210713006067 ] } },
{ "type": "Feature", "properties": { "strassenschluessel": "05958000000803633", "bezeichnung": "Am Knochen" }, "geometry": { "type": "Point", "coordinates": [ 8.407695885680798, 51.362308568259913 ] } },
{ "type": "Feature", "properties": { "strassenschluessel": "05958000000803635", "bezeichnung": "Hauptstraße" }, "geometry": { "type": "Point", "coordinates": [ 8.414619157628538, 51.363549762335239 ] } },
{ "type": "Feature", "properties": { "strassenschluessel": "05958000000803636", "bezeichnung": "Elpestraße" }, "geometry": { "type": "Point", "coordinates": [ 8.415337862128132, 51.360634164991524 ] } },
{ "type": "Feature", "properties": { "strassenschluessel": "05958000000803637", "bezeichnung": "Hangelswiese" }, "geometry": { "type": "Point", "coordinates": [ 8.415764979924131, 51.361701682017724 ] } },
{ "type": "Feature", "properties": { "strassenschluessel": "05958000000803638", "bezeichnung": "Wilhelmshöhe" }, "geometry": { "type": "Point", "coordinates": [ 8.416323771682325, 51.363724268529751 ] } },
{ "type": "Feature", "properties": { "strassenschluessel": "05958000000803639", "bezeichnung": "Zum Loh" }, "geometry": { "type": "Point", "coordinates": [ 8.419138343022839, 51.364365819204387 ] } },
{ "type": "Feature", "properties": { "strassenschluessel": "05958000000803640", "bezeichnung": "Schildstraße" }, "geometry": { "type": "Point", "coordinates": [ 8.422440494318158, 51.362348530761757 ] } },
{ "type": "Feature", "properties": { "strassenschluessel": "05958000000803641", "bezeichnung": "Mallinckrodtstraße" }, "geometry": { "type": "Point", "coordinates": [ 8.41973319001308, 51.363998762284076 ] } },
{ "type": "Feature", "properties": { "strassenschluessel": "05958000000803643", "bezeichnung": "Zum Steinberg" }, "geometry": { "type": "Point", "coordinates": [ 8.419944136951878, 51.360451376416016 ] } },
{ "type": "Feature", "properties": { "strassenschluessel": "05958000000803644", "bezeichnung": "Schieferberg" }, "geometry": { "type": "Point", "coordinates": [ 8.426343898657933, 51.365760429696387 ] } },
{ "type": "Feature", "properties": { "strassenschluessel": "05958000000803645", "bezeichnung": "Querstraße" }, "geometry": { "type": "Point", "coordinates": [ 8.418456112806934, 51.360688187959347 ] } },
{ "type": "Feature", "properties": { "strassenschluessel": "05958000000803646", "bezeichnung": "Kampstraße" }, "geometry": { "type": "Point", "coordinates": [ 8.418983011580719, 51.361628735121222 ] } },
{ "type": "Feature", "properties": { "strassenschluessel": "05958000000803647", "bezeichnung": "In der Gasse" }, "geometry": { "type": "Point", "coordinates": [ 8.41755208201957, 51.362267519843712 ] } },
{ "type": "Feature", "properties": { "strassenschluessel": "05958000000803648", "bezeichnung": "Am Kreuzfelsen" }, "geometry": { "type": "Point", "coordinates": [ 8.421278588080034, 51.362627656288396 ] } },
{ "type": "Feature", "properties": { "strassenschluessel": "05958000000803650", "bezeichnung": "Borghausen" }, "geometry": { "type": "Point", "coordinates": [ 8.408667146947669, 51.364493478331923 ] } },
{ "type": "Feature", "properties": { "strassenschluessel": "05958000000803651", "bezeichnung": "Briloner Straße" }, "geometry": { "type": "Point", "coordinates": [ 8.414706241192492, 51.36784899399111 ] } },
{ "type": "Feature", "properties": { "strassenschluessel": "05958000000803652", "bezeichnung": "Marktplatz" }, "geometry": { "type": "Point", "coordinates": [ 8.416382949755935, 51.363092647645743 ] } },
{ "type": "Feature", "properties": { "strassenschluessel": "05958000000803653", "bezeichnung": "Grabweg" }, "geometry": null },
{ "type": "Feature", "properties": { "strassenschluessel": "05958000000803654", "bezeichnung": "Rotdornweg" }, "geometry": { "type": "Point", "coordinates": [ 8.411248018743718, 51.364466541734096 ] } },
{ "type": "Feature", "properties": { "strassenschluessel": "05958000000803655", "bezeichnung": "Zum Schulzentrum" }, "geometry": { "type": "Point", "coordinates": [ 8.409491077962858, 51.363427859461197 ] } },
{ "type": "Feature", "properties": { "strassenschluessel": "05958000000803656", "bezeichnung": "Fliederweg" }, "geometry": { "type": "Point", "coordinates": [ 8.410487174909703, 51.361604783900873 ] } },
{ "type": "Feature", "properties": { "strassenschluessel": "05958000000803657", "bezeichnung": "Schlehenweg" }, "geometry": { "type": "Point", "coordinates": [ 8.411537343059809, 51.361696953262133 ] } },
{ "type": "Feature", "properties": { "strassenschluessel": "05958000000803658", "bezeichnung": "Ginsterweg" }, "geometry": { "type": "Point", "coordinates": [ 8.410753426949237, 51.360398140712292 ] } },
{ "type": "Feature", "properties": { "strassenschluessel": "05958000000803659", "bezeichnung": "Brombeerweg" }, "geometry": { "type": "Point", "coordinates": [ 8.409971973037425, 51.359845666035675 ] } },
{ "type": "Feature", "properties": { "strassenschluessel": "05958000000803660", "bezeichnung": "Auf dem Schilde" }, "geometry": { "type": "Point", "coordinates": [ 8.42363752198886, 51.363512204320834 ] } },
{ "type": "Feature", "properties": { "strassenschluessel": "05958000000803661", "bezeichnung": "Ferdinand-von-Lüninck-Straße" }, "geometry": { "type": "Point", "coordinates": [ 8.412864116451376, 51.364151018786032 ] } },
{ "type": "Feature", "properties": { "strassenschluessel": "05958000000803671", "bezeichnung": "Biggemannstraße" }, "geometry": { "type": "Point", "coordinates": [ 8.418600991786876, 51.36947294968558 ] } },
{ "type": "Feature", "properties": { "strassenschluessel": "05958000000803672", "bezeichnung": "Bergstraße" }, "geometry": { "type": "Point", "coordinates": [ 8.417791338323379, 51.3706158988563 ] } },
{ "type": "Feature", "properties": { "strassenschluessel": "05958000000803673", "bezeichnung": "Weststraße" }, "geometry": { "type": "Point", "coordinates": [ 8.416733570224842, 51.36998662730506 ] } },
{ "type": "Feature", "properties": { "strassenschluessel": "05958000000803674", "bezeichnung": "Am Sengenberg" }, "geometry": { "type": "Point", "coordinates": [ 8.412930830316075, 51.372645471603306 ] } },
{ "type": "Feature", "properties": { "strassenschluessel": "05958000000803675", "bezeichnung": "Waldstraße" }, "geometry": { "type": "Point", "coordinates": [ 8.416458627309597, 51.371675696954703 ] } },
{ "type": "Feature", "properties": { "strassenschluessel": "05958000000803676", "bezeichnung": "Zur Hohen Lith" }, "geometry": { "type": "Point", "coordinates": [ 8.418582970220864, 51.372630141277497 ] } },
{ "type": "Feature", "properties": { "strassenschluessel": "05958000000803677", "bezeichnung": "Kirchstraße" }, "geometry": { "type": "Point", "coordinates": [ 8.420348589426229, 51.369816129631751 ] } },
{ "type": "Feature", "properties": { "strassenschluessel": "05958000000803678", "bezeichnung": "Nordstraße" }, "geometry": { "type": "Point", "coordinates": [ 8.418563962801999, 51.370864192629881 ] } },
{ "type": "Feature", "properties": { "strassenschluessel": "05958000000803679", "bezeichnung": "Schützenstraße" }, "geometry": { "type": "Point", "coordinates": [ 8.42238906804578, 51.369364249627743 ] } },
{ "type": "Feature", "properties": { "strassenschluessel": "05958000000803680", "bezeichnung": "Zum Kreuzberg" }, "geometry": { "type": "Point", "coordinates": [ 8.419910309993668, 51.371293401136199 ] } },
{ "type": "Feature", "properties": { "strassenschluessel": "05958000000803681", "bezeichnung": "Mittelstraße" }, "geometry": { "type": "Point", "coordinates": [ 8.423267243159099, 51.370853105309919 ] } },
{ "type": "Feature", "properties": { "strassenschluessel": "05958000000803682", "bezeichnung": "Neuer Weg" }, "geometry": { "type": "Point", "coordinates": [ 8.42110892498363, 51.371361355987737 ] } },
{ "type": "Feature", "properties": { "strassenschluessel": "05958000000803683", "bezeichnung": "Rüthener Straße" }, "geometry": { "type": "Point", "coordinates": [ 8.42599289177252, 51.378333373250911 ] } },
{ "type": "Feature", "properties": { "strassenschluessel": "05958000000803684", "bezeichnung": "Am Roh" }, "geometry": { "type": "Point", "coordinates": [ 8.423566320806376, 51.384132000229997 ] } },
{ "type": "Feature", "properties": { "strassenschluessel": "05958000000803685", "bezeichnung": "Bachstraße" }, "geometry": { "type": "Point", "coordinates": [ 8.425518445751127, 51.371666252933586 ] } },
{ "type": "Feature", "properties": { "strassenschluessel": "05958000000803686", "bezeichnung": "Schlinkstraße" }, "geometry": { "type": "Point", "coordinates": [ 8.427324164674088, 51.369651886285752 ] } },
{ "type": "Feature", "properties": { "strassenschluessel": "05958000000803687", "bezeichnung": "Königstraße" }, "geometry": { "type": "Point", "coordinates": [ 8.426963291534719, 51.370602854195695 ] } },
{ "type": "Feature", "properties": { "strassenschluessel": "05958000000803688", "bezeichnung": "Am Abeloh" }, "geometry": { "type": "Point", "coordinates": [ 8.429553552771518, 51.371664305056619 ] } },
{ "type": "Feature", "properties": { "strassenschluessel": "05958000000803689", "bezeichnung": "Alte Briloner Straße" }, "geometry": { "type": "Point", "coordinates": [ 8.437018763040109, 51.36641607629069 ] } },
{ "type": "Feature", "properties": { "strassenschluessel": "05958000000803690", "bezeichnung": "Am Dümel" }, "geometry": { "type": "Point", "coordinates": [ 8.440238419835058, 51.366674610533217 ] } },
{ "type": "Feature", "properties": { "strassenschluessel": "05958000000803691", "bezeichnung": "Zum Dümelskopf" }, "geometry": { "type": "Point", "coordinates": [ 8.430817360229094, 51.369955833709646 ] } },
{ "type": "Feature", "properties": { "strassenschluessel": "05958000000803692", "bezeichnung": "Rosenweg" }, "geometry": { "type": "Point", "coordinates": [ 8.422603553061331, 51.371852627506449 ] } },
{ "type": "Feature", "properties": { "strassenschluessel": "05958000000803693", "bezeichnung": "Asternweg" }, "geometry": { "type": "Point", "coordinates": [ 8.421670781506098, 51.372152434438156 ] } },
{ "type": "Feature", "properties": { "strassenschluessel": "05958000000803694", "bezeichnung": "Birkenhof" }, "geometry": { "type": "Point", "coordinates": [ 8.420063976804609, 51.373720803792274 ] } },
{ "type": "Feature", "properties": { "strassenschluessel": "05958000000803695", "bezeichnung": "Tulpenstraße" }, "geometry": { "type": "Point", "coordinates": [ 8.423321261532427, 51.373965744715328 ] } },
{ "type": "Feature", "properties": { "strassenschluessel": "05958000000803696", "bezeichnung": "Grimlinghausen" }, "geometry": { "type": "Point", "coordinates": [ 8.441410534351814, 51.394492065249366 ] } },
{ "type": "Feature", "properties": { "strassenschluessel": "05958000000803697", "bezeichnung": "Briloner Straße" }, "geometry": { "type": "Point", "coordinates": [ 8.417319443270509, 51.368216223638676 ] } },
{ "type": "Feature", "properties": { "strassenschluessel": "05958000000803698", "bezeichnung": "Im Talgang" }, "geometry": { "type": "Point", "coordinates": [ 8.430765127796759, 51.372453474306639 ] } },
{ "type": "Feature", "properties": { "strassenschluessel": "05958000000803699", "bezeichnung": "St. Anna-Straße" }, "geometry": { "type": "Point", "coordinates": [ 8.418337893380768, 51.371956276406785 ] } },
{ "type": "Feature", "properties": { "strassenschluessel": "05958000000803720", "bezeichnung": "Bestwiger Straße" }, "geometry": { "type": "Point", "coordinates": [ 8.405604803171665, 51.339762860103463 ] } },
{ "type": "Feature", "properties": { "strassenschluessel": "05958000000803721", "bezeichnung": "Gevelinghauser Straße" }, "geometry": { "type": "Point", "coordinates": [ 8.408545968770502, 51.343779589651177 ] } },
{ "type": "Feature", "properties": { "strassenschluessel": "05958000000803722", "bezeichnung": "Am Hammer" }, "geometry": { "type": "Point", "coordinates": [ 8.407508261771504, 51.342798858636236 ] } },
{ "type": "Feature", "properties": { "strassenschluessel": "05958000000803723", "bezeichnung": "Im Eichborn" }, "geometry": { "type": "Point", "coordinates": [ 8.404768326604827, 51.343233052967385 ] } },
{ "type": "Feature", "properties": { "strassenschluessel": "05958000000803724", "bezeichnung": "Auf der Kohr" }, "geometry": { "type": "Point", "coordinates": [ 8.404073989819496, 51.34216628178379 ] } },
{ "type": "Feature", "properties": { "strassenschluessel": "05958000000803725", "bezeichnung": "Am Dümpel" }, "geometry": { "type": "Point", "coordinates": [ 8.405344040346794, 51.337109393769069 ] } },
{ "type": "Feature", "properties": { "strassenschluessel": "05958000000803726", "bezeichnung": "Burgstraße" }, "geometry": { "type": "Point", "coordinates": [ 8.405182244001205, 51.335563749894632 ] } },
{ "type": "Feature", "properties": { "strassenschluessel": "05958000000803727", "bezeichnung": "Friedhofstraße" }, "geometry": { "type": "Point", "coordinates": [ 8.408476624143455, 51.334000755977158 ] } },
{ "type": "Feature", "properties": { "strassenschluessel": "05958000000803728", "bezeichnung": "Professor-Hoberg-Straße" }, "geometry": { "type": "Point", "coordinates": [ 8.407997175843084, 51.336270175672887 ] } },
{ "type": "Feature", "properties": { "strassenschluessel": "05958000000803729", "bezeichnung": "Montanusstraße" }, "geometry": { "type": "Point", "coordinates": [ 8.408382816605462, 51.335639081158014 ] } },
{ "type": "Feature", "properties": { "strassenschluessel": "05958000000803730", "bezeichnung": "Steinweg" }, "geometry": { "type": "Point", "coordinates": [ 8.409399804613336, 51.332627403497227 ] } },
{ "type": "Feature", "properties": { "strassenschluessel": "05958000000803731", "bezeichnung": "Kirchplatz" }, "geometry": { "type": "Point", "coordinates": [ 8.40609883386594, 51.332911858756383 ] } },
{ "type": "Feature", "properties": { "strassenschluessel": "05958000000803732", "bezeichnung": "Berlarer Straße" }, "geometry": { "type": "Point", "coordinates": [ 8.406360234866204, 51.332132004838932 ] } },
{ "type": "Feature", "properties": { "strassenschluessel": "05958000000803733", "bezeichnung": "Tannenweg" }, "geometry": { "type": "Point", "coordinates": [ 8.406174429305654, 51.331175779053765 ] } },
{ "type": "Feature", "properties": { "strassenschluessel": "05958000000803734", "bezeichnung": "Jakobusstraße" }, "geometry": { "type": "Point", "coordinates": [ 8.405560161713154, 51.329092036352861 ] } },
{ "type": "Feature", "properties": { "strassenschluessel": "05958000000803748", "bezeichnung": "Sommerkamp" }, "geometry": { "type": "Point", "coordinates": [ 8.406789690035414, 51.317243482099592 ] } },
{ "type": "Feature", "properties": { "strassenschluessel": "05958000000803749", "bezeichnung": "Glück-Auf Straße" }, "geometry": { "type": "Point", "coordinates": [ 8.40176523002679, 51.313330857633979 ] } },
{ "type": "Feature", "properties": { "strassenschluessel": "05958000000803750", "bezeichnung": "Heinrich-Lübke-Straße" }, "geometry": { "type": "Point", "coordinates": [ 8.404334068911334, 51.304700438525636 ] } },
{ "type": "Feature", "properties": { "strassenschluessel": "05958000000803751", "bezeichnung": "Franz-Hoffmeister-Straße" }, "geometry": { "type": "Point", "coordinates": [ 8.404773802843108, 51.316208468025209 ] } },
{ "type": "Feature", "properties": { "strassenschluessel": "05958000000803752", "bezeichnung": "Auf'm Heidfeld" }, "geometry": { "type": "Point", "coordinates": [ 8.406012703253161, 51.317850783178045 ] } },
{ "type": "Feature", "properties": { "strassenschluessel": "05958000000803753", "bezeichnung": "August-Beule-Straße" }, "geometry": { "type": "Point", "coordinates": [ 8.404042511481379, 51.310638086453871 ] } },
{ "type": "Feature", "properties": { "strassenschluessel": "05958000000803754", "bezeichnung": "Sonnenhang" }, "geometry": { "type": "Point", "coordinates": [ 8.405022406929326, 51.311756392578658 ] } },
{ "type": "Feature", "properties": { "strassenschluessel": "05958000000803755", "bezeichnung": "Im Seifen" }, "geometry": { "type": "Point", "coordinates": [ 8.410069596750713, 51.306689548679358 ] } },
{ "type": "Feature", "properties": { "strassenschluessel": "05958000000803756", "bezeichnung": "Am Scheidt" }, "geometry": { "type": "Point", "coordinates": [ 8.404208334873772, 51.3075186167166 ] } },
{ "type": "Feature", "properties": { "strassenschluessel": "05958000000803757", "bezeichnung": "In der Dickwiese" }, "geometry": { "type": "Point", "coordinates": [ 8.402485069739972, 51.314255064783971 ] } },
{ "type": "Feature", "properties": { "strassenschluessel": "05958000000803758", "bezeichnung": "Am Eickhagen" }, "geometry": { "type": "Point", "coordinates": [ 8.401294914630407, 51.315734808838982 ] } },
{ "type": "Feature", "properties": { "strassenschluessel": "05958000000803759", "bezeichnung": "Birkenstraße" }, "geometry": { "type": "Point", "coordinates": [ 8.400691305036837, 51.315211086991418 ] } },
{ "type": "Feature", "properties": { "strassenschluessel": "05958000000803760", "bezeichnung": "Buchenweg" }, "geometry": { "type": "Point", "coordinates": [ 8.400149633166524, 51.315987139459544 ] } },
{ "type": "Feature", "properties": { "strassenschluessel": "05958000000803761", "bezeichnung": "Schulstraße" }, "geometry": { "type": "Point", "coordinates": [ 8.400677401648933, 51.309684806972207 ] } },
{ "type": "Feature", "properties": { "strassenschluessel": "05958000000803762", "bezeichnung": "Fichtenweg" }, "geometry": { "type": "Point", "coordinates": [ 8.399303406863934, 51.309055512325727 ] } },
{ "type": "Feature", "properties": { "strassenschluessel": "05958000000803763", "bezeichnung": "Pfannenstraße" }, "geometry": { "type": "Point", "coordinates": [ 8.40095931744179, 51.307102360642894 ] } },
{ "type": "Feature", "properties": { "strassenschluessel": "05958000000803764", "bezeichnung": "Raviele" }, "geometry": { "type": "Point", "coordinates": [ 8.40016715715519, 51.307932263312601 ] } },
{ "type": "Feature", "properties": { "strassenschluessel": "05958000000803765", "bezeichnung": "Im Kamp" }, "geometry": { "type": "Point", "coordinates": [ 8.399277127447199, 51.308420110494538 ] } },
{ "type": "Feature", "properties": { "strassenschluessel": "05958000000803766", "bezeichnung": "Uferweg" }, "geometry": { "type": "Point", "coordinates": [ 8.401447780682187, 51.307718697018764 ] } },
{ "type": "Feature", "properties": { "strassenschluessel": "05958000000803767", "bezeichnung": "Forsthaus" }, "geometry": null },
{ "type": "Feature", "properties": { "strassenschluessel": "05958000000803768", "bezeichnung": "Valmestraße" }, "geometry": { "type": "Point", "coordinates": [ 8.406134148661232, 51.300556220185165 ] } },
{ "type": "Feature", "properties": { "strassenschluessel": "05958000000803769", "bezeichnung": "Valmepochwerk" }, "geometry": { "type": "Point", "coordinates": [ 8.406046128458087, 51.282904912848956 ] } },
{ "type": "Feature", "properties": { "strassenschluessel": "05958000000803770", "bezeichnung": "Valme" }, "geometry": { "type": "Point", "coordinates": [ 8.406306102338649, 51.288176610185523 ] } },
{ "type": "Feature", "properties": { "strassenschluessel": "05958000000803771", "bezeichnung": "Sengershausen" }, "geometry": { "type": "Point", "coordinates": [ 8.420043823429383, 51.288598012083298 ] } },
{ "type": "Feature", "properties": { "strassenschluessel": "05958000000803772", "bezeichnung": "Obervalme" }, "geometry": { "type": "Point", "coordinates": [ 8.409203666036138, 51.268403673119273 ] } },
{ "type": "Feature", "properties": { "strassenschluessel": "05958000000803773", "bezeichnung": "Pfarrer-Schupmann-Straße" }, "geometry": { "type": "Point", "coordinates": [ 8.400944443099869, 51.307936250820077 ] } },
{ "type": "Feature", "properties": { "strassenschluessel": "05958000000803774", "bezeichnung": "Ziegelwiese" }, "geometry": { "type": "Point", "coordinates": [ 8.403995644449806, 51.32024515325319 ] } },
{ "type": "Feature", "properties": { "strassenschluessel": "05958000000803775", "bezeichnung": "Ahornweg" }, "geometry": { "type": "Point", "coordinates": [ 8.400441296831481, 51.314865031548216 ] } },
{ "type": "Feature", "properties": { "strassenschluessel": "05958000000803776", "bezeichnung": "Zum Eiling" }, "geometry": { "type": "Point", "coordinates": [ 8.380750952501188, 51.316735747326916 ] } },
{ "type": "Feature", "properties": { "strassenschluessel": "05958000000803777", "bezeichnung": "Zum Weihen" }, "geometry": { "type": "Point", "coordinates": [ 8.379393971510837, 51.316253843506637 ] } },
{ "type": "Feature", "properties": { "strassenschluessel": "05958000000803778", "bezeichnung": "Zum Knüll" }, "geometry": { "type": "Point", "coordinates": [ 8.381560065290676, 51.314984516711675 ] } },
{ "type": "Feature", "properties": { "strassenschluessel": "05958000000803779", "bezeichnung": "Untervalme" }, "geometry": { "type": "Point", "coordinates": [ 8.40901553557535, 51.277677988004314 ] } },
{ "type": "Feature", "properties": { "strassenschluessel": "05958000000803800", "bezeichnung": "Bastenstraße" }, "geometry": { "type": "Point", "coordinates": [ 8.381719033842964, 51.315439341530784 ] } },
{ "type": "Feature", "properties": { "strassenschluessel": "05958000000803801", "bezeichnung": "Campingplatz Valmetal" }, "geometry": { "type": "Point", "coordinates": [ 8.406953567095755, 51.286815222937179 ] } },
{ "type": "Feature", "properties": { "strassenschluessel": "05958000000803803", "bezeichnung": "Schwabenberg" }, "geometry": { "type": "Point", "coordinates": [ 8.42652566076471, 51.278167998887163 ] } },
{ "type": "Feature", "properties": { "strassenschluessel": "05958000000803804", "bezeichnung": "Carl-Haber-Straße" }, "geometry": { "type": "Point", "coordinates": [ 8.425204628604837, 51.320167169416514 ] } },
{ "type": "Feature", "properties": { "strassenschluessel": "05958000000803805", "bezeichnung": "Dorfstraße" }, "geometry": { "type": "Point", "coordinates": [ 8.42650812379023, 51.321467729437266 ] } },
{ "type": "Feature", "properties": { "strassenschluessel": "05958000000803806", "bezeichnung": "Barbarastraße" }, "geometry": { "type": "Point", "coordinates": [ 8.431593712383792, 51.324484846965568 ] } },
{ "type": "Feature", "properties": { "strassenschluessel": "05958000000803807", "bezeichnung": "Siedlung" }, "geometry": { "type": "Point", "coordinates": [ 8.431689480585547, 51.324885495854474 ] } },
{ "type": "Feature", "properties": { "strassenschluessel": "05958000000803808", "bezeichnung": "Oben Auf der Wiemhufe" }, "geometry": { "type": "Point", "coordinates": [ 8.433630551356245, 51.322978916063711 ] } },
{ "type": "Feature", "properties": { "strassenschluessel": "05958000000803809", "bezeichnung": "Am Dörnberg" }, "geometry": { "type": "Point", "coordinates": [ 8.422937485524361, 51.314533858177626 ] } },
{ "type": "Feature", "properties": { "strassenschluessel": "05958000000803810", "bezeichnung": "Bergmannspfad" }, "geometry": { "type": "Point", "coordinates": [ 8.429569186543795, 51.322566135483243 ] } },
{ "type": "Feature", "properties": { "strassenschluessel": "05958000000803820", "bezeichnung": "Aurorastraße" }, "geometry": { "type": "Point", "coordinates": [ 8.434506928185769, 51.302432829221736 ] } },
{ "type": "Feature", "properties": { "strassenschluessel": "05958000000803822", "bezeichnung": "Feriendorf 'fort-Fun'" }, "geometry": { "type": "Point", "coordinates": [ 8.436695438262268, 51.308383590698391 ] } },
{ "type": "Feature", "properties": { "strassenschluessel": "05958000000803991", "bezeichnung": "Berlar" }, "geometry": { "type": "Point", "coordinates": [ 8.387602609065388, 51.318052431053921 ] } },
{ "type": "Feature", "properties": { "strassenschluessel": "05958000000803992", "bezeichnung": "Wasserfall" }, "geometry": null },
{ "type": "Feature", "properties": { "strassenschluessel": "05958000000803993", "bezeichnung": "Andreasberg" }, "geometry": null },
{ "type": "Feature", "properties": { "strassenschluessel": "05958000000803994", "bezeichnung": "Valme" }, "geometry": null },
{ "type": "Feature", "properties": { "strassenschluessel": "05958000000803995", "bezeichnung": "Ramsbeck" }, "geometry": { "type": "Point", "coordinates": [ 8.37303248752611, 51.302823374974857 ] } },
{ "type": "Feature", "properties": { "strassenschluessel": "05958000000803996", "bezeichnung": "Heringhausen" }, "geometry": { "type": "Point", "coordinates": [ 8.39633579524728, 51.341309542246883 ] } },
{ "type": "Feature", "properties": { "strassenschluessel": "05958000000803997", "bezeichnung": "Nuttlar" }, "geometry": { "type": "Point", "coordinates": [ 8.397383215281106, 51.401895174845855 ] } },
{ "type": "Feature", "properties": { "strassenschluessel": "05958000000803998", "bezeichnung": "Ostwig" }, "geometry": { "type": "Point", "coordinates": [ 8.413491636425356, 51.366450908280974 ] } },
{ "type": "Feature", "properties": { "strassenschluessel": "05958000000803999", "bezeichnung": "Velmede" }, "geometry": { "type": "Point", "coordinates": [ 8.375271624279117, 51.393443513512523 ] } },
{ "type": "Feature", "properties": { "strassenschluessel": "05958000000804000", "bezeichnung": "Bestwig" }, "geometry": null }
]
}
