{
"type": "FeatureCollection",
"features": [
{ "type": "Feature", "properties": { "strassenschluessel": "05512000000010005", "bezeichnung": "Adelsbredde" }, "geometry": { "type": "Point", "coordinates": [ 6.949509666419588, 51.622070527682261 ] } },
{ "type": "Feature", "properties": { "strassenschluessel": "05512000000010010", "bezeichnung": "Adolf-Kolping-Straße" }, "geometry": { "type": "Point", "coordinates": [ 6.926899499467386, 51.519806777470613 ] } },
{ "type": "Feature", "properties": { "strassenschluessel": "05512000000010020", "bezeichnung": "Aegidistraße" }, "geometry": { "type": "Point", "coordinates": [ 6.950807710241218, 51.53843982010261 ] } },
{ "type": "Feature", "properties": { "strassenschluessel": "05512000000010040", "bezeichnung": "Agathastraße" }, "geometry": { "type": "Point", "coordinates": [ 6.93009602038544, 51.542848106463232 ] } },
{ "type": "Feature", "properties": { "strassenschluessel": "05512000000010060", "bezeichnung": "Agnes-Miegel-Straße" }, "geometry": { "type": "Point", "coordinates": [ 6.890764418894547, 51.529622545496792 ] } },
{ "type": "Feature", "properties": { "strassenschluessel": "05512000000010070", "bezeichnung": "Ahornweg" }, "geometry": { "type": "Point", "coordinates": [ 6.931797286257007, 51.543378739191368 ] } },
{ "type": "Feature", "properties": { "strassenschluessel": "05512000000010080", "bezeichnung": "Albrecht-Dürer-Straße" }, "geometry": { "type": "Point", "coordinates": [ 6.947793844300429, 51.520258926548898 ] } },
{ "type": "Feature", "properties": { "strassenschluessel": "05512000000010091", "bezeichnung": "Alleestraße" }, "geometry": { "type": "Point", "coordinates": [ 6.915295561159268, 51.60874966789266 ] } },
{ "type": "Feature", "properties": { "strassenschluessel": "05512000000010100", "bezeichnung": "Alsenstraße" }, "geometry": { "type": "Point", "coordinates": [ 6.940482967012459, 51.537792715057797 ] } },
{ "type": "Feature", "properties": { "strassenschluessel": "05512000000010105", "bezeichnung": "Alter Postweg" }, "geometry": { "type": "Point", "coordinates": [ 6.894302811281438, 51.621547555262765 ] } },
{ "type": "Feature", "properties": { "strassenschluessel": "05512000000010110", "bezeichnung": "Alter Südring" }, "geometry": { "type": "Point", "coordinates": [ 6.933885216878942, 51.512661234695884 ] } },
{ "type": "Feature", "properties": { "strassenschluessel": "05512000000010120", "bezeichnung": "Althansstraße" }, "geometry": { "type": "Point", "coordinates": [ 6.949728886076086, 51.541178335381176 ] } },
{ "type": "Feature", "properties": { "strassenschluessel": "05512000000010140", "bezeichnung": "Altmarkt" }, "geometry": { "type": "Point", "coordinates": [ 6.926444136245997, 51.522631141155578 ] } },
{ "type": "Feature", "properties": { "strassenschluessel": "05512000000010149", "bezeichnung": "Am Abenteuerspielplatz" }, "geometry": { "type": "Point", "coordinates": [ 6.948089524510509, 51.518232169267655 ] } },
{ "type": "Feature", "properties": { "strassenschluessel": "05512000000010151", "bezeichnung": "Am Alten Bahnhof" }, "geometry": { "type": "Point", "coordinates": [ 6.930384440387266, 51.608525720995324 ] } },
{ "type": "Feature", "properties": { "strassenschluessel": "05512000000010155", "bezeichnung": "Am Alten Kirchplatz" }, "geometry": { "type": "Point", "coordinates": [ 6.919130380288169, 51.603157794002158 ] } },
{ "type": "Feature", "properties": { "strassenschluessel": "05512000000010159", "bezeichnung": "Am Alten Sägewerk" }, "geometry": { "type": "Point", "coordinates": [ 6.932814725873284, 51.605106317330119 ] } },
{ "type": "Feature", "properties": { "strassenschluessel": "05512000000010160", "bezeichnung": "Am Beelertskotten" }, "geometry": { "type": "Point", "coordinates": [ 6.948154047461608, 51.523144066157641 ] } },
{ "type": "Feature", "properties": { "strassenschluessel": "05512000000010180", "bezeichnung": "Am Dagelsberg" }, "geometry": null },
{ "type": "Feature", "properties": { "strassenschluessel": "05512000000010185", "bezeichnung": "Am Dahlberg" }, "geometry": { "type": "Point", "coordinates": [ 6.9364549640965, 51.610595904769362 ] } },
{ "type": "Feature", "properties": { "strassenschluessel": "05512000000010191", "bezeichnung": "Am Dornbusch" }, "geometry": { "type": "Point", "coordinates": [ 6.970810301725829, 51.609753051960944 ] } },
{ "type": "Feature", "properties": { "strassenschluessel": "05512000000010200", "bezeichnung": "Am Eickholtshof" }, "geometry": { "type": "Point", "coordinates": [ 6.931462928267908, 51.526734065975631 ] } },
{ "type": "Feature", "properties": { "strassenschluessel": "05512000000010205", "bezeichnung": "Am Feuerwachturm" }, "geometry": { "type": "Point", "coordinates": [ 6.888567885551028, 51.605043554190495 ] } },
{ "type": "Feature", "properties": { "strassenschluessel": "05512000000010220", "bezeichnung": "Am Freitagshof" }, "geometry": { "type": "Point", "coordinates": [ 6.908345537754554, 51.505813434730086 ] } },
{ "type": "Feature", "properties": { "strassenschluessel": "05512000000010225", "bezeichnung": "Am Gutshof" }, "geometry": null },
{ "type": "Feature", "properties": { "strassenschluessel": "05512000000010235", "bezeichnung": "Am Hagelkreuz" }, "geometry": { "type": "Point", "coordinates": [ 6.949275602796987, 51.603474375898948 ] } },
{ "type": "Feature", "properties": { "strassenschluessel": "05512000000010236", "bezeichnung": "Am Hang" }, "geometry": { "type": "Point", "coordinates": [ 6.909692611730146, 51.507710379128149 ] } },
{ "type": "Feature", "properties": { "strassenschluessel": "05512000000010240", "bezeichnung": "Am Hasebrink" }, "geometry": { "type": "Point", "coordinates": [ 6.987125372663462, 51.52980414784431 ] } },
{ "type": "Feature", "properties": { "strassenschluessel": "05512000000010250", "bezeichnung": "Am Hauptbahnhof" }, "geometry": { "type": "Point", "coordinates": [ 6.936014019469058, 51.510015656649308 ] } },
{ "type": "Feature", "properties": { "strassenschluessel": "05512000000010260", "bezeichnung": "Am Hölscherskotten" }, "geometry": { "type": "Point", "coordinates": [ 6.950606117733538, 51.522370991566596 ] } },
{ "type": "Feature", "properties": { "strassenschluessel": "05512000000010280", "bezeichnung": "Am Holzgrund" }, "geometry": { "type": "Point", "coordinates": [ 6.987503092845943, 51.531255847972972 ] } },
{ "type": "Feature", "properties": { "strassenschluessel": "05512000000010300", "bezeichnung": "Am Kämpchen" }, "geometry": { "type": "Point", "coordinates": [ 6.985650904317513, 51.52486968666777 ] } },
{ "type": "Feature", "properties": { "strassenschluessel": "05512000000010320", "bezeichnung": "Am Kirchschemmsbach" }, "geometry": { "type": "Point", "coordinates": [ 6.933693950066077, 51.537058515997757 ] } },
{ "type": "Feature", "properties": { "strassenschluessel": "05512000000010340", "bezeichnung": "Am Kirchsteig" }, "geometry": { "type": "Point", "coordinates": [ 6.945670666718569, 51.53140407549617 ] } },
{ "type": "Feature", "properties": { "strassenschluessel": "05512000000010350", "bezeichnung": "Am Köllnischen Wald" }, "geometry": { "type": "Point", "coordinates": [ 6.902748888615264, 51.53651985156997 ] } },
{ "type": "Feature", "properties": { "strassenschluessel": "05512000000010360", "bezeichnung": "Am Kruppwald" }, "geometry": { "type": "Point", "coordinates": [ 6.960118353253398, 51.510728178880981 ] } },
{ "type": "Feature", "properties": { "strassenschluessel": "05512000000010371", "bezeichnung": "Am Kuhberg" }, "geometry": { "type": "Point", "coordinates": [ 6.962531332601201, 51.608519855011195 ] } },
{ "type": "Feature", "properties": { "strassenschluessel": "05512000000010380", "bezeichnung": "Am Lamperfeld" }, "geometry": { "type": "Point", "coordinates": [ 6.921760844670561, 51.525792299843253 ] } },
{ "type": "Feature", "properties": { "strassenschluessel": "05512000000010400", "bezeichnung": "Am Langen Damm" }, "geometry": { "type": "Point", "coordinates": [ 6.96881166299997, 51.512145712266737 ] } },
{ "type": "Feature", "properties": { "strassenschluessel": "05512000000010420", "bezeichnung": "Am Limberg" }, "geometry": { "type": "Point", "coordinates": [ 6.918490092921554, 51.545072971538964 ] } },
{ "type": "Feature", "properties": { "strassenschluessel": "05512000000010440", "bezeichnung": "Am Lohdick" }, "geometry": { "type": "Point", "coordinates": [ 6.923340168916873, 51.516722924846491 ] } },
{ "type": "Feature", "properties": { "strassenschluessel": "05512000000010460", "bezeichnung": "Am Lohehof" }, "geometry": { "type": "Point", "coordinates": [ 6.981426677678672, 51.540287322340546 ] } },
{ "type": "Feature", "properties": { "strassenschluessel": "05512000000010480", "bezeichnung": "Am Marienhospital" }, "geometry": { "type": "Point", "coordinates": [ 6.920395452492762, 51.535475830497909 ] } },
{ "type": "Feature", "properties": { "strassenschluessel": "05512000000010487", "bezeichnung": "Am Nappenfeld" }, "geometry": { "type": "Point", "coordinates": [ 6.894498369632564, 51.529170698679003 ] } },
{ "type": "Feature", "properties": { "strassenschluessel": "05512000000010495", "bezeichnung": "Am Pastors Busch" }, "geometry": { "type": "Point", "coordinates": [ 6.915056118282894, 51.598790489564422 ] } },
{ "type": "Feature", "properties": { "strassenschluessel": "05512000000010500", "bezeichnung": "Am Pferdemarkt" }, "geometry": { "type": "Point", "coordinates": [ 6.924094789019066, 51.521732604562445 ] } },
{ "type": "Feature", "properties": { "strassenschluessel": "05512000000010520", "bezeichnung": "Am Piekenbrocksbach" }, "geometry": { "type": "Point", "coordinates": [ 6.945701837702997, 51.513486764269189 ] } },
{ "type": "Feature", "properties": { "strassenschluessel": "05512000000010540", "bezeichnung": "Am Quellenbusch" }, "geometry": { "type": "Point", "coordinates": [ 6.912253518389118, 51.507225926862084 ] } },
{ "type": "Feature", "properties": { "strassenschluessel": "05512000000010546", "bezeichnung": "Am Rhein-Herne-Kanal" }, "geometry": { "type": "Point", "coordinates": [ 6.942559653580639, 51.499098069001441 ] } },
{ "type": "Feature", "properties": { "strassenschluessel": "05512000000010548", "bezeichnung": "Am Ringofen" }, "geometry": { "type": "Point", "coordinates": [ 6.939195121310721, 51.529533227595692 ] } },
{ "type": "Feature", "properties": { "strassenschluessel": "05512000000010551", "bezeichnung": "Am Ruhl" }, "geometry": null },
{ "type": "Feature", "properties": { "strassenschluessel": "05512000000010560", "bezeichnung": "Am Sandknappen" }, "geometry": { "type": "Point", "coordinates": [ 6.918644711348188, 51.51546068140285 ] } },
{ "type": "Feature", "properties": { "strassenschluessel": "05512000000010580", "bezeichnung": "Am Scheidgensbach" }, "geometry": { "type": "Point", "coordinates": [ 6.912461554219171, 51.543270531879941 ] } },
{ "type": "Feature", "properties": { "strassenschluessel": "05512000000010600", "bezeichnung": "Am Schlangenholt" }, "geometry": { "type": "Point", "coordinates": [ 6.932656614160519, 51.543342502866174 ] } },
{ "type": "Feature", "properties": { "strassenschluessel": "05512000000010601", "bezeichnung": "Am Schleitkamp" }, "geometry": { "type": "Point", "coordinates": [ 6.898122199036204, 51.583261247053507 ] } },
{ "type": "Feature", "properties": { "strassenschluessel": "05512000000010611", "bezeichnung": "Am Schölsbach" }, "geometry": { "type": "Point", "coordinates": [ 6.929980429160567, 51.603874355010042 ] } },
{ "type": "Feature", "properties": { "strassenschluessel": "05512000000010620", "bezeichnung": "Am Schoolkamp" }, "geometry": { "type": "Point", "coordinates": [ 6.95467246554498, 51.537245774565044 ] } },
{ "type": "Feature", "properties": { "strassenschluessel": "05512000000010640", "bezeichnung": "Am Schürenbusch" }, "geometry": { "type": "Point", "coordinates": [ 6.980760357863213, 51.537574467403985 ] } },
{ "type": "Feature", "properties": { "strassenschluessel": "05512000000010660", "bezeichnung": "Am Sellbrocksberg" }, "geometry": { "type": "Point", "coordinates": [ 6.90692132985761, 51.557030827380302 ] } },
{ "type": "Feature", "properties": { "strassenschluessel": "05512000000010680", "bezeichnung": "Am Skip-Schacht" }, "geometry": { "type": "Point", "coordinates": [ 6.937127878603238, 51.533761072885028 ] } },
{ "type": "Feature", "properties": { "strassenschluessel": "05512000000010700", "bezeichnung": "Am Spengelsberg" }, "geometry": { "type": "Point", "coordinates": [ 6.917579558432602, 51.521042579218843 ] } },
{ "type": "Feature", "properties": { "strassenschluessel": "05512000000010720", "bezeichnung": "Am Südbahnhof" }, "geometry": { "type": "Point", "coordinates": [ 6.947606655177859, 51.508866381920967 ] } },
{ "type": "Feature", "properties": { "strassenschluessel": "05512000000010728", "bezeichnung": "Am Südring-Center" }, "geometry": { "type": "Point", "coordinates": [ 6.935680655401304, 51.51140486687769 ] } },
{ "type": "Feature", "properties": { "strassenschluessel": "05512000000010740", "bezeichnung": "Am Timpenkotten" }, "geometry": { "type": "Point", "coordinates": [ 6.948135261641464, 51.525918488001956 ] } },
{ "type": "Feature", "properties": { "strassenschluessel": "05512000000010751", "bezeichnung": "Am Tollstock" }, "geometry": { "type": "Point", "coordinates": [ 6.918988952937529, 51.608173621368842 ] } },
{ "type": "Feature", "properties": { "strassenschluessel": "05512000000010760", "bezeichnung": "Am Trappenhof" }, "geometry": { "type": "Point", "coordinates": [ 6.94889427767531, 51.542127150268954 ] } },
{ "type": "Feature", "properties": { "strassenschluessel": "05512000000010780", "bezeichnung": "Am Venn" }, "geometry": { "type": "Point", "coordinates": [ 6.935670635422141, 51.540657469182847 ] } },
{ "type": "Feature", "properties": { "strassenschluessel": "05512000000010800", "bezeichnung": "Am Vöingholz" }, "geometry": { "type": "Point", "coordinates": [ 6.920774118236563, 51.556392488333593 ] } },
{ "type": "Feature", "properties": { "strassenschluessel": "05512000000010820", "bezeichnung": "Am Vogelpoth" }, "geometry": { "type": "Point", "coordinates": [ 6.925446205349533, 51.533483201749476 ] } },
{ "type": "Feature", "properties": { "strassenschluessel": "05512000000010830", "bezeichnung": "Am Vorthbach" }, "geometry": { "type": "Point", "coordinates": [ 6.921575780599031, 51.543319307667694 ] } },
{ "type": "Feature", "properties": { "strassenschluessel": "05512000000010840", "bezeichnung": "Am Weckelsberg" }, "geometry": { "type": "Point", "coordinates": [ 6.931557851434131, 51.538204394483692 ] } },
{ "type": "Feature", "properties": { "strassenschluessel": "05512000000010860", "bezeichnung": "Am Wienberg" }, "geometry": { "type": "Point", "coordinates": [ 6.909066686728102, 51.505555659731741 ] } },
{ "type": "Feature", "properties": { "strassenschluessel": "05512000000010871", "bezeichnung": "Amselweg" }, "geometry": { "type": "Point", "coordinates": [ 6.932427282426277, 51.600481932642765 ] } },
{ "type": "Feature", "properties": { "strassenschluessel": "05512000000010880", "bezeichnung": "An der Berufsschule" }, "geometry": { "type": "Point", "coordinates": [ 6.927489212532656, 51.528274034788744 ] } },
{ "type": "Feature", "properties": { "strassenschluessel": "05512000000010891", "bezeichnung": "An der Dringenburg" }, "geometry": { "type": "Point", "coordinates": [ 6.927937618140486, 51.619304259854168 ] } },
{ "type": "Feature", "properties": { "strassenschluessel": "05512000000010893", "bezeichnung": "An der Gräfte" }, "geometry": { "type": "Point", "coordinates": [ 6.950582050239441, 51.535460805430766 ] } },
{ "type": "Feature", "properties": { "strassenschluessel": "05512000000010895", "bezeichnung": "An der Harre" }, "geometry": { "type": "Point", "coordinates": [ 6.900705333398583, 51.62419312856052 ] } },
{ "type": "Feature", "properties": { "strassenschluessel": "05512000000010900", "bezeichnung": "An der Hasenhegge" }, "geometry": { "type": "Point", "coordinates": [ 6.946154330499381, 51.527460444870648 ] } },
{ "type": "Feature", "properties": { "strassenschluessel": "05512000000010920", "bezeichnung": "An der Knippenburg" }, "geometry": { "type": "Point", "coordinates": [ 6.957376181339623, 51.514425880882371 ] } },
{ "type": "Feature", "properties": { "strassenschluessel": "05512000000010940", "bezeichnung": "An der Kommende" }, "geometry": { "type": "Point", "coordinates": [ 6.984004847690893, 51.523964500021343 ] } },
{ "type": "Feature", "properties": { "strassenschluessel": "05512000000010960", "bezeichnung": "An der Kornbecke" }, "geometry": { "type": "Point", "coordinates": [ 6.917577893642666, 51.510988359466928 ] } },
{ "type": "Feature", "properties": { "strassenschluessel": "05512000000010991", "bezeichnung": "An der Linde" }, "geometry": { "type": "Point", "coordinates": [ 6.899962227607949, 51.616992277879497 ] } },
{ "type": "Feature", "properties": { "strassenschluessel": "05512000000010995", "bezeichnung": "An der Martinskirche" }, "geometry": { "type": "Point", "coordinates": [ 6.923493053942351, 51.522667900120119 ] } },
{ "type": "Feature", "properties": { "strassenschluessel": "05512000000011020", "bezeichnung": "An der Sandbahn" }, "geometry": { "type": "Point", "coordinates": [ 6.932817245239071, 51.509159970927385 ] } },
{ "type": "Feature", "properties": { "strassenschluessel": "05512000000011025", "bezeichnung": "An der Sandgrube" }, "geometry": { "type": "Point", "coordinates": [ 6.920494963438901, 51.610624419596931 ] } },
{ "type": "Feature", "properties": { "strassenschluessel": "05512000000011031", "bezeichnung": "An der Windmühle" }, "geometry": { "type": "Point", "coordinates": [ 6.918739906001031, 51.607399294381828 ] } },
{ "type": "Feature", "properties": { "strassenschluessel": "05512000000011046", "bezeichnung": "An Liebfrauen" }, "geometry": { "type": "Point", "coordinates": [ 6.93222012225204, 51.541460724484217 ] } },
{ "type": "Feature", "properties": { "strassenschluessel": "05512000000011060", "bezeichnung": "An Luggesmühle" }, "geometry": { "type": "Point", "coordinates": [ 6.916627994798227, 51.522575851567254 ] } },
{ "type": "Feature", "properties": { "strassenschluessel": "05512000000011080", "bezeichnung": "An St. Franziskus" }, "geometry": { "type": "Point", "coordinates": [ 6.983788562642921, 51.526443364486418 ] } },
{ "type": "Feature", "properties": { "strassenschluessel": "05512000000011091", "bezeichnung": "An St. Johannes" }, "geometry": { "type": "Point", "coordinates": [ 6.918015726430029, 51.604699913444371 ] } },
{ "type": "Feature", "properties": { "strassenschluessel": "05512000000011100", "bezeichnung": "Andreas-Hofer-Straße" }, "geometry": { "type": "Point", "coordinates": [ 6.912744000076424, 51.546658187890429 ] } },
{ "type": "Feature", "properties": { "strassenschluessel": "05512000000011105", "bezeichnung": "Andresen Strang" }, "geometry": { "type": "Point", "coordinates": [ 6.902994460942322, 51.578678597090558 ] } },
{ "type": "Feature", "properties": { "strassenschluessel": "05512000000011107", "bezeichnung": "Anni-Albers-Platz" }, "geometry": { "type": "Point", "coordinates": [ 6.917977253866629, 51.530803214673256 ] } },
{ "type": "Feature", "properties": { "strassenschluessel": "05512000000011108", "bezeichnung": "Anton-Brandt-Weg" }, "geometry": { "type": "Point", "coordinates": [ 6.974478550910265, 51.533260358444451 ] } },
{ "type": "Feature", "properties": { "strassenschluessel": "05512000000011109", "bezeichnung": "Antonius-Küster-Weg" }, "geometry": { "type": "Point", "coordinates": [ 6.965405044492472, 51.609932354004833 ] } },
{ "type": "Feature", "properties": { "strassenschluessel": "05512000000011111", "bezeichnung": "Antoniusstraße" }, "geometry": { "type": "Point", "coordinates": [ 6.923540042652346, 51.604309938283592 ] } },
{ "type": "Feature", "properties": { "strassenschluessel": "05512000000011120", "bezeichnung": "Arenbergstraße" }, "geometry": { "type": "Point", "coordinates": [ 6.945546770029096, 51.51786056459428 ] } },
{ "type": "Feature", "properties": { "strassenschluessel": "05512000000011140", "bezeichnung": "Armelerstraße" }, "geometry": { "type": "Point", "coordinates": [ 6.929999876920511, 51.507644736675729 ] } },
{ "type": "Feature", "properties": { "strassenschluessel": "05512000000011160", "bezeichnung": "Arminiusstraße" }, "geometry": { "type": "Point", "coordinates": [ 6.931120706464475, 51.543524579868098 ] } },
{ "type": "Feature", "properties": { "strassenschluessel": "05512000000011180", "bezeichnung": "Arnsmannstraße" }, "geometry": { "type": "Point", "coordinates": [ 6.953375366255164, 51.522033014903769 ] } },
{ "type": "Feature", "properties": { "strassenschluessel": "05512000000011191", "bezeichnung": "Arwinkel" }, "geometry": { "type": "Point", "coordinates": [ 6.923381036103084, 51.605358710773068 ] } },
{ "type": "Feature", "properties": { "strassenschluessel": "05512000000011200", "bezeichnung": "Asbeckstraße" }, "geometry": { "type": "Point", "coordinates": [ 6.949260848767687, 51.506481195646856 ] } },
{ "type": "Feature", "properties": { "strassenschluessel": "05512000000011220", "bezeichnung": "Aspelstraße" }, "geometry": { "type": "Point", "coordinates": [ 6.986576764767871, 51.530316860442646 ] } },
{ "type": "Feature", "properties": { "strassenschluessel": "05512000000011225", "bezeichnung": "Auf dem Espel" }, "geometry": { "type": "Point", "coordinates": [ 6.898001323704952, 51.618165687752928 ] } },
{ "type": "Feature", "properties": { "strassenschluessel": "05512000000011231", "bezeichnung": "Auf dem Schimmel" }, "geometry": { "type": "Point", "coordinates": [ 6.946370213831324, 51.60467486384308 ] } },
{ "type": "Feature", "properties": { "strassenschluessel": "05512000000011235", "bezeichnung": "Auf dem Timpen" }, "geometry": { "type": "Point", "coordinates": [ 6.950770336347211, 51.609162662214857 ] } },
{ "type": "Feature", "properties": { "strassenschluessel": "05512000000011240", "bezeichnung": "Auf der Bette" }, "geometry": { "type": "Point", "coordinates": [ 6.935174213734954, 51.520465586733842 ] } },
{ "type": "Feature", "properties": { "strassenschluessel": "05512000000011245", "bezeichnung": "Auf der Bredde" }, "geometry": { "type": "Point", "coordinates": [ 6.918789646626921, 51.605266148547166 ] } },
{ "type": "Feature", "properties": { "strassenschluessel": "05512000000011251", "bezeichnung": "Auf der Höhe" }, "geometry": { "type": "Point", "coordinates": [ 6.941365916548474, 51.612120071210391 ] } },
{ "type": "Feature", "properties": { "strassenschluessel": "05512000000011255", "bezeichnung": "Auf der Kämpe" }, "geometry": { "type": "Point", "coordinates": [ 6.906245411112304, 51.591987354529472 ] } },
{ "type": "Feature", "properties": { "strassenschluessel": "05512000000011260", "bezeichnung": "Auf der Koppe" }, "geometry": { "type": "Point", "coordinates": [ 6.913614157361104, 51.522701725829243 ] } },
{ "type": "Feature", "properties": { "strassenschluessel": "05512000000011270", "bezeichnung": "August-Schmidt-Weg" }, "geometry": { "type": "Point", "coordinates": [ 6.94318963096101, 51.55279364539475 ] } },
{ "type": "Feature", "properties": { "strassenschluessel": "05512000000011280", "bezeichnung": "Augustin-Wibbelt-Straße" }, "geometry": { "type": "Point", "coordinates": [ 6.89612857134775, 51.516987078373191 ] } },
{ "type": "Feature", "properties": { "strassenschluessel": "05512000000011295", "bezeichnung": "Aulkestraße" }, "geometry": { "type": "Point", "coordinates": [ 6.923149672772623, 51.609596598458602 ] } },
{ "type": "Feature", "properties": { "strassenschluessel": "05512000000011300", "bezeichnung": "Bachstraße" }, "geometry": { "type": "Point", "coordinates": [ 6.929171924496303, 51.539249023214623 ] } },
{ "type": "Feature", "properties": { "strassenschluessel": "05512000000011320", "bezeichnung": "Bahnhofstraße" }, "geometry": { "type": "Point", "coordinates": [ 6.94314383260425, 51.512031234377268 ] } },
{ "type": "Feature", "properties": { "strassenschluessel": "05512000000011340", "bezeichnung": "Bannizastraße" }, "geometry": { "type": "Point", "coordinates": [ 6.942040074362468, 51.540960385604549 ] } },
{ "type": "Feature", "properties": { "strassenschluessel": "05512000000011360", "bezeichnung": "Barbarastraße" }, "geometry": { "type": "Point", "coordinates": [ 6.930531671293615, 51.54168364804616 ] } },
{ "type": "Feature", "properties": { "strassenschluessel": "05512000000011380", "bezeichnung": "Batenbrockstraße" }, "geometry": { "type": "Point", "coordinates": [ 6.962314912310572, 51.530752403530698 ] } },
{ "type": "Feature", "properties": { "strassenschluessel": "05512000000011400", "bezeichnung": "Baukelstraße" }, "geometry": { "type": "Point", "coordinates": [ 6.973546684101, 51.53510386671514 ] } },
{ "type": "Feature", "properties": { "strassenschluessel": "05512000000011420", "bezeichnung": "Baurstraße" }, "geometry": { "type": "Point", "coordinates": [ 6.937691189728941, 51.550616670549253 ] } },
{ "type": "Feature", "properties": { "strassenschluessel": "05512000000011431", "bezeichnung": "Baute" }, "geometry": null },
{ "type": "Feature", "properties": { "strassenschluessel": "05512000000011440", "bezeichnung": "Beckheide" }, "geometry": { "type": "Point", "coordinates": [ 6.938111039875352, 51.53412714577405 ] } },
{ "type": "Feature", "properties": { "strassenschluessel": "05512000000011460", "bezeichnung": "Beckstraße" }, "geometry": { "type": "Point", "coordinates": [ 6.953581338213049, 51.529288988921635 ] } },
{ "type": "Feature", "properties": { "strassenschluessel": "05512000000011480", "bezeichnung": "Beethovenstraße" }, "geometry": { "type": "Point", "coordinates": [ 6.930453577512972, 51.539953143181627 ] } },
{ "type": "Feature", "properties": { "strassenschluessel": "05512000000011495", "bezeichnung": "Beisenkamp" }, "geometry": null },
{ "type": "Feature", "properties": { "strassenschluessel": "05512000000011500", "bezeichnung": "Beisenstraße" }, "geometry": { "type": "Point", "coordinates": [ 6.90608048621954, 51.530517322614344 ] } },
{ "type": "Feature", "properties": { "strassenschluessel": "05512000000011520", "bezeichnung": "Bellenbrockstraße" }, "geometry": { "type": "Point", "coordinates": [ 6.940573525171076, 51.514671650076167 ] } },
{ "type": "Feature", "properties": { "strassenschluessel": "05512000000011540", "bezeichnung": "Benzstraße" }, "geometry": { "type": "Point", "coordinates": [ 6.957809615251985, 51.535344975835997 ] } },
{ "type": "Feature", "properties": { "strassenschluessel": "05512000000011560", "bezeichnung": "Bergbaustraße" }, "geometry": { "type": "Point", "coordinates": [ 6.949178463964312, 51.503005411903075 ] } },
{ "type": "Feature", "properties": { "strassenschluessel": "05512000000011580", "bezeichnung": "Bergendahlstraße" }, "geometry": { "type": "Point", "coordinates": [ 6.970377852517985, 51.540399765069139 ] } },
{ "type": "Feature", "properties": { "strassenschluessel": "05512000000011589", "bezeichnung": "Bergiusstraße" }, "geometry": { "type": "Point", "coordinates": [ 6.924833320952714, 51.613686398524791 ] } },
{ "type": "Feature", "properties": { "strassenschluessel": "05512000000011600", "bezeichnung": "Bergstraße" }, "geometry": { "type": "Point", "coordinates": [ 6.924384616227042, 51.513256958724135 ] } },
{ "type": "Feature", "properties": { "strassenschluessel": "05512000000011615", "bezeichnung": "Berliner Berg" }, "geometry": { "type": "Point", "coordinates": [ 6.927966350266805, 51.624315305014591 ] } },
{ "type": "Feature", "properties": { "strassenschluessel": "05512000000011620", "bezeichnung": "Berliner Platz" }, "geometry": { "type": "Point", "coordinates": [ 6.928363790848792, 51.52254511977047 ] } },
{ "type": "Feature", "properties": { "strassenschluessel": "05512000000011640", "bezeichnung": "Bernestraße" }, "geometry": { "type": "Point", "coordinates": [ 6.942372669569021, 51.502789096298464 ] } },
{ "type": "Feature", "properties": { "strassenschluessel": "05512000000011660", "bezeichnung": "Bernhard-Jäger-Weg" }, "geometry": null },
{ "type": "Feature", "properties": { "strassenschluessel": "05512000000011670", "bezeichnung": "Bernhard-Poether-Weg" }, "geometry": { "type": "Point", "coordinates": [ 6.951427052041473, 51.528363366545747 ] } },
{ "type": "Feature", "properties": { "strassenschluessel": "05512000000011680", "bezeichnung": "Bernsmannweg" }, "geometry": { "type": "Point", "coordinates": [ 6.964534958038774, 51.537126644475592 ] } },
{ "type": "Feature", "properties": { "strassenschluessel": "05512000000011700", "bezeichnung": "Beyrichstraße" }, "geometry": { "type": "Point", "coordinates": [ 6.940874652442872, 51.54785918572324 ] } },
{ "type": "Feature", "properties": { "strassenschluessel": "05512000000011720", "bezeichnung": "Binsenkamp" }, "geometry": { "type": "Point", "coordinates": [ 6.969528749973768, 51.511987012941425 ] } },
{ "type": "Feature", "properties": { "strassenschluessel": "05512000000011740", "bezeichnung": "Birkenstraße" }, "geometry": { "type": "Point", "coordinates": [ 6.895895202977615, 51.523872987587808 ] } },
{ "type": "Feature", "properties": { "strassenschluessel": "05512000000011741", "bezeichnung": "Birkenweg" }, "geometry": { "type": "Point", "coordinates": [ 6.908561202933654, 51.579120640746837 ] } },
{ "type": "Feature", "properties": { "strassenschluessel": "05512000000011743", "bezeichnung": "Birkhahnweg" }, "geometry": { "type": "Point", "coordinates": [ 6.888140511574394, 51.543319860158789 ] } },
{ "type": "Feature", "properties": { "strassenschluessel": "05512000000011760", "bezeichnung": "Blankenstraße" }, "geometry": { "type": "Point", "coordinates": [ 6.959286345008465, 51.537466237038196 ] } },
{ "type": "Feature", "properties": { "strassenschluessel": "05512000000011771", "bezeichnung": "Blaufärberweg" }, "geometry": { "type": "Point", "coordinates": [ 6.912055899730217, 51.600436789945377 ] } },
{ "type": "Feature", "properties": { "strassenschluessel": "05512000000011780", "bezeichnung": "Blücherstraße" }, "geometry": { "type": "Point", "coordinates": [ 6.927114941195406, 51.529747282573084 ] } },
{ "type": "Feature", "properties": { "strassenschluessel": "05512000000011800", "bezeichnung": "Blumenstraße" }, "geometry": { "type": "Point", "coordinates": [ 6.922292242434452, 51.522948427940008 ] } },
{ "type": "Feature", "properties": { "strassenschluessel": "05512000000011820", "bezeichnung": "Bodelschwinghstraße" }, "geometry": { "type": "Point", "coordinates": [ 6.926423970268016, 51.542053994504151 ] } },
{ "type": "Feature", "properties": { "strassenschluessel": "05512000000011840", "bezeichnung": "Böckenhoffstraße" }, "geometry": { "type": "Point", "coordinates": [ 6.92346908169229, 51.524274150795044 ] } },
{ "type": "Feature", "properties": { "strassenschluessel": "05512000000011860", "bezeichnung": "Böcklinstraße" }, "geometry": { "type": "Point", "coordinates": [ 6.940456079230255, 51.508839865332661 ] } },
{ "type": "Feature", "properties": { "strassenschluessel": "05512000000011880", "bezeichnung": "Bögelsheide" }, "geometry": { "type": "Point", "coordinates": [ 6.933312773233428, 51.55186231209278 ] } },
{ "type": "Feature", "properties": { "strassenschluessel": "05512000000011900", "bezeichnung": "Börenstraße" }, "geometry": { "type": "Point", "coordinates": [ 6.934311358998977, 51.55353663150936 ] } },
{ "type": "Feature", "properties": { "strassenschluessel": "05512000000011911", "bezeichnung": "Börker Feld" }, "geometry": { "type": "Point", "coordinates": [ 6.921004504160432, 51.62467165812636 ] } },
{ "type": "Feature", "properties": { "strassenschluessel": "05512000000011915", "bezeichnung": "Böttcherstraße" }, "geometry": { "type": "Point", "coordinates": [ 6.906546776432521, 51.572594988848351 ] } },
{ "type": "Feature", "properties": { "strassenschluessel": "05512000000011920", "bezeichnung": "Bogenstraße" }, "geometry": { "type": "Point", "coordinates": [ 6.926504807002071, 51.514315285579634 ] } },
{ "type": "Feature", "properties": { "strassenschluessel": "05512000000011925", "bezeichnung": "Bohnekamp" }, "geometry": { "type": "Point", "coordinates": [ 6.939681192120633, 51.598519434293294 ] } },
{ "type": "Feature", "properties": { "strassenschluessel": "05512000000011931", "bezeichnung": "Bonhoefferstraße" }, "geometry": { "type": "Point", "coordinates": [ 6.970187459244637, 51.611284292863722 ] } },
{ "type": "Feature", "properties": { "strassenschluessel": "05512000000011936", "bezeichnung": "Borbecker Straße" }, "geometry": null },
{ "type": "Feature", "properties": { "strassenschluessel": "05512000000011940", "bezeichnung": "Borsigweg" }, "geometry": { "type": "Point", "coordinates": [ 6.964485615359802, 51.531983823855995 ] } },
{ "type": "Feature", "properties": { "strassenschluessel": "05512000000011951", "bezeichnung": "Boschstraße" }, "geometry": { "type": "Point", "coordinates": [ 6.913490146632607, 51.569687090306559 ] } },
{ "type": "Feature", "properties": { "strassenschluessel": "05512000000011960", "bezeichnung": "Bothenstraße" }, "geometry": { "type": "Point", "coordinates": [ 6.926331701895226, 51.519513772860314 ] } },
{ "type": "Feature", "properties": { "strassenschluessel": "05512000000011971", "bezeichnung": "Bottroper Straße" }, "geometry": { "type": "Point", "coordinates": [ 6.913773496802984, 51.592301285596065 ] } },
{ "type": "Feature", "properties": { "strassenschluessel": "05512000000011980", "bezeichnung": "Boyer Markt" }, "geometry": { "type": "Point", "coordinates": [ 6.973863395869028, 51.537315738329589 ] } },
{ "type": "Feature", "properties": { "strassenschluessel": "05512000000011985", "bezeichnung": "Brabecker Feld" }, "geometry": { "type": "Point", "coordinates": [ 6.942917739247357, 51.594267980016255 ] } },
{ "type": "Feature", "properties": { "strassenschluessel": "05512000000011991", "bezeichnung": "Brabecker Weg" }, "geometry": { "type": "Point", "coordinates": [ 6.919156271337199, 51.589781370382518 ] } },
{ "type": "Feature", "properties": { "strassenschluessel": "05512000000011993", "bezeichnung": "Brabus-Allee" }, "geometry": { "type": "Point", "coordinates": [ 6.921765651003065, 51.546139664763025 ] } },
{ "type": "Feature", "properties": { "strassenschluessel": "05512000000011995", "bezeichnung": "Brahmweg" }, "geometry": { "type": "Point", "coordinates": [ 6.922126531553415, 51.608389822501685 ] } },
{ "type": "Feature", "properties": { "strassenschluessel": "05512000000012000", "bezeichnung": "Brakerstraße" }, "geometry": { "type": "Point", "coordinates": [ 6.952129690691234, 51.516768481250466 ] } },
{ "type": "Feature", "properties": { "strassenschluessel": "05512000000012011", "bezeichnung": "Brandenheide" }, "geometry": { "type": "Point", "coordinates": [ 6.915902502229683, 51.570622243975073 ] } },
{ "type": "Feature", "properties": { "strassenschluessel": "05512000000012020", "bezeichnung": "Brauerstraße" }, "geometry": { "type": "Point", "coordinates": [ 6.929341935026503, 51.519336932718552 ] } },
{ "type": "Feature", "properties": { "strassenschluessel": "05512000000012040", "bezeichnung": "Braukstraße" }, "geometry": { "type": "Point", "coordinates": [ 6.982364975959134, 51.539535794870581 ] } },
{ "type": "Feature", "properties": { "strassenschluessel": "05512000000012051", "bezeichnung": "Brennerweg" }, "geometry": { "type": "Point", "coordinates": [ 6.909849731199185, 51.572817014087995 ] } },
{ "type": "Feature", "properties": { "strassenschluessel": "05512000000012055", "bezeichnung": "Brentanostraße" }, "geometry": { "type": "Point", "coordinates": [ 6.928298115679005, 51.607894144943934 ] } },
{ "type": "Feature", "properties": { "strassenschluessel": "05512000000012060", "bezeichnung": "Breslauer Straße" }, "geometry": { "type": "Point", "coordinates": [ 6.93996017020178, 51.537594258350957 ] } },
{ "type": "Feature", "properties": { "strassenschluessel": "05512000000012100", "bezeichnung": "Brinkstraße" }, "geometry": { "type": "Point", "coordinates": [ 6.941845654863586, 51.521211305584785 ] } },
{ "type": "Feature", "properties": { "strassenschluessel": "05512000000012110", "bezeichnung": "Brockmannweg" }, "geometry": { "type": "Point", "coordinates": [ 6.968906062268664, 51.539610309982223 ] } },
{ "type": "Feature", "properties": { "strassenschluessel": "05512000000012120", "bezeichnung": "Brömerstraße" }, "geometry": { "type": "Point", "coordinates": [ 6.930170956383791, 51.543408675723796 ] } },
{ "type": "Feature", "properties": { "strassenschluessel": "05512000000012125", "bezeichnung": "Bruder-Andreas-Weg" }, "geometry": null },
{ "type": "Feature", "properties": { "strassenschluessel": "05512000000012130", "bezeichnung": "Brüggemannsweg" }, "geometry": { "type": "Point", "coordinates": [ 6.9257661035033, 51.53238420412756 ] } },
{ "type": "Feature", "properties": { "strassenschluessel": "05512000000012140", "bezeichnung": "Brünerstraße" }, "geometry": { "type": "Point", "coordinates": [ 6.922494228508504, 51.542278983251862 ] } },
{ "type": "Feature", "properties": { "strassenschluessel": "05512000000012160", "bezeichnung": "Bruktererstraße" }, "geometry": { "type": "Point", "coordinates": [ 6.958467827889542, 51.509302662402227 ] } },
{ "type": "Feature", "properties": { "strassenschluessel": "05512000000012180", "bezeichnung": "Brunhildenweg" }, "geometry": { "type": "Point", "coordinates": [ 6.914300416333685, 51.544748682726855 ] } },
{ "type": "Feature", "properties": { "strassenschluessel": "05512000000012183", "bezeichnung": "Brunsmannstraße" }, "geometry": { "type": "Point", "coordinates": [ 6.896813644362696, 51.525788382350612 ] } },
{ "type": "Feature", "properties": { "strassenschluessel": "05512000000012191", "bezeichnung": "Buchbinderstraße" }, "geometry": { "type": "Point", "coordinates": [ 6.902577117133452, 51.57293577512494 ] } },
{ "type": "Feature", "properties": { "strassenschluessel": "05512000000012200", "bezeichnung": "Buchenstraße" }, "geometry": { "type": "Point", "coordinates": [ 6.931894155029828, 51.542431165835062 ] } },
{ "type": "Feature", "properties": { "strassenschluessel": "05512000000012220", "bezeichnung": "Bügelstraße" }, "geometry": { "type": "Point", "coordinates": [ 6.936473061739123, 51.54764875456361 ] } },
{ "type": "Feature", "properties": { "strassenschluessel": "05512000000012240", "bezeichnung": "Bülowstraße" }, "geometry": { "type": "Point", "coordinates": [ 6.92756348261209, 51.530348271591656 ] } },
{ "type": "Feature", "properties": { "strassenschluessel": "05512000000012241", "bezeichnung": "Burenbrock" }, "geometry": { "type": "Point", "coordinates": [ 6.917914646613807, 51.578763623437979 ] } },
{ "type": "Feature", "properties": { "strassenschluessel": "05512000000012245", "bezeichnung": "Burghof" }, "geometry": { "type": "Point", "coordinates": [ 6.917187278140292, 51.602239362347916 ] } },
{ "type": "Feature", "properties": { "strassenschluessel": "05512000000012251", "bezeichnung": "Burgstraße" }, "geometry": { "type": "Point", "coordinates": [ 6.91936986196293, 51.600703007000249 ] } },
{ "type": "Feature", "properties": { "strassenschluessel": "05512000000012252", "bezeichnung": "Carl-Heinz-Stephan-Straße" }, "geometry": { "type": "Point", "coordinates": [ 6.932466324495585, 51.533090009121963 ] } },
{ "type": "Feature", "properties": { "strassenschluessel": "05512000000012255", "bezeichnung": "Christfurth" }, "geometry": { "type": "Point", "coordinates": [ 6.909812009517772, 51.584043906111546 ] } },
{ "type": "Feature", "properties": { "strassenschluessel": "05512000000012257", "bezeichnung": "Christian-Fabian-Straße" }, "geometry": { "type": "Point", "coordinates": [ 6.935551962958986, 51.554197233652687 ] } },
{ "type": "Feature", "properties": { "strassenschluessel": "05512000000012258", "bezeichnung": "Christine-Teusch-Straße" }, "geometry": { "type": "Point", "coordinates": [ 6.940989049710114, 51.540059710512452 ] } },
{ "type": "Feature", "properties": { "strassenschluessel": "05512000000012260", "bezeichnung": "Cleffstraße" }, "geometry": { "type": "Point", "coordinates": [ 6.945645261325695, 51.541539819765866 ] } },
{ "type": "Feature", "properties": { "strassenschluessel": "05512000000012261", "bezeichnung": "Clemens-Hofbauer-Straße" }, "geometry": { "type": "Point", "coordinates": [ 6.931063345521679, 51.605274105903753 ] } },
{ "type": "Feature", "properties": { "strassenschluessel": "05512000000012263", "bezeichnung": "Clemens-Kraienhorst-Straße" }, "geometry": { "type": "Point", "coordinates": [ 6.93649824794857, 51.543920287782051 ] } },
{ "type": "Feature", "properties": { "strassenschluessel": "05512000000012267", "bezeichnung": "Corinthweg" }, "geometry": { "type": "Point", "coordinates": [ 6.938447985745588, 51.513454894158791 ] } },
{ "type": "Feature", "properties": { "strassenschluessel": "05512000000012271", "bezeichnung": "Dännenkamp" }, "geometry": { "type": "Point", "coordinates": [ 6.885146767012251, 51.576369492801156 ] } },
{ "type": "Feature", "properties": { "strassenschluessel": "05512000000012280", "bezeichnung": "Daimlerstraße" }, "geometry": { "type": "Point", "coordinates": [ 6.96203163326378, 51.537009700670858 ] } },
{ "type": "Feature", "properties": { "strassenschluessel": "05512000000012300", "bezeichnung": "Danziger Straße" }, "geometry": { "type": "Point", "coordinates": [ 6.94539609058821, 51.536225392784765 ] } },
{ "type": "Feature", "properties": { "strassenschluessel": "05512000000012320", "bezeichnung": "Devensstraße" }, "geometry": { "type": "Point", "coordinates": [ 6.944143214920593, 51.517476021569102 ] } },
{ "type": "Feature", "properties": { "strassenschluessel": "05512000000012340", "bezeichnung": "Dickebank" }, "geometry": { "type": "Point", "coordinates": [ 6.940431089278896, 51.523590794192678 ] } },
{ "type": "Feature", "properties": { "strassenschluessel": "05512000000012360", "bezeichnung": "Dieselstraße" }, "geometry": { "type": "Point", "coordinates": [ 6.952205657107044, 51.531433847882006 ] } },
{ "type": "Feature", "properties": { "strassenschluessel": "05512000000012371", "bezeichnung": "Dinslakener Straße" }, "geometry": { "type": "Point", "coordinates": [ 6.868230255785034, 51.609056885678271 ] } },
{ "type": "Feature", "properties": { "strassenschluessel": "05512000000012380", "bezeichnung": "Döckelhorst" }, "geometry": { "type": "Point", "coordinates": [ 6.967587298651446, 51.51275821495333 ] } },
{ "type": "Feature", "properties": { "strassenschluessel": "05512000000012391", "bezeichnung": "Dorfheide" }, "geometry": { "type": "Point", "coordinates": [ 6.929693614020174, 51.600218066819465 ] } },
{ "type": "Feature", "properties": { "strassenschluessel": "05512000000012401", "bezeichnung": "Dorstener Straße" }, "geometry": { "type": "Point", "coordinates": [ 6.956824198018372, 51.630470135529293 ] } },
{ "type": "Feature", "properties": { "strassenschluessel": "05512000000012411", "bezeichnung": "Drechslerstraße" }, "geometry": { "type": "Point", "coordinates": [ 6.907327932947879, 51.573809883418285 ] } },
{ "type": "Feature", "properties": { "strassenschluessel": "05512000000012420", "bezeichnung": "Dresdener Straße" }, "geometry": { "type": "Point", "coordinates": [ 6.940925805478203, 51.538127259325492 ] } },
{ "type": "Feature", "properties": { "strassenschluessel": "05512000000012431", "bezeichnung": "Dreufte" }, "geometry": { "type": "Point", "coordinates": [ 6.92284316905924, 51.598164624182658 ] } },
{ "type": "Feature", "properties": { "strassenschluessel": "05512000000012436", "bezeichnung": "Dr.-Kock-am-Brink-Weg" }, "geometry": { "type": "Point", "coordinates": [ 6.94943005424471, 51.53640664970419 ] } },
{ "type": "Feature", "properties": { "strassenschluessel": "05512000000012440", "bezeichnung": "Drosselweg" }, "geometry": { "type": "Point", "coordinates": [ 6.888696772837, 51.544671474253967 ] } },
{ "type": "Feature", "properties": { "strassenschluessel": "05512000000012445", "bezeichnung": "Droßlingstraße" }, "geometry": { "type": "Point", "coordinates": [ 6.917070127606643, 51.571235329546099 ] } },
{ "type": "Feature", "properties": { "strassenschluessel": "05512000000012460", "bezeichnung": "Droste-Hülshoff-Platz" }, "geometry": { "type": "Point", "coordinates": [ 6.927216960104721, 51.524387803041151 ] } },
{ "type": "Feature", "properties": { "strassenschluessel": "05512000000012480", "bezeichnung": "Droste-Hülshoff-Straße" }, "geometry": { "type": "Point", "coordinates": [ 6.927502596800785, 51.525719320873726 ] } },
{ "type": "Feature", "properties": { "strassenschluessel": "05512000000012500", "bezeichnung": "Düppelstraße" }, "geometry": { "type": "Point", "coordinates": [ 6.945311781351441, 51.532679396309248 ] } },
{ "type": "Feature", "properties": { "strassenschluessel": "05512000000012520", "bezeichnung": "Ebelstraße" }, "geometry": { "type": "Point", "coordinates": [ 6.944373548263265, 51.502132197187478 ] } },
{ "type": "Feature", "properties": { "strassenschluessel": "05512000000012540", "bezeichnung": "Ehrenplatz" }, "geometry": { "type": "Point", "coordinates": [ 6.929676817107953, 51.520161327033925 ] } },
{ "type": "Feature", "properties": { "strassenschluessel": "05512000000012560", "bezeichnung": "Eichendorffstraße" }, "geometry": { "type": "Point", "coordinates": [ 6.908080171897525, 51.534658578466093 ] } },
{ "type": "Feature", "properties": { "strassenschluessel": "05512000000012571", "bezeichnung": "Eichenkamp" }, "geometry": { "type": "Point", "coordinates": [ 6.932865181886013, 51.596581788095072 ] } },
{ "type": "Feature", "properties": { "strassenschluessel": "05512000000012580", "bezeichnung": "Eichenstraße" }, "geometry": { "type": "Point", "coordinates": [ 6.925768077785852, 51.531649429464487 ] } },
{ "type": "Feature", "properties": { "strassenschluessel": "05512000000012600", "bezeichnung": "Einbleckstraße" }, "geometry": null },
{ "type": "Feature", "properties": { "strassenschluessel": "05512000000012611", "bezeichnung": "Ekampsweg" }, "geometry": { "type": "Point", "coordinates": [ 6.899829273004351, 51.614807566858119 ] } },
{ "type": "Feature", "properties": { "strassenschluessel": "05512000000012613", "bezeichnung": "Elisabeth-Giese-Straße" }, "geometry": { "type": "Point", "coordinates": [ 6.889745851394316, 51.532609745475384 ] } },
{ "type": "Feature", "properties": { "strassenschluessel": "05512000000012615", "bezeichnung": "Elsweg" }, "geometry": null },
{ "type": "Feature", "properties": { "strassenschluessel": "05512000000012620", "bezeichnung": "Emscherstraße" }, "geometry": null },
{ "type": "Feature", "properties": { "strassenschluessel": "05512000000012640", "bezeichnung": "Erlengasse" }, "geometry": { "type": "Point", "coordinates": [ 6.983244688202693, 51.528341415562537 ] } },
{ "type": "Feature", "properties": { "strassenschluessel": "05512000000012657", "bezeichnung": "Ernst-Ender-Straße" }, "geometry": { "type": "Point", "coordinates": [ 6.943156544758414, 51.54457328209525 ] } },
{ "type": "Feature", "properties": { "strassenschluessel": "05512000000012660", "bezeichnung": "Ernst-Moritz-Arndt-Straße" }, "geometry": { "type": "Point", "coordinates": [ 6.934482082192109, 51.553644963496829 ] } },
{ "type": "Feature", "properties": { "strassenschluessel": "05512000000012670", "bezeichnung": "Ernst-Wilczok-Platz" }, "geometry": { "type": "Point", "coordinates": [ 6.925472177231836, 51.524391502048566 ] } },
{ "type": "Feature", "properties": { "strassenschluessel": "05512000000012680", "bezeichnung": "Essener Straße" }, "geometry": { "type": "Point", "coordinates": [ 6.931514899558307, 51.516269552165383 ] } },
{ "type": "Feature", "properties": { "strassenschluessel": "05512000000012700", "bezeichnung": "Eupenstraße" }, "geometry": { "type": "Point", "coordinates": [ 6.912066791858945, 51.518072069571176 ] } },
{ "type": "Feature", "properties": { "strassenschluessel": "05512000000012720", "bezeichnung": "Everstraße" }, "geometry": { "type": "Point", "coordinates": [ 6.985892709074585, 51.535116314233342 ] } },
{ "type": "Feature", "properties": { "strassenschluessel": "05512000000012740", "bezeichnung": "Fähndrichsweg" }, "geometry": { "type": "Point", "coordinates": [ 6.909528482116313, 51.521503179782322 ] } },
{ "type": "Feature", "properties": { "strassenschluessel": "05512000000012745", "bezeichnung": "Färberweg" }, "geometry": { "type": "Point", "coordinates": [ 6.904081582716628, 51.573776572235403 ] } },
{ "type": "Feature", "properties": { "strassenschluessel": "05512000000012751", "bezeichnung": "Falkenweg" }, "geometry": { "type": "Point", "coordinates": [ 6.931649694543156, 51.597218038960087 ] } },
{ "type": "Feature", "properties": { "strassenschluessel": "05512000000012761", "bezeichnung": "Fasanenweg" }, "geometry": { "type": "Point", "coordinates": [ 6.933411417632075, 51.596813012805349 ] } },
{ "type": "Feature", "properties": { "strassenschluessel": "05512000000012765", "bezeichnung": "Feldhausener Straße" }, "geometry": { "type": "Point", "coordinates": [ 6.969907737743855, 51.614582821937063 ] } },
{ "type": "Feature", "properties": { "strassenschluessel": "05512000000012771", "bezeichnung": "Feldstraße" }, "geometry": { "type": "Point", "coordinates": [ 6.91804608205091, 51.59656081195731 ] } },
{ "type": "Feature", "properties": { "strassenschluessel": "05512000000012780", "bezeichnung": "Fernewaldstraße" }, "geometry": { "type": "Point", "coordinates": [ 6.90129242146269, 51.532467076459518 ] } },
{ "type": "Feature", "properties": { "strassenschluessel": "05512000000012800", "bezeichnung": "Feuerbachstraße" }, "geometry": { "type": "Point", "coordinates": [ 6.939545632403609, 51.514391779643525 ] } },
{ "type": "Feature", "properties": { "strassenschluessel": "05512000000012820", "bezeichnung": "Feuerwerkerstraße" }, "geometry": { "type": "Point", "coordinates": [ 6.965055538083128, 51.510776876136795 ] } },
{ "type": "Feature", "properties": { "strassenschluessel": "05512000000012840", "bezeichnung": "Fichtestraße" }, "geometry": { "type": "Point", "coordinates": [ 6.97465880239869, 51.536091193743722 ] } },
{ "type": "Feature", "properties": { "strassenschluessel": "05512000000012851", "bezeichnung": "Finkenweg" }, "geometry": { "type": "Point", "coordinates": [ 6.933372983312707, 51.601873939416102 ] } },
{ "type": "Feature", "properties": { "strassenschluessel": "05512000000012860", "bezeichnung": "Fischedickstraße" }, "geometry": { "type": "Point", "coordinates": [ 6.952261281055062, 51.539905520463975 ] } },
{ "type": "Feature", "properties": { "strassenschluessel": "05512000000012871", "bezeichnung": "Flasacker" }, "geometry": null },
{ "type": "Feature", "properties": { "strassenschluessel": "05512000000012880", "bezeichnung": "Flöttestraße" }, "geometry": { "type": "Point", "coordinates": [ 6.983983705223253, 51.529954945335867 ] } },
{ "type": "Feature", "properties": { "strassenschluessel": "05512000000012886", "bezeichnung": "Florianweg" }, "geometry": { "type": "Point", "coordinates": [ 6.927821920678372, 51.532162401712469 ] } },
{ "type": "Feature", "properties": { "strassenschluessel": "05512000000012891", "bezeichnung": "Flugplatzstraße" }, "geometry": null },
{ "type": "Feature", "properties": { "strassenschluessel": "05512000000012900", "bezeichnung": "Förenkamp" }, "geometry": { "type": "Point", "coordinates": [ 6.945774096745018, 51.531877245328722 ] } },
{ "type": "Feature", "properties": { "strassenschluessel": "05512000000012920", "bezeichnung": "Fontanestraße" }, "geometry": { "type": "Point", "coordinates": [ 6.890164544331558, 51.529252320494798 ] } },
{ "type": "Feature", "properties": { "strassenschluessel": "05512000000012931", "bezeichnung": "Forststraße" }, "geometry": { "type": "Point", "coordinates": [ 6.914419779923532, 51.577408101222041 ] } },
{ "type": "Feature", "properties": { "strassenschluessel": "05512000000012940", "bezeichnung": "Fortkamp" }, "geometry": { "type": "Point", "coordinates": [ 6.975797277279036, 51.528133145208784 ] } },
{ "type": "Feature", "properties": { "strassenschluessel": "05512000000012960", "bezeichnung": "Fortsetzungstraße" }, "geometry": { "type": "Point", "coordinates": [ 6.964567938562969, 51.534274355576493 ] } },
{ "type": "Feature", "properties": { "strassenschluessel": "05512000000012971", "bezeichnung": "Frankestraße" }, "geometry": { "type": "Point", "coordinates": [ 6.900070694231874, 51.576411537850362 ] } },
{ "type": "Feature", "properties": { "strassenschluessel": "05512000000012977", "bezeichnung": "Franz-Kafka-Straße" }, "geometry": { "type": "Point", "coordinates": [ 6.894844744634536, 51.532396149345892 ] } },
{ "type": "Feature", "properties": { "strassenschluessel": "05512000000012978", "bezeichnung": "Franz-May-Platz" }, "geometry": null },
{ "type": "Feature", "properties": { "strassenschluessel": "05512000000012980", "bezeichnung": "Freiherr-vom-Stein-Straße" }, "geometry": { "type": "Point", "coordinates": [ 6.93416951327785, 51.514403326500634 ] } },
{ "type": "Feature", "properties": { "strassenschluessel": "05512000000012984", "bezeichnung": "Freiligrathstraße" }, "geometry": { "type": "Point", "coordinates": [ 6.923759994106623, 51.606893446484101 ] } },
{ "type": "Feature", "properties": { "strassenschluessel": "05512000000012991", "bezeichnung": "Friedenstraße" }, "geometry": { "type": "Point", "coordinates": [ 6.908014922295685, 51.57197851282195 ] } },
{ "type": "Feature", "properties": { "strassenschluessel": "05512000000012997", "bezeichnung": "Friedrich-Bitter-Weg" }, "geometry": null },
{ "type": "Feature", "properties": { "strassenschluessel": "05512000000013000", "bezeichnung": "Friedrich-Ebert-Straße" }, "geometry": { "type": "Point", "coordinates": [ 6.936357218844598, 51.514290899486092 ] } },
{ "type": "Feature", "properties": { "strassenschluessel": "05512000000013015", "bezeichnung": "Fries Kamp" }, "geometry": { "type": "Point", "coordinates": [ 6.923675055130696, 51.60209167100615 ] } },
{ "type": "Feature", "properties": { "strassenschluessel": "05512000000013021", "bezeichnung": "Fritz-Reuter-Straße" }, "geometry": { "type": "Point", "coordinates": [ 6.921465696062494, 51.610048156848677 ] } },
{ "type": "Feature", "properties": { "strassenschluessel": "05512000000013040", "bezeichnung": "Fröbelstraße" }, "geometry": { "type": "Point", "coordinates": [ 6.936266058908359, 51.523639499313944 ] } },
{ "type": "Feature", "properties": { "strassenschluessel": "05512000000013060", "bezeichnung": "Fuchsstraße" }, "geometry": { "type": "Point", "coordinates": [ 6.94206384634846, 51.542758354046185 ] } },
{ "type": "Feature", "properties": { "strassenschluessel": "05512000000013070", "bezeichnung": "Fundermannsweg" }, "geometry": { "type": "Point", "coordinates": [ 6.907390837244948, 51.522313592278714 ] } },
{ "type": "Feature", "properties": { "strassenschluessel": "05512000000013080", "bezeichnung": "Funkestraße" }, "geometry": { "type": "Point", "coordinates": [ 6.94738228586704, 51.535797589976404 ] } },
{ "type": "Feature", "properties": { "strassenschluessel": "05512000000013088", "bezeichnung": "Gabelsbergerstraße" }, "geometry": { "type": "Point", "coordinates": [ 6.957378941020508, 51.530829293628507 ] } },
{ "type": "Feature", "properties": { "strassenschluessel": "05512000000013091", "bezeichnung": "Gahlener Straße" }, "geometry": { "type": "Point", "coordinates": [ 6.916816213284066, 51.622969995119277 ] } },
{ "type": "Feature", "properties": { "strassenschluessel": "05512000000013121", "bezeichnung": "Gartenstraße" }, "geometry": { "type": "Point", "coordinates": [ 6.92452793582837, 51.608428621644052 ] } },
{ "type": "Feature", "properties": { "strassenschluessel": "05512000000013140", "bezeichnung": "Geibelstraße" }, "geometry": { "type": "Point", "coordinates": [ 6.898097877797912, 51.518922645934019 ] } },
{ "type": "Feature", "properties": { "strassenschluessel": "05512000000013151", "bezeichnung": "Geitlingsweg" }, "geometry": { "type": "Point", "coordinates": [ 6.915212680711315, 51.573184215118232 ] } },
{ "type": "Feature", "properties": { "strassenschluessel": "05512000000013155", "bezeichnung": "Gerberstraße" }, "geometry": { "type": "Point", "coordinates": [ 6.908144423093162, 51.573010778465786 ] } },
{ "type": "Feature", "properties": { "strassenschluessel": "05512000000013160", "bezeichnung": "Gerhard-Küchen-Straße" }, "geometry": { "type": "Point", "coordinates": [ 6.98186511752855, 51.529868902985726 ] } },
{ "type": "Feature", "properties": { "strassenschluessel": "05512000000013180", "bezeichnung": "Gerhart-Hauptmann-Straße" }, "geometry": { "type": "Point", "coordinates": [ 6.894538231842145, 51.534686994041401 ] } },
{ "type": "Feature", "properties": { "strassenschluessel": "05512000000013200", "bezeichnung": "Gerichtsstraße" }, "geometry": { "type": "Point", "coordinates": [ 6.924510532849173, 51.527949426382953 ] } },
{ "type": "Feature", "properties": { "strassenschluessel": "05512000000013220", "bezeichnung": "Germaniahof" }, "geometry": { "type": "Point", "coordinates": [ 6.935245014512193, 51.527027536721903 ] } },
{ "type": "Feature", "properties": { "strassenschluessel": "05512000000013240", "bezeichnung": "Germaniastraße" }, "geometry": { "type": "Point", "coordinates": [ 6.931252513757049, 51.528305839053147 ] } },
{ "type": "Feature", "properties": { "strassenschluessel": "05512000000013260", "bezeichnung": "Gernotstraße" }, "geometry": { "type": "Point", "coordinates": [ 6.913028021727648, 51.541853323199412 ] } },
{ "type": "Feature", "properties": { "strassenschluessel": "05512000000013265", "bezeichnung": "Gertskamp" }, "geometry": { "type": "Point", "coordinates": [ 6.962967097974317, 51.609967130963412 ] } },
{ "type": "Feature", "properties": { "strassenschluessel": "05512000000013270", "bezeichnung": "Geschwister-Scholl-Weg" }, "geometry": { "type": "Point", "coordinates": [ 6.952970103874516, 51.52807524128081 ] } },
{ "type": "Feature", "properties": { "strassenschluessel": "05512000000013280", "bezeichnung": "Giesenfort" }, "geometry": { "type": "Point", "coordinates": [ 6.947232283420049, 51.506086590440781 ] } },
{ "type": "Feature", "properties": { "strassenschluessel": "05512000000013285", "bezeichnung": "Giesenheide" }, "geometry": { "type": "Point", "coordinates": [ 6.92073038279178, 51.566827447302991 ] } },
{ "type": "Feature", "properties": { "strassenschluessel": "05512000000013300", "bezeichnung": "Gildestraße" }, "geometry": { "type": "Point", "coordinates": [ 6.936577582358528, 51.518452094764875 ] } },
{ "type": "Feature", "properties": { "strassenschluessel": "05512000000013320", "bezeichnung": "Ginsterweg" }, "geometry": { "type": "Point", "coordinates": [ 6.896523631554244, 51.52181484221753 ] } },
{ "type": "Feature", "properties": { "strassenschluessel": "05512000000013340", "bezeichnung": "Gladbecker Straße" }, "geometry": { "type": "Point", "coordinates": [ 6.93258593256913, 51.5362338022315 ] } },
{ "type": "Feature", "properties": { "strassenschluessel": "05512000000013351", "bezeichnung": "Glasbläserweg" }, "geometry": { "type": "Point", "coordinates": [ 6.903258497389657, 51.574187205665766 ] } },
{ "type": "Feature", "properties": { "strassenschluessel": "05512000000013355", "bezeichnung": "Glaserhüttenheide" }, "geometry": { "type": "Point", "coordinates": [ 6.907756833477824, 51.57995775314135 ] } },
{ "type": "Feature", "properties": { "strassenschluessel": "05512000000013360", "bezeichnung": "Gleiwitzer Platz" }, "geometry": { "type": "Point", "coordinates": [ 6.920174022132841, 51.52173939397526 ] } },
{ "type": "Feature", "properties": { "strassenschluessel": "05512000000013380", "bezeichnung": "Glückaufstraße" }, "geometry": { "type": "Point", "coordinates": [ 6.948769490383124, 51.519736920343995 ] } },
{ "type": "Feature", "properties": { "strassenschluessel": "05512000000013400", "bezeichnung": "Goebenstraße" }, "geometry": { "type": "Point", "coordinates": [ 6.922885620747932, 51.527905064085466 ] } },
{ "type": "Feature", "properties": { "strassenschluessel": "05512000000013420", "bezeichnung": "Görkenstraße" }, "geometry": { "type": "Point", "coordinates": [ 6.90225836837175, 51.537436686648697 ] } },
{ "type": "Feature", "properties": { "strassenschluessel": "05512000000013440", "bezeichnung": "Goethestraße" }, "geometry": { "type": "Point", "coordinates": [ 6.888522189311239, 51.531390430543468 ] } },
{ "type": "Feature", "properties": { "strassenschluessel": "05512000000013447", "bezeichnung": "Gohrweide" }, "geometry": { "type": "Point", "coordinates": [ 6.947828883525631, 51.516466878196312 ] } },
{ "type": "Feature", "properties": { "strassenschluessel": "05512000000013450", "bezeichnung": "Goldammerweg" }, "geometry": { "type": "Point", "coordinates": [ 6.887373253823888, 51.544929601084142 ] } },
{ "type": "Feature", "properties": { "strassenschluessel": "05512000000013451", "bezeichnung": "Goldbredde" }, "geometry": null },
{ "type": "Feature", "properties": { "strassenschluessel": "05512000000013460", "bezeichnung": "Gorch-Fock-Straße" }, "geometry": { "type": "Point", "coordinates": [ 6.894339137000619, 51.533165384684594 ] } },
{ "type": "Feature", "properties": { "strassenschluessel": "05512000000013471", "bezeichnung": "Gottfried-Kappen-Weg" }, "geometry": { "type": "Point", "coordinates": [ 6.932005733437613, 51.593606662889883 ] } },
{ "type": "Feature", "properties": { "strassenschluessel": "05512000000013480", "bezeichnung": "Gräffstraße" }, "geometry": { "type": "Point", "coordinates": [ 6.941233602447735, 51.54628494571687 ] } },
{ "type": "Feature", "properties": { "strassenschluessel": "05512000000013481", "bezeichnung": "Gregorstraße" }, "geometry": { "type": "Point", "coordinates": [ 6.917747020173441, 51.591826166505918 ] } },
{ "type": "Feature", "properties": { "strassenschluessel": "05512000000013485", "bezeichnung": "Grenzstraße" }, "geometry": { "type": "Point", "coordinates": [ 6.961610164003625, 51.634476944510652 ] } },
{ "type": "Feature", "properties": { "strassenschluessel": "05512000000013491", "bezeichnung": "Grotenweg" }, "geometry": { "type": "Point", "coordinates": [ 6.903457890399482, 51.608799404713267 ] } },
{ "type": "Feature", "properties": { "strassenschluessel": "05512000000013495", "bezeichnung": "Grüner Weg" }, "geometry": { "type": "Point", "coordinates": [ 6.960508829626479, 51.606044591711964 ] } },
{ "type": "Feature", "properties": { "strassenschluessel": "05512000000013500", "bezeichnung": "Grünewaldstraße" }, "geometry": { "type": "Point", "coordinates": [ 6.931977762157429, 51.514656346221329 ] } },
{ "type": "Feature", "properties": { "strassenschluessel": "05512000000013511", "bezeichnung": "Grüteringsfeld" }, "geometry": { "type": "Point", "coordinates": [ 6.905952090477872, 51.597780512305668 ] } },
{ "type": "Feature", "properties": { "strassenschluessel": "05512000000013520", "bezeichnung": "Grüterstraße" }, "geometry": { "type": "Point", "coordinates": [ 6.941251160394939, 51.516874416855941 ] } },
{ "type": "Feature", "properties": { "strassenschluessel": "05512000000013540", "bezeichnung": "Güldenberg" }, "geometry": { "type": "Point", "coordinates": [ 6.900212455378909, 51.524152345147535 ] } },
{ "type": "Feature", "properties": { "strassenschluessel": "05512000000013560", "bezeichnung": "Gungstraße" }, "geometry": { "type": "Point", "coordinates": [ 6.977226436044188, 51.530021106005968 ] } },
{ "type": "Feature", "properties": { "strassenschluessel": "05512000000013580", "bezeichnung": "Gustav-Freytag-Straße" }, "geometry": { "type": "Point", "coordinates": [ 6.885540483795637, 51.536866332365634 ] } },
{ "type": "Feature", "properties": { "strassenschluessel": "05512000000013620", "bezeichnung": "Gustav-Ohm-Straße" }, "geometry": { "type": "Point", "coordinates": [ 6.915836944258088, 51.524392056958561 ] } },
{ "type": "Feature", "properties": { "strassenschluessel": "05512000000013640", "bezeichnung": "Gutenbergstraße" }, "geometry": { "type": "Point", "coordinates": [ 6.965511511802019, 51.53775142168405 ] } },
{ "type": "Feature", "properties": { "strassenschluessel": "05512000000013660", "bezeichnung": "Haardtstraße" }, "geometry": { "type": "Point", "coordinates": [ 6.941515714696076, 51.527494586920568 ] } },
{ "type": "Feature", "properties": { "strassenschluessel": "05512000000013665", "bezeichnung": "Habichtweg" }, "geometry": { "type": "Point", "coordinates": [ 6.931886137221444, 51.596371854648886 ] } },
{ "type": "Feature", "properties": { "strassenschluessel": "05512000000013671", "bezeichnung": "Hackfurthstraße" }, "geometry": { "type": "Point", "coordinates": [ 6.91579748512608, 51.59998673359754 ] } },
{ "type": "Feature", "properties": { "strassenschluessel": "05512000000013676", "bezeichnung": "Händelstraße" }, "geometry": { "type": "Point", "coordinates": [ 6.928158604510316, 51.535493764004869 ] } },
{ "type": "Feature", "properties": { "strassenschluessel": "05512000000013680", "bezeichnung": "Hafenstraße" }, "geometry": { "type": "Point", "coordinates": [ 6.946889601233988, 51.500955577585898 ] } },
{ "type": "Feature", "properties": { "strassenschluessel": "05512000000013700", "bezeichnung": "Hagenbrockstraße" }, "geometry": { "type": "Point", "coordinates": [ 6.902469051469803, 51.522909969716373 ] } },
{ "type": "Feature", "properties": { "strassenschluessel": "05512000000013720", "bezeichnung": "Hagenstraße" }, "geometry": { "type": "Point", "coordinates": [ 6.914578513991668, 51.540538389494657 ] } },
{ "type": "Feature", "properties": { "strassenschluessel": "05512000000013740", "bezeichnung": "Hanielstraße" }, "geometry": { "type": "Point", "coordinates": [ 6.879928966156512, 51.539086936990749 ] } },
{ "type": "Feature", "properties": { "strassenschluessel": "05512000000013780", "bezeichnung": "Hans-Böckler-Straße" }, "geometry": { "type": "Point", "coordinates": [ 6.914764601318752, 51.526304687952276 ] } },
{ "type": "Feature", "properties": { "strassenschluessel": "05512000000013790", "bezeichnung": "Hans-Dringenberg-Weg" }, "geometry": { "type": "Point", "coordinates": [ 6.975052678092955, 51.533688147528139 ] } },
{ "type": "Feature", "properties": { "strassenschluessel": "05512000000013800", "bezeichnung": "Hans-Sachs-Platz" }, "geometry": { "type": "Point", "coordinates": [ 6.926193931954058, 51.528438695422302 ] } },
{ "type": "Feature", "properties": { "strassenschluessel": "05512000000013820", "bezeichnung": "Hans-Sachs-Straße" }, "geometry": { "type": "Point", "coordinates": [ 6.925890236799197, 51.527751096862382 ] } },
{ "type": "Feature", "properties": { "strassenschluessel": "05512000000013825", "bezeichnung": "Hans-Söller-Platz" }, "geometry": null },
{ "type": "Feature", "properties": { "strassenschluessel": "05512000000013830", "bezeichnung": "Hansastraße" }, "geometry": { "type": "Point", "coordinates": [ 6.925083844028315, 51.52150582231075 ] } },
{ "type": "Feature", "properties": { "strassenschluessel": "05512000000013836", "bezeichnung": "Hansiepenbusch" }, "geometry": { "type": "Point", "coordinates": [ 6.915938419860632, 51.50368991405724 ] } },
{ "type": "Feature", "properties": { "strassenschluessel": "05512000000013840", "bezeichnung": "Hardenbergstraße" }, "geometry": { "type": "Point", "coordinates": [ 6.93547305469751, 51.515994072562258 ] } },
{ "type": "Feature", "properties": { "strassenschluessel": "05512000000013860", "bezeichnung": "Harkortstraße" }, "geometry": { "type": "Point", "coordinates": [ 6.885545995466981, 51.527849766655919 ] } },
{ "type": "Feature", "properties": { "strassenschluessel": "05512000000013880", "bezeichnung": "Haßlacherstraße" }, "geometry": { "type": "Point", "coordinates": [ 6.945348665504685, 51.502542607524987 ] } },
{ "type": "Feature", "properties": { "strassenschluessel": "05512000000013891", "bezeichnung": "Hauptstraße" }, "geometry": { "type": "Point", "coordinates": [ 6.924214849168602, 51.603744792727518 ] } },
{ "type": "Feature", "properties": { "strassenschluessel": "05512000000013900", "bezeichnung": "Haus-Hove-Straße" }, "geometry": { "type": "Point", "coordinates": [ 6.918167917227084, 51.502781409895704 ] } },
{ "type": "Feature", "properties": { "strassenschluessel": "05512000000013920", "bezeichnung": "Haverkamp" }, "geometry": { "type": "Point", "coordinates": [ 6.981983299508303, 51.518322033169611 ] } },
{ "type": "Feature", "properties": { "strassenschluessel": "05512000000013940", "bezeichnung": "Hebeleckstraße" }, "geometry": { "type": "Point", "coordinates": [ 6.967885755516859, 51.529540956049075 ] } },
{ "type": "Feature", "properties": { "strassenschluessel": "05512000000013960", "bezeichnung": "Heckenweg" }, "geometry": { "type": "Point", "coordinates": [ 6.944435042067147, 51.505547907244917 ] } },
{ "type": "Feature", "properties": { "strassenschluessel": "05512000000013980", "bezeichnung": "Hegelstraße" }, "geometry": { "type": "Point", "coordinates": [ 6.975883790485946, 51.530157403978059 ] } },
{ "type": "Feature", "properties": { "strassenschluessel": "05512000000013991", "bezeichnung": "Hegestraße" }, "geometry": { "type": "Point", "coordinates": [ 6.920624055164971, 51.56684059891812 ] } },
{ "type": "Feature", "properties": { "strassenschluessel": "05512000000014000", "bezeichnung": "Heidenheck" }, "geometry": { "type": "Point", "coordinates": [ 6.911330991649793, 51.51882872566528 ] } },
{ "type": "Feature", "properties": { "strassenschluessel": "05512000000014020", "bezeichnung": "Heidestraße" }, "geometry": { "type": "Point", "coordinates": [ 6.889110657203672, 51.528621935653938 ] } },
{ "type": "Feature", "properties": { "strassenschluessel": "05512000000014031", "bezeichnung": "Heideweg" }, "geometry": { "type": "Point", "coordinates": [ 6.938594188601673, 51.636735972179387 ] } },
{ "type": "Feature", "properties": { "strassenschluessel": "05512000000014040", "bezeichnung": "Heimannstraße" }, "geometry": { "type": "Point", "coordinates": [ 6.969006609136697, 51.542896326514544 ] } },
{ "type": "Feature", "properties": { "strassenschluessel": "05512000000014060", "bezeichnung": "Heimbruch" }, "geometry": { "type": "Point", "coordinates": [ 6.935650025960418, 51.524334931399693 ] } },
{ "type": "Feature", "properties": { "strassenschluessel": "05512000000014071", "bezeichnung": "Heimersfeld" }, "geometry": { "type": "Point", "coordinates": [ 6.901685984433247, 51.582097316743862 ] } },
{ "type": "Feature", "properties": { "strassenschluessel": "05512000000014075", "bezeichnung": "Heinrich-Grewer-Straße" }, "geometry": { "type": "Point", "coordinates": [ 6.899571816861028, 51.600672020908775 ] } },
{ "type": "Feature", "properties": { "strassenschluessel": "05512000000014076", "bezeichnung": "Heinrich-Gutermuth-Straße" }, "geometry": { "type": "Point", "coordinates": [ 6.933598594176991, 51.531896098845174 ] } },
{ "type": "Feature", "properties": { "strassenschluessel": "05512000000014080", "bezeichnung": "Heinrich-Heine-Straße" }, "geometry": { "type": "Point", "coordinates": [ 6.889285490188735, 51.537259123443334 ] } },
{ "type": "Feature", "properties": { "strassenschluessel": "05512000000014085", "bezeichnung": "Heinrich-Hertz-Straße" }, "geometry": { "type": "Point", "coordinates": [ 6.930699873878329, 51.613474623580608 ] } },
{ "type": "Feature", "properties": { "strassenschluessel": "05512000000014090", "bezeichnung": "Heinrich-Kämpchen-Straße" }, "geometry": { "type": "Point", "coordinates": [ 6.885309420670808, 51.537114331506409 ] } },
{ "type": "Feature", "properties": { "strassenschluessel": "05512000000014100", "bezeichnung": "Heinrich-Lersch-Straße" }, "geometry": { "type": "Point", "coordinates": [ 6.892176350367265, 51.534026728316611 ] } },
{ "type": "Feature", "properties": { "strassenschluessel": "05512000000014110", "bezeichnung": "Heinrich-Theißen-Straße" }, "geometry": { "type": "Point", "coordinates": [ 6.945213635155207, 51.550625996961521 ] } },
{ "type": "Feature", "properties": { "strassenschluessel": "05512000000014111", "bezeichnung": "Hemmers Pöhlken" }, "geometry": { "type": "Point", "coordinates": [ 6.96194192074633, 51.608762175793743 ] } },
{ "type": "Feature", "properties": { "strassenschluessel": "05512000000014113", "bezeichnung": "Hellen Straße" }, "geometry": { "type": "Point", "coordinates": [ 6.931701626047388, 51.593344672002949 ] } },
{ "type": "Feature", "properties": { "strassenschluessel": "05512000000014115", "bezeichnung": "Henry-Dunant-Straße" }, "geometry": { "type": "Point", "coordinates": [ 6.937576720449415, 51.554419275223552 ] } },
{ "type": "Feature", "properties": { "strassenschluessel": "05512000000014120", "bezeichnung": "Herderstraße" }, "geometry": { "type": "Point", "coordinates": [ 6.886940566664999, 51.533598651862725 ] } },
{ "type": "Feature", "properties": { "strassenschluessel": "05512000000014133", "bezeichnung": "Hermann-Gebauer-Platz" }, "geometry": null },
{ "type": "Feature", "properties": { "strassenschluessel": "05512000000014140", "bezeichnung": "Hermann-Löns-Straße" }, "geometry": { "type": "Point", "coordinates": [ 6.895116728526959, 51.536183721007866 ] } },
{ "type": "Feature", "properties": { "strassenschluessel": "05512000000014160", "bezeichnung": "Herzogstraße" }, "geometry": { "type": "Point", "coordinates": [ 6.912772657695496, 51.546109962731656 ] } },
{ "type": "Feature", "properties": { "strassenschluessel": "05512000000014165", "bezeichnung": "Hetkamp" }, "geometry": { "type": "Point", "coordinates": [ 6.900260586989261, 51.604406779600076 ] } },
{ "type": "Feature", "properties": { "strassenschluessel": "05512000000014171", "bezeichnung": "Heuweg" }, "geometry": { "type": "Point", "coordinates": [ 6.897462144080314, 51.596556698913211 ] } },
{ "type": "Feature", "properties": { "strassenschluessel": "05512000000014173", "bezeichnung": "Hiberniastraße" }, "geometry": { "type": "Point", "coordinates": [ 6.947849507228863, 51.5501658744111 ] } },
{ "type": "Feature", "properties": { "strassenschluessel": "05512000000014175", "bezeichnung": "Hiesfelder Straße" }, "geometry": { "type": "Point", "coordinates": [ 6.913344441037003, 51.59238483570153 ] } },
{ "type": "Feature", "properties": { "strassenschluessel": "05512000000014180", "bezeichnung": "Hochstraße" }, "geometry": { "type": "Point", "coordinates": [ 6.924447603203274, 51.52097770712907 ] } },
{ "type": "Feature", "properties": { "strassenschluessel": "05512000000014191", "bezeichnung": "Höhenweg" }, "geometry": { "type": "Point", "coordinates": [ 6.951302395089914, 51.603077606637562 ] } },
{ "type": "Feature", "properties": { "strassenschluessel": "05512000000014200", "bezeichnung": "Hölderlinstraße" }, "geometry": { "type": "Point", "coordinates": [ 6.890836210896669, 51.536674226272453 ] } },
{ "type": "Feature", "properties": { "strassenschluessel": "05512000000014220", "bezeichnung": "Höttkesweg" }, "geometry": { "type": "Point", "coordinates": [ 6.902791022653759, 51.521082243232321 ] } },
{ "type": "Feature", "properties": { "strassenschluessel": "05512000000014225", "bezeichnung": "Hövekesweg" }, "geometry": { "type": "Point", "coordinates": [ 6.970871190288363, 51.61180073198345 ] } },
{ "type": "Feature", "properties": { "strassenschluessel": "05512000000014231", "bezeichnung": "Hofkamp" }, "geometry": { "type": "Point", "coordinates": [ 6.918774194329458, 51.622978103741353 ] } },
{ "type": "Feature", "properties": { "strassenschluessel": "05512000000014235", "bezeichnung": "Hofwiese" }, "geometry": { "type": "Point", "coordinates": [ 6.911550166666505, 51.622624903287544 ] } },
{ "type": "Feature", "properties": { "strassenschluessel": "05512000000014255", "bezeichnung": "Hohe Heide" }, "geometry": { "type": "Point", "coordinates": [ 6.927652326396885, 51.583684830670364 ] } },
{ "type": "Feature", "properties": { "strassenschluessel": "05512000000014261", "bezeichnung": "Hoheheideweg" }, "geometry": { "type": "Point", "coordinates": [ 6.924645105668196, 51.577268458626719 ] } },
{ "type": "Feature", "properties": { "strassenschluessel": "05512000000014265", "bezeichnung": "Hohes Feld" }, "geometry": { "type": "Point", "coordinates": [ 6.964545811830915, 51.607445426753372 ] } },
{ "type": "Feature", "properties": { "strassenschluessel": "05512000000014270", "bezeichnung": "Holbeinstraße" }, "geometry": { "type": "Point", "coordinates": [ 6.956678016497024, 51.516267874038213 ] } },
{ "type": "Feature", "properties": { "strassenschluessel": "05512000000014280", "bezeichnung": "Holtfortstraße" }, "geometry": { "type": "Point", "coordinates": [ 6.935455652080592, 51.538543031792017 ] } },
{ "type": "Feature", "properties": { "strassenschluessel": "05512000000014291", "bezeichnung": "Holthausener Straße" }, "geometry": { "type": "Point", "coordinates": [ 6.891393565630987, 51.601838013159238 ] } },
{ "type": "Feature", "properties": { "strassenschluessel": "05512000000014300", "bezeichnung": "Holunderweg" }, "geometry": { "type": "Point", "coordinates": [ 6.897762721642072, 51.52211760912202 ] } },
{ "type": "Feature", "properties": { "strassenschluessel": "05512000000014311", "bezeichnung": "Holzfällerweg" }, "geometry": null },
{ "type": "Feature", "properties": { "strassenschluessel": "05512000000014320", "bezeichnung": "Horstbruch" }, "geometry": { "type": "Point", "coordinates": [ 6.984368527079637, 51.525643060846306 ] } },
{ "type": "Feature", "properties": { "strassenschluessel": "05512000000014340", "bezeichnung": "Horster Straße" }, "geometry": { "type": "Point", "coordinates": [ 6.955492899873228, 51.533318067192184 ] } },
{ "type": "Feature", "properties": { "strassenschluessel": "05512000000014351", "bezeichnung": "Horsthofstraße" }, "geometry": { "type": "Point", "coordinates": [ 6.929881622856556, 51.602196891889641 ] } },
{ "type": "Feature", "properties": { "strassenschluessel": "05512000000014355", "bezeichnung": "Horstkamp" }, "geometry": { "type": "Point", "coordinates": [ 6.927330530902437, 51.629549830717799 ] } },
{ "type": "Feature", "properties": { "strassenschluessel": "05512000000014360", "bezeichnung": "Hovermannstraße" }, "geometry": { "type": "Point", "coordinates": [ 6.914332924511731, 51.503793807201198 ] } },
{ "type": "Feature", "properties": { "strassenschluessel": "05512000000014380", "bezeichnung": "Hünefeldstraße" }, "geometry": { "type": "Point", "coordinates": [ 6.919315568025756, 51.513901260298489 ] } },
{ "type": "Feature", "properties": { "strassenschluessel": "05512000000014400", "bezeichnung": "Hüskensheide" }, "geometry": { "type": "Point", "coordinates": [ 6.95156614177161, 51.534265727055967 ] } },
{ "type": "Feature", "properties": { "strassenschluessel": "05512000000014420", "bezeichnung": "Hugo-Stinnes-Straße" }, "geometry": { "type": "Point", "coordinates": [ 6.981950280270318, 51.530686225741491 ] } },
{ "type": "Feature", "properties": { "strassenschluessel": "05512000000014422", "bezeichnung": "Hugo-Reckmann-Straße" }, "geometry": null },
{ "type": "Feature", "properties": { "strassenschluessel": "05512000000014440", "bezeichnung": "Humboldtstraße" }, "geometry": { "type": "Point", "coordinates": [ 6.930683395235678, 51.517617675183622 ] } },
{ "type": "Feature", "properties": { "strassenschluessel": "05512000000014460", "bezeichnung": "Husemannstraße" }, "geometry": { "type": "Point", "coordinates": [ 6.946151077500388, 51.540564658606776 ] } },
{ "type": "Feature", "properties": { "strassenschluessel": "05512000000014480", "bezeichnung": "Huyssenstraße" }, "geometry": { "type": "Point", "coordinates": [ 6.94342853529656, 51.517982368208642 ] } },
{ "type": "Feature", "properties": { "strassenschluessel": "05512000000014491", "bezeichnung": "Im Acker" }, "geometry": { "type": "Point", "coordinates": [ 6.888395821191826, 51.577310346315627 ] } },
{ "type": "Feature", "properties": { "strassenschluessel": "05512000000014500", "bezeichnung": "Im Beckedal" }, "geometry": { "type": "Point", "coordinates": [ 6.938862812542588, 51.52184907578588 ] } },
{ "type": "Feature", "properties": { "strassenschluessel": "05512000000014520", "bezeichnung": "Im Beckram" }, "geometry": { "type": "Point", "coordinates": [ 6.905363780668014, 51.521544613342911 ] } },
{ "type": "Feature", "properties": { "strassenschluessel": "05512000000014540", "bezeichnung": "Im Boytal" }, "geometry": { "type": "Point", "coordinates": [ 6.968327327610318, 51.544933162195477 ] } },
{ "type": "Feature", "properties": { "strassenschluessel": "05512000000014546", "bezeichnung": "Im Blankenfeld" }, "geometry": { "type": "Point", "coordinates": [ 6.958611255858677, 51.533444132212828 ] } },
{ "type": "Feature", "properties": { "strassenschluessel": "05512000000014560", "bezeichnung": "Im Brahmkamp" }, "geometry": { "type": "Point", "coordinates": [ 6.923216669308789, 51.503753063054909 ] } },
{ "type": "Feature", "properties": { "strassenschluessel": "05512000000014565", "bezeichnung": "Im Breil" }, "geometry": { "type": "Point", "coordinates": [ 6.938802309086108, 51.59900824951918 ] } },
{ "type": "Feature", "properties": { "strassenschluessel": "05512000000014570", "bezeichnung": "Im Brinkmannsfeld" }, "geometry": { "type": "Point", "coordinates": [ 6.90265692562153, 51.518942358252886 ] } },
{ "type": "Feature", "properties": { "strassenschluessel": "05512000000014600", "bezeichnung": "Im Dorbusch" }, "geometry": { "type": "Point", "coordinates": [ 6.987713972458004, 51.534093434613652 ] } },
{ "type": "Feature", "properties": { "strassenschluessel": "05512000000014620", "bezeichnung": "Im Emscherbruch" }, "geometry": { "type": "Point", "coordinates": [ 6.964264929595944, 51.510646801927308 ] } },
{ "type": "Feature", "properties": { "strassenschluessel": "05512000000014640", "bezeichnung": "Im Flaßviertel" }, "geometry": { "type": "Point", "coordinates": [ 6.944042098833018, 51.531537905575775 ] } },
{ "type": "Feature", "properties": { "strassenschluessel": "05512000000014660", "bezeichnung": "Im Fuhlenbrock" }, "geometry": { "type": "Point", "coordinates": [ 6.892312280456929, 51.530770072178967 ] } },
{ "type": "Feature", "properties": { "strassenschluessel": "05512000000014666", "bezeichnung": "Im Gewerbepark" }, "geometry": { "type": "Point", "coordinates": [ 6.977898727052, 51.544609282301359 ] } },
{ "type": "Feature", "properties": { "strassenschluessel": "05512000000014671", "bezeichnung": "Im Grund" }, "geometry": { "type": "Point", "coordinates": [ 6.972288304859705, 51.614526305235174 ] } },
{ "type": "Feature", "properties": { "strassenschluessel": "05512000000014680", "bezeichnung": "Im Gungfeld" }, "geometry": { "type": "Point", "coordinates": [ 6.988841892277273, 51.528437182637063 ] } },
{ "type": "Feature", "properties": { "strassenschluessel": "05512000000014700", "bezeichnung": "Im Hülsfeld" }, "geometry": { "type": "Point", "coordinates": [ 6.937875444856704, 51.526127350891699 ] } },
{ "type": "Feature", "properties": { "strassenschluessel": "05512000000014701", "bezeichnung": "Im Kamp" }, "geometry": { "type": "Point", "coordinates": [ 6.957692798014799, 51.6080698217554 ] } },
{ "type": "Feature", "properties": { "strassenschluessel": "05512000000014707", "bezeichnung": "Im Johannestal" }, "geometry": { "type": "Point", "coordinates": [ 6.972480964612613, 51.530520565680717 ] } },
{ "type": "Feature", "properties": { "strassenschluessel": "05512000000014711", "bezeichnung": "Im Loh" }, "geometry": { "type": "Point", "coordinates": [ 6.920682842095102, 51.623099839141538 ] } },
{ "type": "Feature", "properties": { "strassenschluessel": "05512000000014713", "bezeichnung": "Im Mallingforst" }, "geometry": { "type": "Point", "coordinates": [ 6.898803651134759, 51.536594167662784 ] } },
{ "type": "Feature", "properties": { "strassenschluessel": "05512000000014715", "bezeichnung": "Im Mandel" }, "geometry": { "type": "Point", "coordinates": [ 6.972860781908674, 51.616473053498389 ] } },
{ "type": "Feature", "properties": { "strassenschluessel": "05512000000014731", "bezeichnung": "Im Nieland" }, "geometry": null },
{ "type": "Feature", "properties": { "strassenschluessel": "05512000000014735", "bezeichnung": "Im Pinntal" }, "geometry": { "type": "Point", "coordinates": [ 6.921270401471589, 51.612919325066976 ] } },
{ "type": "Feature", "properties": { "strassenschluessel": "05512000000014740", "bezeichnung": "Im Scheierbruch" }, "geometry": { "type": "Point", "coordinates": [ 6.942920026153553, 51.537175138943134 ] } },
{ "type": "Feature", "properties": { "strassenschluessel": "05512000000014751", "bezeichnung": "Im Schwarzwald" }, "geometry": { "type": "Point", "coordinates": [ 6.9301480322616, 51.608396289430722 ] } },
{ "type": "Feature", "properties": { "strassenschluessel": "05512000000014755", "bezeichnung": "Im Spring" }, "geometry": { "type": "Point", "coordinates": [ 6.891608096503275, 51.57372707167643 ] } },
{ "type": "Feature", "properties": { "strassenschluessel": "05512000000014760", "bezeichnung": "Im Springfeld" }, "geometry": { "type": "Point", "coordinates": [ 6.931767213650282, 51.512937753193263 ] } },
{ "type": "Feature", "properties": { "strassenschluessel": "05512000000014780", "bezeichnung": "Im Stadtgarten" }, "geometry": { "type": "Point", "coordinates": [ 6.917213462435598, 51.529829872541242 ] } },
{ "type": "Feature", "properties": { "strassenschluessel": "05512000000014800", "bezeichnung": "Im Sundern" }, "geometry": { "type": "Point", "coordinates": [ 6.985387401698718, 51.527258064616994 ] } },
{ "type": "Feature", "properties": { "strassenschluessel": "05512000000014820", "bezeichnung": "Im Tauschlag" }, "geometry": { "type": "Point", "coordinates": [ 6.918326380852749, 51.542399675532558 ] } },
{ "type": "Feature", "properties": { "strassenschluessel": "05512000000014831", "bezeichnung": "Im Venn" }, "geometry": { "type": "Point", "coordinates": [ 6.881293747016458, 51.571356462486207 ] } },
{ "type": "Feature", "properties": { "strassenschluessel": "05512000000014835", "bezeichnung": "Im Wenkendiek" }, "geometry": { "type": "Point", "coordinates": [ 6.930760939772219, 51.6073149016608 ] } },
{ "type": "Feature", "properties": { "strassenschluessel": "05512000000014840", "bezeichnung": "Im Werth" }, "geometry": { "type": "Point", "coordinates": [ 6.972632948168781, 51.507159982577548 ] } },
{ "type": "Feature", "properties": { "strassenschluessel": "05512000000014860", "bezeichnung": "Im Wildland" }, "geometry": { "type": "Point", "coordinates": [ 6.931029247879874, 51.509290292379852 ] } },
{ "type": "Feature", "properties": { "strassenschluessel": "05512000000014880", "bezeichnung": "Im Wilmkesfeld" }, "geometry": { "type": "Point", "coordinates": [ 6.90994044502404, 51.520778956953812 ] } },
{ "type": "Feature", "properties": { "strassenschluessel": "05512000000014891", "bezeichnung": "Im Winkel" }, "geometry": { "type": "Point", "coordinates": [ 6.961415643874063, 51.615510300981661 ] } },
{ "type": "Feature", "properties": { "strassenschluessel": "05512000000014893", "bezeichnung": "Imbuschstraße" }, "geometry": { "type": "Point", "coordinates": [ 6.947593217924491, 51.540147233437764 ] } },
{ "type": "Feature", "properties": { "strassenschluessel": "05512000000014895", "bezeichnung": "Imkerweg" }, "geometry": { "type": "Point", "coordinates": [ 6.907699533293689, 51.573521056097555 ] } },
{ "type": "Feature", "properties": { "strassenschluessel": "05512000000014897", "bezeichnung": "Immermannstraße" }, "geometry": { "type": "Point", "coordinates": [ 6.888070626840064, 51.538139363971958 ] } },
{ "type": "Feature", "properties": { "strassenschluessel": "05512000000014900", "bezeichnung": "In Boymannsheide" }, "geometry": { "type": "Point", "coordinates": [ 6.987737863873575, 51.534822442320824 ] } },
{ "type": "Feature", "properties": { "strassenschluessel": "05512000000014911", "bezeichnung": "In den Höfen" }, "geometry": { "type": "Point", "coordinates": [ 6.942893464322865, 51.598906370028118 ] } },
{ "type": "Feature", "properties": { "strassenschluessel": "05512000000014920", "bezeichnung": "In den Weywiesen" }, "geometry": { "type": "Point", "coordinates": [ 6.928167391375134, 51.53890908164086 ] } },
{ "type": "Feature", "properties": { "strassenschluessel": "05512000000014940", "bezeichnung": "In der Boverheide" }, "geometry": { "type": "Point", "coordinates": [ 6.953735813297581, 51.5379552856866 ] } },
{ "type": "Feature", "properties": { "strassenschluessel": "05512000000014951", "bezeichnung": "In der Bräuke" }, "geometry": { "type": "Point", "coordinates": [ 6.932294936678076, 51.621070555027458 ] } },
{ "type": "Feature", "properties": { "strassenschluessel": "05512000000014955", "bezeichnung": "In der Koppel" }, "geometry": { "type": "Point", "coordinates": [ 6.923472096470988, 51.597197991137556 ] } },
{ "type": "Feature", "properties": { "strassenschluessel": "05512000000014960", "bezeichnung": "In der Littersheide" }, "geometry": { "type": "Point", "coordinates": [ 6.918612052089886, 51.553162075744041 ] } },
{ "type": "Feature", "properties": { "strassenschluessel": "05512000000014971", "bezeichnung": "In der Miere" }, "geometry": { "type": "Point", "coordinates": [ 6.917354256332865, 51.615700132521553 ] } },
{ "type": "Feature", "properties": { "strassenschluessel": "05512000000014980", "bezeichnung": "In der Schanze" }, "geometry": { "type": "Point", "coordinates": [ 6.911700587907786, 51.511270077825806 ] } },
{ "type": "Feature", "properties": { "strassenschluessel": "05512000000015000", "bezeichnung": "In der Welheimer Mark" }, "geometry": { "type": "Point", "coordinates": [ 6.969266705539931, 51.51072198320427 ] } },
{ "type": "Feature", "properties": { "strassenschluessel": "05512000000015010", "bezeichnung": "Industriestraße" }, "geometry": { "type": "Point", "coordinates": [ 6.952790102613762, 51.55069428263905 ] } },
{ "type": "Feature", "properties": { "strassenschluessel": "05512000000015040", "bezeichnung": "Jahnstraße" }, "geometry": { "type": "Point", "coordinates": [ 6.920598071885173, 51.524632065284848 ] } },
{ "type": "Feature", "properties": { "strassenschluessel": "05512000000015051", "bezeichnung": "Johann-Breuker-Platz" }, "geometry": { "type": "Point", "coordinates": [ 6.921334509388812, 51.602920343908039 ] } },
{ "type": "Feature", "properties": { "strassenschluessel": "05512000000015060", "bezeichnung": "Johannesstraße" }, "geometry": { "type": "Point", "coordinates": [ 6.97370335952361, 51.533018637104739 ] } },
{ "type": "Feature", "properties": { "strassenschluessel": "05512000000015067", "bezeichnung": "Jolantstraße" }, "geometry": null },
{ "type": "Feature", "properties": { "strassenschluessel": "05512000000015080", "bezeichnung": "Josefstraße" }, "geometry": { "type": "Point", "coordinates": [ 6.91671764307951, 51.524465009181419 ] } },
{ "type": "Feature", "properties": { "strassenschluessel": "05512000000015082", "bezeichnung": "Josef-Albers-Straße" }, "geometry": { "type": "Point", "coordinates": [ 6.915468990637025, 51.533588114421534 ] } },
{ "type": "Feature", "properties": { "strassenschluessel": "05512000000015084", "bezeichnung": "Josef-Terwellen-Platz" }, "geometry": null },
{ "type": "Feature", "properties": { "strassenschluessel": "05512000000015085", "bezeichnung": "Käthe-Kollwitz-Straße" }, "geometry": { "type": "Point", "coordinates": [ 6.920858536040295, 51.608422670618587 ] } },
{ "type": "Feature", "properties": { "strassenschluessel": "05512000000015090", "bezeichnung": "Kalverkamp" }, "geometry": { "type": "Point", "coordinates": [ 6.958825085665653, 51.538330320402615 ] } },
{ "type": "Feature", "properties": { "strassenschluessel": "05512000000015100", "bezeichnung": "Kampstraße" }, "geometry": { "type": "Point", "coordinates": [ 6.949246883204887, 51.521921025263609 ] } },
{ "type": "Feature", "properties": { "strassenschluessel": "05512000000015120", "bezeichnung": "Kantstraße" }, "geometry": { "type": "Point", "coordinates": [ 6.978287703106574, 51.53660963716181 ] } },
{ "type": "Feature", "properties": { "strassenschluessel": "05512000000015131", "bezeichnung": "Kapellenstraße" }, "geometry": { "type": "Point", "coordinates": [ 6.965850983317246, 51.611491018186321 ] } },
{ "type": "Feature", "properties": { "strassenschluessel": "05512000000015140", "bezeichnung": "Kapitän-Lehmann-Straße" }, "geometry": { "type": "Point", "coordinates": [ 6.925113848830742, 51.51844325740732 ] } },
{ "type": "Feature", "properties": { "strassenschluessel": "05512000000015151", "bezeichnung": "Kaplan-Xanten-Straße" }, "geometry": { "type": "Point", "coordinates": [ 6.915393242052065, 51.601201700894421 ] } },
{ "type": "Feature", "properties": { "strassenschluessel": "05512000000015152", "bezeichnung": "Kardinal-Hengsbach-Straße" }, "geometry": { "type": "Point", "coordinates": [ 6.933027538911358, 51.532627121637567 ] } },
{ "type": "Feature", "properties": { "strassenschluessel": "05512000000015158", "bezeichnung": "Karl-Englert-Straße" }, "geometry": { "type": "Point", "coordinates": [ 6.929323067159304, 51.518116795324538 ] } },
{ "type": "Feature", "properties": { "strassenschluessel": "05512000000015160", "bezeichnung": "Karl-Peters-Straße" }, "geometry": { "type": "Point", "coordinates": [ 6.917308152016717, 51.503575507283649 ] } },
{ "type": "Feature", "properties": { "strassenschluessel": "05512000000015165", "bezeichnung": "Karl-Rahner-Straße" }, "geometry": { "type": "Point", "coordinates": [ 6.905685630264129, 51.5760371035662 ] } },
{ "type": "Feature", "properties": { "strassenschluessel": "05512000000015170", "bezeichnung": "Kastanienweg" }, "geometry": { "type": "Point", "coordinates": [ 6.92288155215917, 51.519237167001712 ] } },
{ "type": "Feature", "properties": { "strassenschluessel": "05512000000015180", "bezeichnung": "Kaulbachstraße" }, "geometry": { "type": "Point", "coordinates": [ 6.951388168518267, 51.520556849016415 ] } },
{ "type": "Feature", "properties": { "strassenschluessel": "05512000000015200", "bezeichnung": "Kellermannstraße" }, "geometry": { "type": "Point", "coordinates": [ 6.941493687374094, 51.516002215990852 ] } },
{ "type": "Feature", "properties": { "strassenschluessel": "05512000000015220", "bezeichnung": "Kettelerstraße" }, "geometry": { "type": "Point", "coordinates": [ 6.898196447303663, 51.523918373826639 ] } },
{ "type": "Feature", "properties": { "strassenschluessel": "05512000000015240", "bezeichnung": "Kickenberg" }, "geometry": null },
{ "type": "Feature", "properties": { "strassenschluessel": "05512000000015260", "bezeichnung": "Kiefernweg" }, "geometry": { "type": "Point", "coordinates": [ 6.898135526433395, 51.521357327931447 ] } },
{ "type": "Feature", "properties": { "strassenschluessel": "05512000000015274", "bezeichnung": "Kirchhellener Ring" }, "geometry": { "type": "Point", "coordinates": [ 6.925395080350043, 51.599645587571899 ] } },
{ "type": "Feature", "properties": { "strassenschluessel": "05512000000015280", "bezeichnung": "Kirchhellener Straße" }, "geometry": { "type": "Point", "coordinates": [ 6.921987252621527, 51.527071162271163 ] } },
{ "type": "Feature", "properties": { "strassenschluessel": "05512000000015310", "bezeichnung": "Kirchplatz" }, "geometry": { "type": "Point", "coordinates": [ 6.926198687305598, 51.521049146440241 ] } },
{ "type": "Feature", "properties": { "strassenschluessel": "05512000000015321", "bezeichnung": "Kirchstraße" }, "geometry": { "type": "Point", "coordinates": [ 6.920835338928153, 51.604417382584572 ] } },
{ "type": "Feature", "properties": { "strassenschluessel": "05512000000015331", "bezeichnung": "Klaus-Groth-Straße" }, "geometry": { "type": "Point", "coordinates": [ 6.91640859699845, 51.607620248225224 ] } },
{ "type": "Feature", "properties": { "strassenschluessel": "05512000000015340", "bezeichnung": "Kleinebrechtshof" }, "geometry": { "type": "Point", "coordinates": [ 6.988482704517026, 51.5231824574035 ] } },
{ "type": "Feature", "properties": { "strassenschluessel": "05512000000015360", "bezeichnung": "Kleiststraße" }, "geometry": { "type": "Point", "coordinates": [ 6.886722345764116, 51.536992547043297 ] } },
{ "type": "Feature", "properties": { "strassenschluessel": "05512000000015380", "bezeichnung": "Klopriesstraße" }, "geometry": { "type": "Point", "coordinates": [ 6.971187873458652, 51.512521549031788 ] } },
{ "type": "Feature", "properties": { "strassenschluessel": "05512000000015400", "bezeichnung": "Klosterstraße" }, "geometry": { "type": "Point", "coordinates": [ 6.970813693204046, 51.534416262088563 ] } },
{ "type": "Feature", "properties": { "strassenschluessel": "05512000000015420", "bezeichnung": "Knappenstraße" }, "geometry": { "type": "Point", "coordinates": [ 6.958653795829385, 51.519058166931394 ] } },
{ "type": "Feature", "properties": { "strassenschluessel": "05512000000015431", "bezeichnung": "Köckenkamp" }, "geometry": null },
{ "type": "Feature", "properties": { "strassenschluessel": "05512000000015435", "bezeichnung": "Köhlerstraße" }, "geometry": { "type": "Point", "coordinates": [ 6.876559753113703, 51.570250873522397 ] } },
{ "type": "Feature", "properties": { "strassenschluessel": "05512000000015440", "bezeichnung": "Königsberger Straße" }, "geometry": { "type": "Point", "coordinates": [ 6.945723310463019, 51.537781558401903 ] } },
{ "type": "Feature", "properties": { "strassenschluessel": "05512000000015460", "bezeichnung": "Körnerstraße" }, "geometry": { "type": "Point", "coordinates": [ 6.921231790451932, 51.547766083663269 ] } },
{ "type": "Feature", "properties": { "strassenschluessel": "05512000000015464", "bezeichnung": "Körtlingsfeld" }, "geometry": { "type": "Point", "coordinates": [ 6.918805921468425, 51.597431083434593 ] } },
{ "type": "Feature", "properties": { "strassenschluessel": "05512000000015480", "bezeichnung": "Kösterstraße" }, "geometry": null },
{ "type": "Feature", "properties": { "strassenschluessel": "05512000000015491", "bezeichnung": "Kolkacker" }, "geometry": null },
{ "type": "Feature", "properties": { "strassenschluessel": "05512000000015500", "bezeichnung": "Kolkenbrockstraße" }, "geometry": { "type": "Point", "coordinates": [ 6.904064740874465, 51.522533633186512 ] } },
{ "type": "Feature", "properties": { "strassenschluessel": "05512000000015520", "bezeichnung": "Kolpingplatz" }, "geometry": { "type": "Point", "coordinates": [ 6.92182447833831, 51.522255662412924 ] } },
{ "type": "Feature", "properties": { "strassenschluessel": "05512000000015540", "bezeichnung": "Koppenborgsweg" }, "geometry": { "type": "Point", "coordinates": [ 6.904514509762991, 51.521852156105034 ] } },
{ "type": "Feature", "properties": { "strassenschluessel": "05512000000015560", "bezeichnung": "Korzmannstraße" }, "geometry": { "type": "Point", "coordinates": [ 6.945383873023493, 51.522790630428673 ] } },
{ "type": "Feature", "properties": { "strassenschluessel": "05512000000015580", "bezeichnung": "Kraneburgstraße" }, "geometry": { "type": "Point", "coordinates": [ 6.979916626452944, 51.541186849354581 ] } },
{ "type": "Feature", "properties": { "strassenschluessel": "05512000000015591", "bezeichnung": "Kreienkampsweg" }, "geometry": { "type": "Point", "coordinates": [ 6.896618471416571, 51.615042154627162 ] } },
{ "type": "Feature", "properties": { "strassenschluessel": "05512000000015600", "bezeichnung": "Kreulshof" }, "geometry": { "type": "Point", "coordinates": [ 6.970208321760364, 51.531076282065271 ] } },
{ "type": "Feature", "properties": { "strassenschluessel": "05512000000015621", "bezeichnung": "Kreuzkamp" }, "geometry": { "type": "Point", "coordinates": [ 6.923379133352025, 51.621080678016881 ] } },
{ "type": "Feature", "properties": { "strassenschluessel": "05512000000015640", "bezeichnung": "Kriemhildenweg" }, "geometry": { "type": "Point", "coordinates": [ 6.913125832514049, 51.544149260901222 ] } },
{ "type": "Feature", "properties": { "strassenschluessel": "05512000000015660", "bezeichnung": "Krümmerstraße" }, "geometry": { "type": "Point", "coordinates": [ 6.939572332548738, 51.553317329854011 ] } },