{
"type": "FeatureCollection",
"features": [
{ "type": "Feature", "properties": { "strassenschluessel": "057620000016K0010", "bezeichnung": "Amselweg" }, "geometry": { "type": "Point", "coordinates": [ 9.185981189765872, 51.724921363821139 ] } },
{ "type": "Feature", "properties": { "strassenschluessel": "057620000016K0020", "bezeichnung": "Am Bahndamm" }, "geometry": { "type": "Point", "coordinates": [ 9.187987748389359, 51.714667821791679 ] } },
{ "type": "Feature", "properties": { "strassenschluessel": "057620000016K0030", "bezeichnung": "Am Dannenberg" }, "geometry": { "type": "Point", "coordinates": [ 9.185679761244723, 51.717344384646395 ] } },
{ "type": "Feature", "properties": { "strassenschluessel": "057620000016K0040", "bezeichnung": "Am Gänseanger" }, "geometry": { "type": "Point", "coordinates": [ 9.178996507482966, 51.71620593212328 ] } },
{ "type": "Feature", "properties": { "strassenschluessel": "057620000016K0045", "bezeichnung": "Am Galgenberg" }, "geometry": { "type": "Point", "coordinates": [ 9.194519622496545, 51.717726245547837 ] } },
{ "type": "Feature", "properties": { "strassenschluessel": "057620000016K0050", "bezeichnung": "Am Güterbahnhof" }, "geometry": { "type": "Point", "coordinates": [ 9.181497235284752, 51.711174388055277 ] } },
{ "type": "Feature", "properties": { "strassenschluessel": "057620000016K0055", "bezeichnung": "Am Hakesbach" }, "geometry": { "type": "Point", "coordinates": [ 9.192730527721737, 51.718556519477794 ] } },
{ "type": "Feature", "properties": { "strassenschluessel": "057620000016K0060", "bezeichnung": "Am Heineberg" }, "geometry": { "type": "Point", "coordinates": [ 9.176694925496413, 51.728540664389676 ] } },
{ "type": "Feature", "properties": { "strassenschluessel": "057620000016K0071", "bezeichnung": "Am Hembser Berg" }, "geometry": { "type": "Point", "coordinates": [ 9.193685290580966, 51.715548061903156 ] } },
{ "type": "Feature", "properties": { "strassenschluessel": "057620000016K0080", "bezeichnung": "Am Königsfeld" }, "geometry": { "type": "Point", "coordinates": [ 9.181539677145166, 51.71024653448076 ] } },
{ "type": "Feature", "properties": { "strassenschluessel": "057620000016K0090", "bezeichnung": "Am Markt" }, "geometry": { "type": "Point", "coordinates": [ 9.184543433715071, 51.71680820096914 ] } },
{ "type": "Feature", "properties": { "strassenschluessel": "057620000016K0100", "bezeichnung": "Am Meierbach" }, "geometry": { "type": "Point", "coordinates": [ 9.176826064833417, 51.717195880911937 ] } },
{ "type": "Feature", "properties": { "strassenschluessel": "057620000016K0110", "bezeichnung": "Am Schützenanger" }, "geometry": { "type": "Point", "coordinates": [ 9.191815302039508, 51.716476542805516 ] } },
{ "type": "Feature", "properties": { "strassenschluessel": "057620000016K0115", "bezeichnung": "Am Sudheimer Weg" }, "geometry": { "type": "Point", "coordinates": [ 9.179418851584, 51.712650705826796 ] } },
{ "type": "Feature", "properties": { "strassenschluessel": "057620000016K0121", "bezeichnung": "Am Teich" }, "geometry": { "type": "Point", "coordinates": [ 9.177497073987766, 51.716348427516039 ] } },
{ "type": "Feature", "properties": { "strassenschluessel": "057620000016K0130", "bezeichnung": "Am Thy" }, "geometry": { "type": "Point", "coordinates": [ 9.180595243995615, 51.717331349748108 ] } },
{ "type": "Feature", "properties": { "strassenschluessel": "057620000016K0150", "bezeichnung": "Annenfeld" }, "geometry": { "type": "Point", "coordinates": [ 9.162021964287515, 51.725874715478987 ] } },
{ "type": "Feature", "properties": { "strassenschluessel": "057620000016K0160", "bezeichnung": "Annengasse" }, "geometry": { "type": "Point", "coordinates": [ 9.181526941748441, 51.719354355309854 ] } },
{ "type": "Feature", "properties": { "strassenschluessel": "057620000016K0170", "bezeichnung": "Antoniusstraße" }, "geometry": { "type": "Point", "coordinates": [ 9.186302766513808, 51.717190949324738 ] } },
{ "type": "Feature", "properties": { "strassenschluessel": "057620000016K0180", "bezeichnung": "Bahnhofstraße" }, "geometry": { "type": "Point", "coordinates": [ 9.182825518398209, 51.712979917349287 ] } },
{ "type": "Feature", "properties": { "strassenschluessel": "057620000016K0190", "bezeichnung": "Beda-Kleinschmidt-Weg" }, "geometry": { "type": "Point", "coordinates": [ 9.187349788942038, 51.722296948643823 ] } },
{ "type": "Feature", "properties": { "strassenschluessel": "057620000016K0200", "bezeichnung": "Beethovenstraße" }, "geometry": { "type": "Point", "coordinates": [ 9.197987148255775, 51.713508123669023 ] } },
{ "type": "Feature", "properties": { "strassenschluessel": "057620000016K0210", "bezeichnung": "Berliner Straße" }, "geometry": { "type": "Point", "coordinates": [ 9.183023095774038, 51.72521941506988 ] } },
{ "type": "Feature", "properties": { "strassenschluessel": "057620000016K0215", "bezeichnung": "Berthold-Lauffmann-Weg" }, "geometry": { "type": "Point", "coordinates": [ 9.202213218644378, 51.720317348552292 ] } },
{ "type": "Feature", "properties": { "strassenschluessel": "057620000016K0220", "bezeichnung": "Birkenweg" }, "geometry": { "type": "Point", "coordinates": [ 9.187287493832017, 51.726053103731445 ] } },
{ "type": "Feature", "properties": { "strassenschluessel": "057620000016K0225", "bezeichnung": "Bischof-Heinrich-Weg" }, "geometry": { "type": "Point", "coordinates": [ 9.187688239783549, 51.727102020355666 ] } },
{ "type": "Feature", "properties": { "strassenschluessel": "057620000016K0230", "bezeichnung": "Bökendorfer Straße" }, "geometry": { "type": "Point", "coordinates": [ 9.188386972839062, 51.720704613345887 ] } },
{ "type": "Feature", "properties": { "strassenschluessel": "057620000016K0240", "bezeichnung": "Bohenkamp" }, "geometry": { "type": "Point", "coordinates": [ 9.173797373788199, 51.713160048143571 ] } },
{ "type": "Feature", "properties": { "strassenschluessel": "057620000016K0245", "bezeichnung": "Bohlengärten" }, "geometry": { "type": "Point", "coordinates": [ 9.174137086707454, 51.715497634787269 ] } },
{ "type": "Feature", "properties": { "strassenschluessel": "057620000016K0250", "bezeichnung": "Bohlenweg" }, "geometry": { "type": "Point", "coordinates": [ 9.172038113077292, 51.715145871699335 ] } },
{ "type": "Feature", "properties": { "strassenschluessel": "057620000016K0255", "bezeichnung": "Brahmsstraße" }, "geometry": { "type": "Point", "coordinates": [ 9.198667070517905, 51.716059664230208 ] } },
{ "type": "Feature", "properties": { "strassenschluessel": "057620000016K0260", "bezeichnung": "Brakeler Märsch" }, "geometry": { "type": "Point", "coordinates": [ 9.190689470326966, 51.712483402225644 ] } },
{ "type": "Feature", "properties": { "strassenschluessel": "057620000016K0270", "bezeichnung": "Brauergasse" }, "geometry": { "type": "Point", "coordinates": [ 9.183662627954789, 51.716098747408964 ] } },
{ "type": "Feature", "properties": { "strassenschluessel": "057620000016K0281", "bezeichnung": "Bredenweg" }, "geometry": { "type": "Point", "coordinates": [ 9.179800658158515, 51.718621323883994 ] } },
{ "type": "Feature", "properties": { "strassenschluessel": "057620000016K0290", "bezeichnung": "Breslauer Straße" }, "geometry": { "type": "Point", "coordinates": [ 9.183256562442594, 51.726614308241679 ] } },
{ "type": "Feature", "properties": { "strassenschluessel": "057620000016K0300", "bezeichnung": "Brüder Grimm-Weg" }, "geometry": { "type": "Point", "coordinates": [ 9.172618603562494, 51.72191859317644 ] } },
{ "type": "Feature", "properties": { "strassenschluessel": "057620000016K0320", "bezeichnung": "Brunnenallee" }, "geometry": { "type": "Point", "coordinates": [ 9.184811109115889, 51.726497925980311 ] } },
{ "type": "Feature", "properties": { "strassenschluessel": "057620000016K0331", "bezeichnung": "Brunnenstraße" }, "geometry": { "type": "Point", "coordinates": [ 9.183688066150106, 51.71837956606263 ] } },
{ "type": "Feature", "properties": { "strassenschluessel": "057620000016K0340", "bezeichnung": "Buchenweg" }, "geometry": { "type": "Point", "coordinates": [ 9.185611009189708, 51.725958890290144 ] } },
{ "type": "Feature", "properties": { "strassenschluessel": "057620000016K0342", "bezeichnung": "Buchlied" }, "geometry": null },
{ "type": "Feature", "properties": { "strassenschluessel": "057620000016K0350", "bezeichnung": "Burgstraße" }, "geometry": { "type": "Point", "coordinates": [ 9.181203797678819, 51.718222737719699 ] } },
{ "type": "Feature", "properties": { "strassenschluessel": "057620000016K0360", "bezeichnung": "Danielsgasse" }, "geometry": { "type": "Point", "coordinates": [ 9.182374641354055, 51.71647975013483 ] } },
{ "type": "Feature", "properties": { "strassenschluessel": "057620000016K0370", "bezeichnung": "Danziger Straße" }, "geometry": { "type": "Point", "coordinates": [ 9.18264821247468, 51.728606694852132 ] } },
{ "type": "Feature", "properties": { "strassenschluessel": "057620000016K0375", "bezeichnung": "Dechant-Grüne-Straße" }, "geometry": { "type": "Point", "coordinates": [ 9.175506943749443, 51.718049137472093 ] } },
{ "type": "Feature", "properties": { "strassenschluessel": "057620000016K0378", "bezeichnung": "Dietrich-von-Niem-Weg" }, "geometry": { "type": "Point", "coordinates": [ 9.199845996113599, 51.720206721796067 ] } },
{ "type": "Feature", "properties": { "strassenschluessel": "057620000016K0380", "bezeichnung": "Driburger Straße" }, "geometry": { "type": "Point", "coordinates": [ 9.176505349924307, 51.712058151565245 ] } },
{ "type": "Feature", "properties": { "strassenschluessel": "057620000016K0390", "bezeichnung": "Drosselweg" }, "geometry": { "type": "Point", "coordinates": [ 9.186885788087888, 51.725009177312728 ] } },
{ "type": "Feature", "properties": { "strassenschluessel": "057620000016K0395", "bezeichnung": "Dr.-Loermann-Straße" }, "geometry": { "type": "Point", "coordinates": [ 9.202293713233301, 51.715656551190754 ] } },
{ "type": "Feature", "properties": { "strassenschluessel": "057620000016K0400", "bezeichnung": "Eichendorffweg" }, "geometry": { "type": "Point", "coordinates": [ 9.172892774424092, 51.722576620989599 ] } },
{ "type": "Feature", "properties": { "strassenschluessel": "057620000016K0410", "bezeichnung": "Eichenweg" }, "geometry": { "type": "Point", "coordinates": [ 9.187235084753068, 51.725780334492278 ] } },
{ "type": "Feature", "properties": { "strassenschluessel": "057620000016K0420", "bezeichnung": "Ennebudiek" }, "geometry": { "type": "Point", "coordinates": [ 9.184395214292165, 51.718023963528331 ] } },
{ "type": "Feature", "properties": { "strassenschluessel": "057620000016K0430", "bezeichnung": "Erlenweg" }, "geometry": { "type": "Point", "coordinates": [ 9.187865477819091, 51.72583169430564 ] } },
{ "type": "Feature", "properties": { "strassenschluessel": "057620000016K0440", "bezeichnung": "Eschenweg" }, "geometry": { "type": "Point", "coordinates": [ 9.188919965777405, 51.725895910779727 ] } },
{ "type": "Feature", "properties": { "strassenschluessel": "057620000016K0450", "bezeichnung": "Faulensieksweg" }, "geometry": { "type": "Point", "coordinates": [ 9.176377013825091, 51.718489123772258 ] } },
{ "type": "Feature", "properties": { "strassenschluessel": "057620000016K0460", "bezeichnung": "Fichtenweg" }, "geometry": { "type": "Point", "coordinates": [ 9.18986050920001, 51.725748509709206 ] } },
{ "type": "Feature", "properties": { "strassenschluessel": "057620000016K0470", "bezeichnung": "Finkenweg" }, "geometry": { "type": "Point", "coordinates": [ 9.187957757421403, 51.725024029854701 ] } },
{ "type": "Feature", "properties": { "strassenschluessel": "057620000016K0480", "bezeichnung": "Flechtheimer Feld" }, "geometry": { "type": "Point", "coordinates": [ 9.158227005823559, 51.718330190629423 ] } },
{ "type": "Feature", "properties": { "strassenschluessel": "057620000016K0491", "bezeichnung": "Flechtheimer Straße" }, "geometry": { "type": "Point", "coordinates": [ 9.173541575832113, 51.71675033505911 ] } },
{ "type": "Feature", "properties": { "strassenschluessel": "057620000016K0500", "bezeichnung": "Fontaneweg" }, "geometry": { "type": "Point", "coordinates": [ 9.172057591615845, 51.722437625964773 ] } },
{ "type": "Feature", "properties": { "strassenschluessel": "057620000016K0510", "bezeichnung": "Frankenpfad" }, "geometry": { "type": "Point", "coordinates": [ 9.179988964442291, 51.728324071340865 ] } },
{ "type": "Feature", "properties": { "strassenschluessel": "057620000016K0515", "bezeichnung": "Franz-Hillebrand-Straße" }, "geometry": { "type": "Point", "coordinates": [ 9.183788902499634, 51.724084926819884 ] } },
{ "type": "Feature", "properties": { "strassenschluessel": "057620000016K0516", "bezeichnung": "Franz-Schneider-Weg" }, "geometry": { "type": "Point", "coordinates": [ 9.198587996491119, 51.718862976403884 ] } },
{ "type": "Feature", "properties": { "strassenschluessel": "057620000016K0520", "bezeichnung": "Frauenstelle" }, "geometry": { "type": "Point", "coordinates": [ 9.185615491160471, 51.717037106038696 ] } },
{ "type": "Feature", "properties": { "strassenschluessel": "057620000016K0530", "bezeichnung": "Freiligrathweg" }, "geometry": { "type": "Point", "coordinates": [ 9.171499651257786, 51.723025732416772 ] } },
{ "type": "Feature", "properties": { "strassenschluessel": "057620000016K0541", "bezeichnung": "Gartenring" }, "geometry": { "type": "Point", "coordinates": [ 9.191414453903459, 51.718568309368656 ] } },
{ "type": "Feature", "properties": { "strassenschluessel": "057620000016K0550", "bezeichnung": "Giefersweg" }, "geometry": { "type": "Point", "coordinates": [ 9.179350979464537, 51.728223084382293 ] } },
{ "type": "Feature", "properties": { "strassenschluessel": "057620000016K0560", "bezeichnung": "Händelstraße" }, "geometry": { "type": "Point", "coordinates": [ 9.201021310259272, 51.711463072338155 ] } },
{ "type": "Feature", "properties": { "strassenschluessel": "057620000016K0570", "bezeichnung": "Hahnenhof" }, "geometry": { "type": "Point", "coordinates": [ 9.189805636878164, 51.718926951495284 ] } },
{ "type": "Feature", "properties": { "strassenschluessel": "057620000016K0580", "bezeichnung": "Hanekamp" }, "geometry": { "type": "Point", "coordinates": [ 9.182739168496491, 51.716173547982613 ] } },
{ "type": "Feature", "properties": { "strassenschluessel": "057620000016K0585", "bezeichnung": "Hans-Happ-Weg" }, "geometry": { "type": "Point", "coordinates": [ 9.201217937992347, 51.719621198313639 ] } },
{ "type": "Feature", "properties": { "strassenschluessel": "057620000016K0590", "bezeichnung": "Haydnstraße" }, "geometry": { "type": "Point", "coordinates": [ 9.199629149041487, 51.713094725803813 ] } },
{ "type": "Feature", "properties": { "strassenschluessel": "057620000016K0600", "bezeichnung": "Heinefelder Weg" }, "geometry": { "type": "Point", "coordinates": [ 9.176241151486563, 51.728362417185998 ] } },
{ "type": "Feature", "properties": { "strassenschluessel": "057620000016K0610", "bezeichnung": "Helle" }, "geometry": { "type": "Point", "coordinates": [ 9.196614450648378, 51.725949376260807 ] } },
{ "type": "Feature", "properties": { "strassenschluessel": "057620000016K0620", "bezeichnung": "Henzengasse" }, "geometry": { "type": "Point", "coordinates": [ 9.186108602305998, 51.716907793976624 ] } },
{ "type": "Feature", "properties": { "strassenschluessel": "057620000016K0630", "bezeichnung": "Heilige Seele" }, "geometry": { "type": "Point", "coordinates": [ 9.189165143647562, 51.718968580449335 ] } },
{ "type": "Feature", "properties": { "strassenschluessel": "057620000016K0635", "bezeichnung": "Heimatweg" }, "geometry": { "type": "Point", "coordinates": [ 9.121576710521467, 51.707065352006964 ] } },
{ "type": "Feature", "properties": { "strassenschluessel": "057620000016K0640", "bezeichnung": "Hillestraße" }, "geometry": { "type": "Point", "coordinates": [ 9.170947039305572, 51.722174432140555 ] } },
{ "type": "Feature", "properties": { "strassenschluessel": "057620000016K0645", "bezeichnung": "Im Galgengrund" }, "geometry": { "type": "Point", "coordinates": [ 9.193395133953477, 51.715848771881916 ] } },
{ "type": "Feature", "properties": { "strassenschluessel": "057620000016K0650", "bezeichnung": "Im Schild" }, "geometry": { "type": "Point", "coordinates": [ 9.183691904511569, 51.714510729281756 ] } },
{ "type": "Feature", "properties": { "strassenschluessel": "057620000016K0660", "bezeichnung": "Im Winkel" }, "geometry": { "type": "Point", "coordinates": [ 9.180858176504026, 51.71942479109196 ] } },
{ "type": "Feature", "properties": { "strassenschluessel": "057620000016K0670", "bezeichnung": "Industriestraße" }, "geometry": { "type": "Point", "coordinates": [ 9.172108414100217, 51.707792421631353 ] } },
{ "type": "Feature", "properties": { "strassenschluessel": "057620000016K0675", "bezeichnung": "Johannes-Meyer-Weg" }, "geometry": { "type": "Point", "coordinates": [ 9.197403243480844, 51.719161050483947 ] } },
{ "type": "Feature", "properties": { "strassenschluessel": "057620000016K0680", "bezeichnung": "Kapuzinergasse" }, "geometry": { "type": "Point", "coordinates": [ 9.186742927996864, 51.716264306783629 ] } },
{ "type": "Feature", "properties": { "strassenschluessel": "057620000016K0690", "bezeichnung": "Kiefernweg" }, "geometry": { "type": "Point", "coordinates": [ 9.190726670454183, 51.725992958792723 ] } },
{ "type": "Feature", "properties": { "strassenschluessel": "057620000016K0700", "bezeichnung": "Kirchplatz" }, "geometry": { "type": "Point", "coordinates": [ 9.182782388792759, 51.717426028360798 ] } },
{ "type": "Feature", "properties": { "strassenschluessel": "057620000016K0710", "bezeichnung": "Klöckerstraße" }, "geometry": { "type": "Point", "coordinates": [ 9.178183164414039, 51.714976523510025 ] } },
{ "type": "Feature", "properties": { "strassenschluessel": "057620000016K0720", "bezeichnung": "Klosterstraße" }, "geometry": { "type": "Point", "coordinates": [ 9.186353366728287, 51.716390004658507 ] } },
{ "type": "Feature", "properties": { "strassenschluessel": "057620000016K0730", "bezeichnung": "Kobergweg" }, "geometry": { "type": "Point", "coordinates": [ 9.187170629610062, 51.724245183897587 ] } },
{ "type": "Feature", "properties": { "strassenschluessel": "057620000016K0740", "bezeichnung": "Königsberger Straße" }, "geometry": { "type": "Point", "coordinates": [ 9.182687552419125, 51.726965210949992 ] } },
{ "type": "Feature", "properties": { "strassenschluessel": "057620000016K0751", "bezeichnung": "Königstraße" }, "geometry": { "type": "Point", "coordinates": [ 9.186686509945094, 51.718315371682174 ] } },
{ "type": "Feature", "properties": { "strassenschluessel": "057620000016K0770", "bezeichnung": "Lenauweg" }, "geometry": { "type": "Point", "coordinates": [ 9.173558279690283, 51.722142281740368 ] } },
{ "type": "Feature", "properties": { "strassenschluessel": "057620000016K0775", "bezeichnung": "Lindenhof" }, "geometry": { "type": "Point", "coordinates": [ 9.192160730433525, 51.724359961662707 ] } },
{ "type": "Feature", "properties": { "strassenschluessel": "057620000016K0780", "bezeichnung": "Lönsweg" }, "geometry": { "type": "Point", "coordinates": [ 9.172458682153639, 51.722331173355393 ] } },
{ "type": "Feature", "properties": { "strassenschluessel": "057620000016K0785", "bezeichnung": "Lortzingstraße" }, "geometry": { "type": "Point", "coordinates": [ 9.204391257851986, 51.714259468776639 ] } },
{ "type": "Feature", "properties": { "strassenschluessel": "057620000016K0786", "bezeichnung": "Lütkerlinde" }, "geometry": { "type": "Point", "coordinates": [ 9.193376941285083, 51.725229574367681 ] } },
{ "type": "Feature", "properties": { "strassenschluessel": "057620000016K0790", "bezeichnung": "Marienburger Straße" }, "geometry": { "type": "Point", "coordinates": [ 9.183701703642091, 51.727589331793503 ] } },
{ "type": "Feature", "properties": { "strassenschluessel": "057620000016K0795", "bezeichnung": "Meierbachgärten" }, "geometry": { "type": "Point", "coordinates": [ 9.170821666938954, 51.717310438647736 ] } },
{ "type": "Feature", "properties": { "strassenschluessel": "057620000016K0801", "bezeichnung": "Michaelstraße" }, "geometry": { "type": "Point", "coordinates": [ 9.170323977404999, 51.720079244524968 ] } },
{ "type": "Feature", "properties": { "strassenschluessel": "057620000016K0810", "bezeichnung": "Modexen" }, "geometry": { "type": "Point", "coordinates": [ 9.211199663847086, 51.735434897676285 ] } },
{ "type": "Feature", "properties": { "strassenschluessel": "057620000016K0820", "bezeichnung": "Mozartstraße" }, "geometry": { "type": "Point", "coordinates": [ 9.198811632589575, 51.713675922995797 ] } },
{ "type": "Feature", "properties": { "strassenschluessel": "057620000016K0830", "bezeichnung": "Mühlenweg" }, "geometry": { "type": "Point", "coordinates": [ 9.182087627206437, 51.719496909687393 ] } },
{ "type": "Feature", "properties": { "strassenschluessel": "057620000016K0840", "bezeichnung": "Neustadt" }, "geometry": { "type": "Point", "coordinates": [ 9.187067994825224, 51.718298427635425 ] } },
{ "type": "Feature", "properties": { "strassenschluessel": "057620000016K0850", "bezeichnung": "Nieheimer Straße" }, "geometry": { "type": "Point", "coordinates": [ 9.178524432809969, 51.718751046451196 ] } },
{ "type": "Feature", "properties": { "strassenschluessel": "057620000016K0860", "bezeichnung": "Nordmauer" }, "geometry": { "type": "Point", "coordinates": [ 9.183243692947386, 51.718639275154231 ] } },
{ "type": "Feature", "properties": { "strassenschluessel": "057620000016K0870", "bezeichnung": "Ostdeutsche Straße" }, "geometry": { "type": "Point", "coordinates": [ 9.169907869741909, 51.717692882002062 ] } },
{ "type": "Feature", "properties": { "strassenschluessel": "057620000016K0880", "bezeichnung": "Ostheimer Feld" }, "geometry": { "type": "Point", "coordinates": [ 9.202307896808316, 51.709323325794259 ] } },
{ "type": "Feature", "properties": { "strassenschluessel": "057620000016K0890", "bezeichnung": "Ostheimer Straße" }, "geometry": { "type": "Point", "coordinates": [ 9.184653249361396, 51.71670290095463 ] } },
{ "type": "Feature", "properties": { "strassenschluessel": "057620000016K0900", "bezeichnung": "Ostmauer" }, "geometry": { "type": "Point", "coordinates": [ 9.187864121378873, 51.718168643460317 ] } },
{ "type": "Feature", "properties": { "strassenschluessel": "057620000016K0910", "bezeichnung": "Pahenwinkel" }, "geometry": { "type": "Point", "coordinates": [ 9.173004882235341, 51.723076332554868 ] } },
{ "type": "Feature", "properties": { "strassenschluessel": "057620000016K0920", "bezeichnung": "Papengasse" }, "geometry": { "type": "Point", "coordinates": [ 9.183163114866726, 51.718111362706672 ] } },
{ "type": "Feature", "properties": { "strassenschluessel": "057620000016K0925", "bezeichnung": "Pastor-Pabst-Straße" }, "geometry": { "type": "Point", "coordinates": [ 9.176650443717314, 51.717674038106395 ] } },
{ "type": "Feature", "properties": { "strassenschluessel": "057620000016K0930", "bezeichnung": "Petrus-Legge-Weg" }, "geometry": { "type": "Point", "coordinates": [ 9.188305184322184, 51.722807166940839 ] } },
{ "type": "Feature", "properties": { "strassenschluessel": "057620000016K0940", "bezeichnung": "Plöckergasse" }, "geometry": { "type": "Point", "coordinates": [ 9.181651563870158, 51.716672728711011 ] } },
{ "type": "Feature", "properties": { "strassenschluessel": "057620000016K0950", "bezeichnung": "Ratsgasse" }, "geometry": null },
{ "type": "Feature", "properties": { "strassenschluessel": "057620000016K0955", "bezeichnung": "Rektor-Micus-Weg" }, "geometry": { "type": "Point", "coordinates": [ 9.1860031050195, 51.727030026055296 ] } },
{ "type": "Feature", "properties": { "strassenschluessel": "057620000016K0961", "bezeichnung": "Richard-Knoche-Straße" }, "geometry": { "type": "Point", "coordinates": [ 9.176460701850621, 51.71960556820283 ] } },
{ "type": "Feature", "properties": { "strassenschluessel": "057620000016K0970", "bezeichnung": "Ringstraße" }, "geometry": { "type": "Point", "coordinates": [ 9.175052276571222, 51.717431171216923 ] } },
{ "type": "Feature", "properties": { "strassenschluessel": "057620000016K0980", "bezeichnung": "Rosenstraße" }, "geometry": { "type": "Point", "coordinates": [ 9.182764461973132, 51.716508834110151 ] } },
{ "type": "Feature", "properties": { "strassenschluessel": "057620000016K0990", "bezeichnung": "Rudolphistraße" }, "geometry": { "type": "Point", "coordinates": [ 9.173481904268048, 51.719068262663853 ] } },
{ "type": "Feature", "properties": { "strassenschluessel": "057620000016K1000", "bezeichnung": "Ruprecht-Ewald-Weg" }, "geometry": { "type": "Point", "coordinates": [ 9.187353818679162, 51.723334980875116 ] } },
{ "type": "Feature", "properties": { "strassenschluessel": "057620000016K1010", "bezeichnung": "Sapenstein" }, "geometry": { "type": "Point", "coordinates": [ 9.184225417442827, 51.71606200872094 ] } },
{ "type": "Feature", "properties": { "strassenschluessel": "057620000016K1020", "bezeichnung": "Schoppenstiel" }, "geometry": { "type": "Point", "coordinates": [ 9.18436493169704, 51.715881152570645 ] } },
{ "type": "Feature", "properties": { "strassenschluessel": "057620000016K1030", "bezeichnung": "Schubertstraße" }, "geometry": { "type": "Point", "coordinates": [ 9.200467615757546, 51.71221194208146 ] } },
{ "type": "Feature", "properties": { "strassenschluessel": "057620000016K1040", "bezeichnung": "Schückingweg" }, "geometry": { "type": "Point", "coordinates": [ 9.171597849512866, 51.722118914848025 ] } },
{ "type": "Feature", "properties": { "strassenschluessel": "057620000016K1050", "bezeichnung": "Schützenstraße" }, "geometry": { "type": "Point", "coordinates": [ 9.180294763177772, 51.71761957201916 ] } },
{ "type": "Feature", "properties": { "strassenschluessel": "057620000016K1055", "bezeichnung": "Schumannstraße" }, "geometry": { "type": "Point", "coordinates": [ 9.20254172148614, 51.71329278569366 ] } },
{ "type": "Feature", "properties": { "strassenschluessel": "057620000016K1060", "bezeichnung": "Sepkerweg" }, "geometry": { "type": "Point", "coordinates": [ 9.174804796063714, 51.723601643617364 ] } },
{ "type": "Feature", "properties": { "strassenschluessel": "057620000016K1070", "bezeichnung": "Sohnreyweg" }, "geometry": { "type": "Point", "coordinates": [ 9.173440603785183, 51.721561755180375 ] } },
{ "type": "Feature", "properties": { "strassenschluessel": "057620000016K1080", "bezeichnung": "Sonnenbrink" }, "geometry": { "type": "Point", "coordinates": [ 9.196617724230881, 51.714577883259267 ] } },
{ "type": "Feature", "properties": { "strassenschluessel": "057620000016K1091", "bezeichnung": "Spitalgasse" }, "geometry": null },
{ "type": "Feature", "properties": { "strassenschluessel": "057620000016K1100", "bezeichnung": "Starenweg" }, "geometry": { "type": "Point", "coordinates": [ 9.18905050206871, 51.724920539447083 ] } },
{ "type": "Feature", "properties": { "strassenschluessel": "057620000016K1110", "bezeichnung": "Stegbrede" }, "geometry": { "type": "Point", "coordinates": [ 9.173163155945623, 51.720755015649672 ] } },
{ "type": "Feature", "properties": { "strassenschluessel": "057620000016K1120", "bezeichnung": "Steinweg" }, "geometry": { "type": "Point", "coordinates": [ 9.172564095201954, 51.711588395942599 ] } },
{ "type": "Feature", "properties": { "strassenschluessel": "057620000016K1130", "bezeichnung": "Stettiner Straße" }, "geometry": { "type": "Point", "coordinates": [ 9.182760238849461, 51.725967961821141 ] } },
{ "type": "Feature", "properties": { "strassenschluessel": "057620000016K1141", "bezeichnung": "Suckenberg" }, "geometry": { "type": "Point", "coordinates": [ 9.186025328659181, 51.717250840013705 ] } },
{ "type": "Feature", "properties": { "strassenschluessel": "057620000016K1150", "bezeichnung": "Sudheim" }, "geometry": { "type": "Point", "coordinates": [ 9.178662952125507, 51.702387928844622 ] } },
{ "type": "Feature", "properties": { "strassenschluessel": "057620000016K1160", "bezeichnung": "Südmauer" }, "geometry": { "type": "Point", "coordinates": [ 9.183105969553678, 51.715804374321387 ] } },
{ "type": "Feature", "properties": { "strassenschluessel": "057620000016K1170", "bezeichnung": "Tegelweg" }, "geometry": { "type": "Point", "coordinates": [ 9.174252450178068, 51.710981016109876 ] } },
{ "type": "Feature", "properties": { "strassenschluessel": "057620000016K1180", "bezeichnung": "Tonweg" }, "geometry": { "type": "Point", "coordinates": [ 9.170994321530195, 51.71122037948745 ] } },
{ "type": "Feature", "properties": { "strassenschluessel": "057620000016K1190", "bezeichnung": "Vitusstraße" }, "geometry": { "type": "Point", "coordinates": [ 9.175132454541652, 51.72240698175726 ] } },
{ "type": "Feature", "properties": { "strassenschluessel": "057620000016K1210", "bezeichnung": "Warburger Straße" }, "geometry": { "type": "Point", "coordinates": [ 9.173899498720361, 51.705243756261325 ] } },
{ "type": "Feature", "properties": { "strassenschluessel": "057620000016K1215", "bezeichnung": "Weitlandsweg" }, "geometry": { "type": "Point", "coordinates": [ 9.196042652962678, 51.715999072992588 ] } },
{ "type": "Feature", "properties": { "strassenschluessel": "057620000016K1220", "bezeichnung": "Westmauer" }, "geometry": { "type": "Point", "coordinates": [ 9.180652608064838, 51.717054614068829 ] } },
{ "type": "Feature", "properties": { "strassenschluessel": "057620000016K1230", "bezeichnung": "Westschnat" }, "geometry": { "type": "Point", "coordinates": [ 9.170201361234668, 51.710361628027933 ] } },
{ "type": "Feature", "properties": { "strassenschluessel": "057620000016K1240", "bezeichnung": "Wetteren Straße" }, "geometry": { "type": "Point", "coordinates": [ 9.193794382768504, 51.71455104055039 ] } },
{ "type": "Feature", "properties": { "strassenschluessel": "057620000016K1250", "bezeichnung": "Wilhelm-Raabe-Weg" }, "geometry": { "type": "Point", "coordinates": [ 9.172973671913319, 51.721923744651491 ] } },
{ "type": "Feature", "properties": { "strassenschluessel": "057620000016K1260", "bezeichnung": "Wolfskuhle" }, "geometry": { "type": "Point", "coordinates": [ 9.183933055024736, 51.71580670616531 ] } },
{ "type": "Feature", "properties": { "strassenschluessel": "057620000016K1264", "bezeichnung": "Zum Holzer Feld" }, "geometry": { "type": "Point", "coordinates": [ 9.190264257913592, 51.722867149030598 ] } },
{ "type": "Feature", "properties": { "strassenschluessel": "057620000016K1265", "bezeichnung": "Zum Königshof" }, "geometry": { "type": "Point", "coordinates": [ 9.178124238238489, 51.711384131151632 ] } },
{ "type": "Feature", "properties": { "strassenschluessel": "057620000016K1270", "bezeichnung": "Zum Siechenbach" }, "geometry": { "type": "Point", "coordinates": [ 9.169121161804927, 51.710614533647671 ] } },
{ "type": "Feature", "properties": { "strassenschluessel": "057620000016K1340", "bezeichnung": "Zur Krüne" }, "geometry": { "type": "Point", "coordinates": [ 9.193716624135158, 51.717223981431395 ] } },
{ "type": "Feature", "properties": { "strassenschluessel": "057620000016K1500", "bezeichnung": "Alte Dorfstraße" }, "geometry": { "type": "Point", "coordinates": [ 9.215060795389876, 51.647665120660513 ] } },
{ "type": "Feature", "properties": { "strassenschluessel": "057620000016K1501", "bezeichnung": "Am Parkplatz" }, "geometry": { "type": "Point", "coordinates": [ 9.21392438085871, 51.648431780578072 ] } },
{ "type": "Feature", "properties": { "strassenschluessel": "057620000016K1510", "bezeichnung": "An der Fine" }, "geometry": { "type": "Point", "coordinates": [ 9.210116047196765, 51.649051229540476 ] } },
{ "type": "Feature", "properties": { "strassenschluessel": "057620000016K1520", "bezeichnung": "Birkenhof" }, "geometry": { "type": "Point", "coordinates": [ 9.208008554725188, 51.647342880131063 ] } },
{ "type": "Feature", "properties": { "strassenschluessel": "057620000016K1530", "bezeichnung": "Hasenberghof" }, "geometry": { "type": "Point", "coordinates": [ 9.218032517065375, 51.6472755956176 ] } },
{ "type": "Feature", "properties": { "strassenschluessel": "057620000016K1540", "bezeichnung": "Jordanstraße" }, "geometry": { "type": "Point", "coordinates": [ 9.211922485324544, 51.647421284116426 ] } },
{ "type": "Feature", "properties": { "strassenschluessel": "057620000016K1550", "bezeichnung": "Zum Rhön" }, "geometry": { "type": "Point", "coordinates": [ 9.213092327957632, 51.669255766833643 ] } },
{ "type": "Feature", "properties": { "strassenschluessel": "057620000016K1561", "bezeichnung": "Zur Breite" }, "geometry": { "type": "Point", "coordinates": [ 9.210058663721341, 51.647806133525386 ] } },
{ "type": "Feature", "properties": { "strassenschluessel": "057620000016K1700", "bezeichnung": "Am Mühlenwald" }, "geometry": { "type": "Point", "coordinates": [ 9.255616546591213, 51.706826894279686 ] } },
{ "type": "Feature", "properties": { "strassenschluessel": "057620000016K1710", "bezeichnung": "Grüner Grund" }, "geometry": { "type": "Point", "coordinates": [ 9.246758351732002, 51.70216082730969 ] } },
{ "type": "Feature", "properties": { "strassenschluessel": "057620000016K1720", "bezeichnung": "Hembser Straße" }, "geometry": { "type": "Point", "coordinates": [ 9.243484504088896, 51.699978539111946 ] } },
{ "type": "Feature", "properties": { "strassenschluessel": "057620000016K1730", "bezeichnung": "Hohlstraße" }, "geometry": { "type": "Point", "coordinates": [ 9.24501425748719, 51.701063062247535 ] } },
{ "type": "Feature", "properties": { "strassenschluessel": "057620000016K1740", "bezeichnung": "Johann-Fleckner-Straße" }, "geometry": { "type": "Point", "coordinates": [ 9.251292717084199, 51.698721954071772 ] } },
{ "type": "Feature", "properties": { "strassenschluessel": "057620000016K1750", "bezeichnung": "Mühlengasse" }, "geometry": { "type": "Point", "coordinates": [ 9.246167598130572, 51.703691275705175 ] } },
{ "type": "Feature", "properties": { "strassenschluessel": "057620000016K1760", "bezeichnung": "Zum Damm" }, "geometry": { "type": "Point", "coordinates": [ 9.243363819340384, 51.701712068486401 ] } },
{ "type": "Feature", "properties": { "strassenschluessel": "057620000016K1771", "bezeichnung": "Zum Eckwinkel" }, "geometry": { "type": "Point", "coordinates": [ 9.243565688022983, 51.702381224396085 ] } },
{ "type": "Feature", "properties": { "strassenschluessel": "057620000016K1900", "bezeichnung": "Am Gäsekeborn" }, "geometry": { "type": "Point", "coordinates": [ 9.191219489229811, 51.77578191039143 ] } },
{ "type": "Feature", "properties": { "strassenschluessel": "057620000016K1910", "bezeichnung": "Am Mühlengraben" }, "geometry": { "type": "Point", "coordinates": [ 9.189767799513437, 51.774429738791561 ] } },
{ "type": "Feature", "properties": { "strassenschluessel": "057620000016K1915", "bezeichnung": "Am Strickberg" }, "geometry": { "type": "Point", "coordinates": [ 9.186214737075744, 51.772209529456369 ] } },
{ "type": "Feature", "properties": { "strassenschluessel": "057620000016K1920", "bezeichnung": "Am Wehmekamp" }, "geometry": { "type": "Point", "coordinates": [ 9.194637861017902, 51.777363375742162 ] } },
{ "type": "Feature", "properties": { "strassenschluessel": "057620000016K1930", "bezeichnung": "Am Weinberg" }, "geometry": { "type": "Point", "coordinates": [ 9.185471212581561, 51.777067687739887 ] } },
{ "type": "Feature", "properties": { "strassenschluessel": "057620000016K1940", "bezeichnung": "Auf der Heide" }, "geometry": { "type": "Point", "coordinates": [ 9.194119975952402, 51.779382925176456 ] } },
{ "type": "Feature", "properties": { "strassenschluessel": "057620000016K1950", "bezeichnung": "Blinder Weg" }, "geometry": { "type": "Point", "coordinates": [ 9.192207170147359, 51.777934609508456 ] } },
{ "type": "Feature", "properties": { "strassenschluessel": "057620000016K1960", "bezeichnung": "Bruchtstraße" }, "geometry": { "type": "Point", "coordinates": [ 9.190522111323626, 51.774501060773062 ] } },
{ "type": "Feature", "properties": { "strassenschluessel": "057620000016K1970", "bezeichnung": "Eulenberg" }, "geometry": { "type": "Point", "coordinates": [ 9.188868014001326, 51.774684329222879 ] } },
{ "type": "Feature", "properties": { "strassenschluessel": "057620000016K1981", "bezeichnung": "Im Hohlen Graben" }, "geometry": { "type": "Point", "coordinates": [ 9.18040678007617, 51.776042538093634 ] } },
{ "type": "Feature", "properties": { "strassenschluessel": "057620000016K1990", "bezeichnung": "Im Sticht" }, "geometry": { "type": "Point", "coordinates": [ 9.194984478406777, 51.775840913617394 ] } },
{ "type": "Feature", "properties": { "strassenschluessel": "057620000016K2001", "bezeichnung": "Meinolfusstraße" }, "geometry": { "type": "Point", "coordinates": [ 9.187787059635859, 51.773832263302225 ] } },
{ "type": "Feature", "properties": { "strassenschluessel": "057620000016K2010", "bezeichnung": "Schlingweg" }, "geometry": { "type": "Point", "coordinates": [ 9.187569144529414, 51.772660170242858 ] } },
{ "type": "Feature", "properties": { "strassenschluessel": "057620000016K2015", "bezeichnung": "Steinrieke" }, "geometry": { "type": "Point", "coordinates": [ 9.190722232802974, 51.779140478666868 ] } },
{ "type": "Feature", "properties": { "strassenschluessel": "057620000016K2017", "bezeichnung": "Südhang" }, "geometry": { "type": "Point", "coordinates": [ 9.188609118129142, 51.77726268949008 ] } },
{ "type": "Feature", "properties": { "strassenschluessel": "057620000016K2020", "bezeichnung": "Zum Mühlengrund" }, "geometry": { "type": "Point", "coordinates": [ 9.189258730164008, 51.772225213778697 ] } },
{ "type": "Feature", "properties": { "strassenschluessel": "057620000016K2200", "bezeichnung": "Abbenburg" }, "geometry": { "type": "Point", "coordinates": [ 9.194087930589957, 51.789576084244167 ] } },
{ "type": "Feature", "properties": { "strassenschluessel": "057620000016K2205", "bezeichnung": "Am Hasenholz" }, "geometry": { "type": "Point", "coordinates": [ 9.220995780841919, 51.775602393298968 ] } },
{ "type": "Feature", "properties": { "strassenschluessel": "057620000016K2211", "bezeichnung": "Am Lämmerkamp" }, "geometry": { "type": "Point", "coordinates": [ 9.211065617679425, 51.768464526622971 ] } },
{ "type": "Feature", "properties": { "strassenschluessel": "057620000016K2220", "bezeichnung": "Am Neuen Kamp" }, "geometry": { "type": "Point", "coordinates": [ 9.214901437082252, 51.769596877578252 ] } },
{ "type": "Feature", "properties": { "strassenschluessel": "057620000016K2228", "bezeichnung": "Am Wüllenberg" }, "geometry": { "type": "Point", "coordinates": [ 9.222775806506885, 51.768977759706836 ] } },
{ "type": "Feature", "properties": { "strassenschluessel": "057620000016K2230", "bezeichnung": "Am Wullhof" }, "geometry": { "type": "Point", "coordinates": [ 9.218140469184503, 51.765290718086085 ] } },
{ "type": "Feature", "properties": { "strassenschluessel": "057620000016K2240", "bezeichnung": "August-von-Haxthausen-Straße" }, "geometry": { "type": "Point", "coordinates": [ 9.211759187598924, 51.768446348700365 ] } },
{ "type": "Feature", "properties": { "strassenschluessel": "057620000016K2250", "bezeichnung": "Bökerhof" }, "geometry": { "type": "Point", "coordinates": [ 9.214983521848957, 51.771872665795428 ] } },
{ "type": "Feature", "properties": { "strassenschluessel": "057620000016K2260", "bezeichnung": "Dreizehnlindenstraße" }, "geometry": { "type": "Point", "coordinates": [ 9.218477333118301, 51.770731834443673 ] } },
{ "type": "Feature", "properties": { "strassenschluessel": "057620000016K2270", "bezeichnung": "Drostestraße" }, "geometry": { "type": "Point", "coordinates": [ 9.216766265098576, 51.771927799943548 ] } },
{ "type": "Feature", "properties": { "strassenschluessel": "057620000016K2280", "bezeichnung": "Drudestraße" }, "geometry": { "type": "Point", "coordinates": [ 9.220211978958035, 51.771618010986323 ] } },
{ "type": "Feature", "properties": { "strassenschluessel": "057620000016K2290", "bezeichnung": "Eggiweg" }, "geometry": { "type": "Point", "coordinates": [ 9.222024818921046, 51.76767633663399 ] } },
{ "type": "Feature", "properties": { "strassenschluessel": "057620000016K2300", "bezeichnung": "Elmarstraße" }, "geometry": { "type": "Point", "coordinates": [ 9.213160014135887, 51.770011553997776 ] } },
{ "type": "Feature", "properties": { "strassenschluessel": "057620000016K2310", "bezeichnung": "Eschenburger Straße" }, "geometry": { "type": "Point", "coordinates": [ 9.22176672029032, 51.76997662605703 ] } },
{ "type": "Feature", "properties": { "strassenschluessel": "057620000016K2320", "bezeichnung": "Feldmark" }, "geometry": { "type": "Point", "coordinates": [ 9.206510523168827, 51.77839454739194 ] } },
{ "type": "Feature", "properties": { "strassenschluessel": "057620000016K2330", "bezeichnung": "Friedrich-Wilhelm-Weber-Straße" }, "geometry": { "type": "Point", "coordinates": [ 9.21864727882941, 51.768954238754496 ] } },
{ "type": "Feature", "properties": { "strassenschluessel": "057620000016K2340", "bezeichnung": "Fulkstraße" }, "geometry": { "type": "Point", "coordinates": [ 9.220524164226743, 51.769912634371615 ] } },
{ "type": "Feature", "properties": { "strassenschluessel": "057620000016K2350", "bezeichnung": "Glashüttenweg" }, "geometry": { "type": "Point", "coordinates": [ 9.219991804656669, 51.767274973229867 ] } },
{ "type": "Feature", "properties": { "strassenschluessel": "057620000016K2360", "bezeichnung": "Hainhausen" }, "geometry": { "type": "Point", "coordinates": [ 9.236089022038078, 51.753459126917363 ] } },
{ "type": "Feature", "properties": { "strassenschluessel": "057620000016K2371", "bezeichnung": "Hellersen" }, "geometry": { "type": "Point", "coordinates": [ 9.221436043642877, 51.785901768200368 ] } },
{ "type": "Feature", "properties": { "strassenschluessel": "057620000016K2380", "bezeichnung": "Hildegundestraße" }, "geometry": { "type": "Point", "coordinates": [ 9.211745723196676, 51.76951148565503 ] } },
{ "type": "Feature", "properties": { "strassenschluessel": "057620000016K2390", "bezeichnung": "Höxterscher Weg" }, "geometry": { "type": "Point", "coordinates": [ 9.222148759152244, 51.769626330930194 ] } },
{ "type": "Feature", "properties": { "strassenschluessel": "057620000016K2400", "bezeichnung": "Im Felde" }, "geometry": { "type": "Point", "coordinates": [ 9.223015588521795, 51.770491435780109 ] } },
{ "type": "Feature", "properties": { "strassenschluessel": "057620000016K2410", "bezeichnung": "Kurzer Weg" }, "geometry": { "type": "Point", "coordinates": [ 9.220041272935056, 51.767610580998486 ] } },
{ "type": "Feature", "properties": { "strassenschluessel": "057620000016K2421", "bezeichnung": "Ludowinenstraße" }, "geometry": { "type": "Point", "coordinates": [ 9.219514794700849, 51.771046873099714 ] } },
{ "type": "Feature", "properties": { "strassenschluessel": "057620000016K2430", "bezeichnung": "Oldentruper Mühle" }, "geometry": { "type": "Point", "coordinates": [ 9.204943660902009, 51.780422680782166 ] } },
{ "type": "Feature", "properties": { "strassenschluessel": "057620000016K2440", "bezeichnung": "Schneeberger Straße" }, "geometry": { "type": "Point", "coordinates": [ 9.218721094415812, 51.770472988456376 ] } },
{ "type": "Feature", "properties": { "strassenschluessel": "057620000016K2600", "bezeichnung": "Am Friedhof" }, "geometry": { "type": "Point", "coordinates": [ 9.228487469469924, 51.68831874787503 ] } },
{ "type": "Feature", "properties": { "strassenschluessel": "057620000016K2610", "bezeichnung": "Am Ortberg" }, "geometry": { "type": "Point", "coordinates": [ 9.226350977636555, 51.692987180497305 ] } },
{ "type": "Feature", "properties": { "strassenschluessel": "057620000016K2631", "bezeichnung": "An der Schanze" }, "geometry": { "type": "Point", "coordinates": [ 9.224133622110543, 51.691749532841762 ] } },
{ "type": "Feature", "properties": { "strassenschluessel": "057620000016K2640", "bezeichnung": "Anton-Fecke-Straße" }, "geometry": { "type": "Point", "coordinates": [ 9.226719244266562, 51.688435654674016 ] } },
{ "type": "Feature", "properties": { "strassenschluessel": "057620000016K2660", "bezeichnung": "Bachstraße" }, "geometry": { "type": "Point", "coordinates": [ 9.225895470533967, 51.689356491698689 ] } },
{ "type": "Feature", "properties": { "strassenschluessel": "057620000016K2670", "bezeichnung": "Bellerweg" }, "geometry": { "type": "Point", "coordinates": [ 9.228332966697513, 51.689563276563824 ] } },
{ "type": "Feature", "properties": { "strassenschluessel": "057620000016K2680", "bezeichnung": "Detmar-Schmitz-Platz" }, "geometry": { "type": "Point", "coordinates": [ 9.225851372337326, 51.687771374251454 ] } },
{ "type": "Feature", "properties": { "strassenschluessel": "057620000016K2690", "bezeichnung": "Dorfstraße" }, "geometry": { "type": "Point", "coordinates": [ 9.2262559166836, 51.688444424410932 ] } },
{ "type": "Feature", "properties": { "strassenschluessel": "057620000016K2700", "bezeichnung": "Gartenweg" }, "geometry": { "type": "Point", "coordinates": [ 9.222565792237388, 51.688882595344289 ] } },
{ "type": "Feature", "properties": { "strassenschluessel": "057620000016K2710", "bezeichnung": "Gelle Breite" }, "geometry": { "type": "Point", "coordinates": [ 9.226248022771479, 51.686025108674976 ] } },
{ "type": "Feature", "properties": { "strassenschluessel": "057620000016K2720", "bezeichnung": "Grüne Bache" }, "geometry": { "type": "Point", "coordinates": [ 9.227044902819824, 51.68446652040258 ] } },
{ "type": "Feature", "properties": { "strassenschluessel": "057620000016K2730", "bezeichnung": "Hellweg" }, "geometry": { "type": "Point", "coordinates": [ 9.227426236664728, 51.685504080534805 ] } },
{ "type": "Feature", "properties": { "strassenschluessel": "057620000016K2740", "bezeichnung": "Im Krähenfelde" }, "geometry": { "type": "Point", "coordinates": [ 9.222039780318152, 51.686547359112829 ] } },
{ "type": "Feature", "properties": { "strassenschluessel": "057620000016K2750", "bezeichnung": "Im Rhedertal" }, "geometry": { "type": "Point", "coordinates": [ 9.224584308120864, 51.68791067119141 ] } },
{ "type": "Feature", "properties": { "strassenschluessel": "057620000016K2755", "bezeichnung": "Kapellenweg" }, "geometry": { "type": "Point", "coordinates": [ 9.223781621811668, 51.68709171467605 ] } },
{ "type": "Feature", "properties": { "strassenschluessel": "057620000016K2760", "bezeichnung": "Lindenweg" }, "geometry": { "type": "Point", "coordinates": [ 9.227070719389415, 51.688051283545271 ] } },
{ "type": "Feature", "properties": { "strassenschluessel": "057620000016K2770", "bezeichnung": "Neue Straße" }, "geometry": { "type": "Point", "coordinates": [ 9.224925495814993, 51.687680682425906 ] } },
{ "type": "Feature", "properties": { "strassenschluessel": "057620000016K2775", "bezeichnung": "Petrusweg" }, "geometry": { "type": "Point", "coordinates": [ 9.223247615826926, 51.685845345925138 ] } },
{ "type": "Feature", "properties": { "strassenschluessel": "057620000016K2780", "bezeichnung": "Rheder Straße" }, "geometry": { "type": "Point", "coordinates": [ 9.224450255582644, 51.689447494771393 ] } },
{ "type": "Feature", "properties": { "strassenschluessel": "057620000016K2785", "bezeichnung": "Schlehdornweg" }, "geometry": { "type": "Point", "coordinates": [ 9.223159399690166, 51.685420559263036 ] } },
{ "type": "Feature", "properties": { "strassenschluessel": "057620000016K2791", "bezeichnung": "Tiester Weg" }, "geometry": { "type": "Point", "coordinates": [ 9.228298450644729, 51.686986779494667 ] } },
{ "type": "Feature", "properties": { "strassenschluessel": "057620000016K2795", "bezeichnung": "Tillmannweg" }, "geometry": { "type": "Point", "coordinates": [ 9.226667719689866, 51.685371924422938 ] } },
{ "type": "Feature", "properties": { "strassenschluessel": "057620000016K2800", "bezeichnung": "Tweeteweg" }, "geometry": { "type": "Point", "coordinates": [ 9.223595458655186, 51.688028151498884 ] } },
{ "type": "Feature", "properties": { "strassenschluessel": "057620000016K2810", "bezeichnung": "Untere Bachstraße" }, "geometry": { "type": "Point", "coordinates": [ 9.225988570558458, 51.690055200207084 ] } },
{ "type": "Feature", "properties": { "strassenschluessel": "057620000016K2820", "bezeichnung": "Winkhäuser Weg" }, "geometry": { "type": "Point", "coordinates": [ 9.215881108348194, 51.69055256192901 ] } },
{ "type": "Feature", "properties": { "strassenschluessel": "057620000016K2830", "bezeichnung": "Zur Steinbreite" }, "geometry": { "type": "Point", "coordinates": [ 9.227681742349885, 51.687658882764914 ] } },
{ "type": "Feature", "properties": { "strassenschluessel": "057620000016K3000", "bezeichnung": "Alter Schulweg" }, "geometry": { "type": "Point", "coordinates": [ 9.190582571557787, 51.64197165229313 ] } },
{ "type": "Feature", "properties": { "strassenschluessel": "057620000016K3005", "bezeichnung": "Auf der Weide" }, "geometry": { "type": "Point", "coordinates": [ 9.193193326424174, 51.636931035631832 ] } },
{ "type": "Feature", "properties": { "strassenschluessel": "057620000016K3010", "bezeichnung": "Auf'm Klee" }, "geometry": { "type": "Point", "coordinates": [ 9.192525710316168, 51.639790816994278 ] } },
{ "type": "Feature", "properties": { "strassenschluessel": "057620000016K3021", "bezeichnung": "Bartholomästraße" }, "geometry": { "type": "Point", "coordinates": [ 9.191327597045142, 51.641499015421516 ] } },
{ "type": "Feature", "properties": { "strassenschluessel": "057620000016K3025", "bezeichnung": "Borgentreicher Weg" }, "geometry": { "type": "Point", "coordinates": [ 9.193620902601644, 51.63689089458024 ] } },
{ "type": "Feature", "properties": { "strassenschluessel": "057620000016K3027", "bezeichnung": "Eggeblick" }, "geometry": { "type": "Point", "coordinates": [ 9.192863870442013, 51.636086787047674 ] } },
{ "type": "Feature", "properties": { "strassenschluessel": "057620000016K3030", "bezeichnung": "Holzstraße" }, "geometry": { "type": "Point", "coordinates": [ 9.193200744475758, 51.637629422380876 ] } },
{ "type": "Feature", "properties": { "strassenschluessel": "057620000016K3040", "bezeichnung": "Im Sundern" }, "geometry": { "type": "Point", "coordinates": [ 9.191411850309343, 51.637675682027236 ] } },
{ "type": "Feature", "properties": { "strassenschluessel": "057620000016K3050", "bezeichnung": "Niesener Straße" }, "geometry": { "type": "Point", "coordinates": [ 9.180538221138494, 51.637500303842693 ] } },
{ "type": "Feature", "properties": { "strassenschluessel": "057620000016K3060", "bezeichnung": "Querweg" }, "geometry": { "type": "Point", "coordinates": [ 9.188112734637944, 51.641040030791594 ] } },
{ "type": "Feature", "properties": { "strassenschluessel": "057620000016K3070", "bezeichnung": "Siddesser Straße" }, "geometry": { "type": "Point", "coordinates": [ 9.178417135066944, 51.643507121435839 ] } },
{ "type": "Feature", "properties": { "strassenschluessel": "057620000016K3080", "bezeichnung": "Walme" }, "geometry": { "type": "Point", "coordinates": [ 9.188362398058967, 51.640856068689892 ] } },
{ "type": "Feature", "properties": { "strassenschluessel": "057620000016K3090", "bezeichnung": "Winterhof" }, "geometry": { "type": "Point", "coordinates": [ 9.19550037029806, 51.637118170621164 ] } },
{ "type": "Feature", "properties": { "strassenschluessel": "057620000016K3200", "bezeichnung": "Alter Graben" }, "geometry": { "type": "Point", "coordinates": [ 9.115906275896119, 51.655608862484272 ] } },
{ "type": "Feature", "properties": { "strassenschluessel": "057620000016K3210", "bezeichnung": "Am Dalsterberg" }, "geometry": { "type": "Point", "coordinates": [ 9.134871096844472, 51.650800014027396 ] } },
{ "type": "Feature", "properties": { "strassenschluessel": "057620000016K3220", "bezeichnung": "Am Ring" }, "geometry": { "type": "Point", "coordinates": [ 9.116995639510233, 51.657483443363844 ] } },
{ "type": "Feature", "properties": { "strassenschluessel": "057620000016K3231", "bezeichnung": "Am Rosenberg" }, "geometry": { "type": "Point", "coordinates": [ 9.124746792732765, 51.657421122009538 ] } },
{ "type": "Feature", "properties": { "strassenschluessel": "057620000016K3240", "bezeichnung": "Auf dem Steinweg" }, "geometry": { "type": "Point", "coordinates": [ 9.117674953067668, 51.659946684101328 ] } },
{ "type": "Feature", "properties": { "strassenschluessel": "057620000016K3250", "bezeichnung": "Auf den Klippen" }, "geometry": { "type": "Point", "coordinates": [ 9.120428477055615, 51.653520309099449 ] } },
{ "type": "Feature", "properties": { "strassenschluessel": "057620000016K3260", "bezeichnung": "Auf der Bache" }, "geometry": { "type": "Point", "coordinates": [ 9.118388625296344, 51.655720776303376 ] } },
{ "type": "Feature", "properties": { "strassenschluessel": "057620000016K3270", "bezeichnung": "Auf'm Eikfeld" }, "geometry": { "type": "Point", "coordinates": [ 9.122552829912756, 51.655611349508483 ] } },
{ "type": "Feature", "properties": { "strassenschluessel": "057620000016K3280", "bezeichnung": "Charlottenhof" }, "geometry": { "type": "Point", "coordinates": [ 9.152817820486021, 51.646225507774886 ] } },
{ "type": "Feature", "properties": { "strassenschluessel": "057620000016K3290", "bezeichnung": "Dringenberger Straße" }, "geometry": { "type": "Point", "coordinates": [ 9.10798439193808, 51.655214655212006 ] } },
{ "type": "Feature", "properties": { "strassenschluessel": "057620000016K3300", "bezeichnung": "Drosselgasse" }, "geometry": { "type": "Point", "coordinates": [ 9.116712469347185, 51.657979875459368 ] } },
{ "type": "Feature", "properties": { "strassenschluessel": "057620000016K3310", "bezeichnung": "Escherfeld" }, "geometry": { "type": "Point", "coordinates": [ 9.11957929168007, 51.644444839173616 ] } },
{ "type": "Feature", "properties": { "strassenschluessel": "057620000016K3315", "bezeichnung": "Feriendorf" }, "geometry": { "type": "Point", "coordinates": [ 9.114199640471524, 51.662158045293154 ] } },
{ "type": "Feature", "properties": { "strassenschluessel": "057620000016K3318", "bezeichnung": "Gehrdener Heggeweg" }, "geometry": { "type": "Point", "coordinates": [ 9.16013470555057, 51.647118461525771 ] } },
{ "type": "Feature", "properties": { "strassenschluessel": "057620000016K3320", "bezeichnung": "Gewerbegebiet" }, "geometry": { "type": "Point", "coordinates": [ 9.132715515048849, 51.652307529836897 ] } },
{ "type": "Feature", "properties": { "strassenschluessel": "057620000016K3330", "bezeichnung": "Goetheweg" }, "geometry": { "type": "Point", "coordinates": [ 9.122786878632745, 51.656341933547871 ] } },
{ "type": "Feature", "properties": { "strassenschluessel": "057620000016K3340", "bezeichnung": "Gutshof" }, "geometry": { "type": "Point", "coordinates": [ 9.117822488088279, 51.652843743673337 ] } },
{ "type": "Feature", "properties": { "strassenschluessel": "057620000016K3350", "bezeichnung": "Heinrich-Heine-Weg" }, "geometry": { "type": "Point", "coordinates": [ 9.123452399542066, 51.65574800422683 ] } },
{ "type": "Feature", "properties": { "strassenschluessel": "057620000016K3360", "bezeichnung": "Hölderlinweg" }, "geometry": { "type": "Point", "coordinates": [ 9.124724118975596, 51.656249770598897 ] } },
{ "type": "Feature", "properties": { "strassenschluessel": "057620000016K3365", "bezeichnung": "Im Kamp" }, "geometry": { "type": "Point", "coordinates": [ 9.11757040341452, 51.658362057207754 ] } },
{ "type": "Feature", "properties": { "strassenschluessel": "057620000016K3370", "bezeichnung": "Kantweg" }, "geometry": { "type": "Point", "coordinates": [ 9.125731357796454, 51.657053435151084 ] } },
{ "type": "Feature", "properties": { "strassenschluessel": "057620000016K3380", "bezeichnung": "Kleine Ecke" }, "geometry": { "type": "Point", "coordinates": [ 9.11712769822717, 51.655301508428074 ] } },
{ "type": "Feature", "properties": { "strassenschluessel": "057620000016K3391", "bezeichnung": "Lindenberg" }, "geometry": { "type": "Point", "coordinates": [ 9.117148279942977, 51.654846050787249 ] } },
{ "type": "Feature", "properties": { "strassenschluessel": "057620000016K3400", "bezeichnung": "Marktstraße" }, "geometry": { "type": "Point", "coordinates": [ 9.11907402718791, 51.655838222643702 ] } },
{ "type": "Feature", "properties": { "strassenschluessel": "057620000016K3410", "bezeichnung": "Mühlenstraße" }, "geometry": { "type": "Point", "coordinates": [ 9.119748253879969, 51.655888222203899 ] } },
{ "type": "Feature", "properties": { "strassenschluessel": "057620000016K3415", "bezeichnung": "Osterhäuser Weg" }, "geometry": { "type": "Point", "coordinates": [ 9.116271989623035, 51.661165564311766 ] } },
{ "type": "Feature", "properties": { "strassenschluessel": "057620000016K3420", "bezeichnung": "Rathausstraße" }, "geometry": { "type": "Point", "coordinates": [ 9.120489194898454, 51.655103568105496 ] } },
{ "type": "Feature", "properties": { "strassenschluessel": "057620000016K3430", "bezeichnung": "Rotheweg" }, "geometry": { "type": "Point", "coordinates": [ 9.115766220552713, 51.658675737073139 ] } },
{ "type": "Feature", "properties": { "strassenschluessel": "057620000016K3441", "bezeichnung": "Rüterweg" }, "geometry": { "type": "Point", "coordinates": [ 9.114225696815367, 51.657587863618978 ] } },
{ "type": "Feature", "properties": { "strassenschluessel": "057620000016K3450", "bezeichnung": "Schillerweg" }, "geometry": { "type": "Point", "coordinates": [ 9.12474732644881, 51.65715215899106 ] } },
{ "type": "Feature", "properties": { "strassenschluessel": "057620000016K3460", "bezeichnung": "Schloßstraße" }, "geometry": { "type": "Point", "coordinates": [ 9.119001440257932, 51.653209372132238 ] } },
{ "type": "Feature", "properties": { "strassenschluessel": "057620000016K3465", "bezeichnung": "Silberberg" }, "geometry": { "type": "Point", "coordinates": [ 9.106970597404315, 51.661386117118766 ] } },
{ "type": "Feature", "properties": { "strassenschluessel": "057620000016K3470", "bezeichnung": "Stadtfeld" }, "geometry": { "type": "Point", "coordinates": [ 9.129640948435272, 51.648097456265518 ] } },
{ "type": "Feature", "properties": { "strassenschluessel": "057620000016K3475", "bezeichnung": "Steingrund" }, "geometry": { "type": "Point", "coordinates": [ 9.117265046214024, 51.658815029934985 ] } },
{ "type": "Feature", "properties": { "strassenschluessel": "057620000016K3480", "bezeichnung": "Tannenweg" }, "geometry": { "type": "Point", "coordinates": [ 9.116102585921887, 51.660061002121786 ] } },
{ "type": "Feature", "properties": { "strassenschluessel": "057620000016K3490", "bezeichnung": "Uhlandweg" }, "geometry": { "type": "Point", "coordinates": [ 9.122324644848048, 51.657238687689379 ] } },
{ "type": "Feature", "properties": { "strassenschluessel": "057620000016K3495", "bezeichnung": "Unter den Eichen" }, "geometry": { "type": "Point", "coordinates": [ 9.112822718402077, 51.66297114488146 ] } },
{ "type": "Feature", "properties": { "strassenschluessel": "057620000016K3497", "bezeichnung": "Wernesser Weg" }, "geometry": { "type": "Point", "coordinates": [ 9.10779694305384, 51.661514551259309 ] } },
{ "type": "Feature", "properties": { "strassenschluessel": "057620000016K3500", "bezeichnung": "Zum Mittelholz" }, "geometry": { "type": "Point", "coordinates": [ 9.110534733593584, 51.662007626212777 ] } },
{ "type": "Feature", "properties": { "strassenschluessel": "057620000016K3701", "bezeichnung": "Grundkampweg" }, "geometry": { "type": "Point", "coordinates": [ 9.195530647791749, 51.656616100392597 ] } },
{ "type": "Feature", "properties": { "strassenschluessel": "057620000016K3703", "bezeichnung": "Hinter den Höfen" }, "geometry": { "type": "Point", "coordinates": [ 9.191483795655481, 51.653457112258103 ] } },
{ "type": "Feature", "properties": { "strassenschluessel": "057620000016K3705", "bezeichnung": "In der Breite" }, "geometry": { "type": "Point", "coordinates": [ 9.185823021670084, 51.652812576701486 ] } },
{ "type": "Feature", "properties": { "strassenschluessel": "057620000016K3710", "bezeichnung": "Lindenallee" }, "geometry": { "type": "Point", "coordinates": [ 9.194924757200017, 51.653821955681209 ] } },
{ "type": "Feature", "properties": { "strassenschluessel": "057620000016K3720", "bezeichnung": "Parkstraße" }, "geometry": { "type": "Point", "coordinates": [ 9.192320266365456, 51.654623337026671 ] } },
{ "type": "Feature", "properties": { "strassenschluessel": "057620000016K3900", "bezeichnung": "Am Elsterbusch" }, "geometry": { "type": "Point", "coordinates": [ 9.233913915503829, 51.702658575231197 ] } },
{ "type": "Feature", "properties": { "strassenschluessel": "057620000016K3911", "bezeichnung": "Am Graben" }, "geometry": { "type": "Point", "coordinates": [ 9.242206333296203, 51.709961722887705 ] } },
{ "type": "Feature", "properties": { "strassenschluessel": "057620000016K3913", "bezeichnung": "Am Hang" }, "geometry": { "type": "Point", "coordinates": [ 9.232499743230552, 51.703425366087309 ] } },
{ "type": "Feature", "properties": { "strassenschluessel": "057620000016K3920", "bezeichnung": "Am Holzberg" }, "geometry": { "type": "Point", "coordinates": [ 9.255691614237909, 51.714050441276527 ] } },
{ "type": "Feature", "properties": { "strassenschluessel": "057620000016K3930", "bezeichnung": "Am Hügel" }, "geometry": { "type": "Point", "coordinates": [ 9.239948658926698, 51.710541886813395 ] } },
{ "type": "Feature", "properties": { "strassenschluessel": "057620000016K3940", "bezeichnung": "Angerlinde" }, "geometry": { "type": "Point", "coordinates": [ 9.239251996398133, 51.705740789295653 ] } },
{ "type": "Feature", "properties": { "strassenschluessel": "057620000016K3950", "bezeichnung": "Bohmstraße" }, "geometry": { "type": "Point", "coordinates": [ 9.247173962345251, 51.71211866164834 ] } },
{ "type": "Feature", "properties": { "strassenschluessel": "057620000016K3960", "bezeichnung": "Bornstraße" }, "geometry": { "type": "Point", "coordinates": [ 9.241273013265586, 51.709077448304434 ] } },
{ "type": "Feature", "properties": { "strassenschluessel": "057620000016K3970", "bezeichnung": "Fatimastraße" }, "geometry": { "type": "Point", "coordinates": [ 9.234723974322876, 51.704559007198242 ] } },
{ "type": "Feature", "properties": { "strassenschluessel": "057620000016K3980", "bezeichnung": "Gänsemarkt" }, "geometry": { "type": "Point", "coordinates": [ 9.240813612701098, 51.709960368428007 ] } },
{ "type": "Feature", "properties": { "strassenschluessel": "057620000016K3990", "bezeichnung": "Großer Winkel" }, "geometry": { "type": "Point", "coordinates": [ 9.243651589916505, 51.708273670057487 ] } },
{ "type": "Feature", "properties": { "strassenschluessel": "057620000016K4000", "bezeichnung": "Hamelsgrund" }, "geometry": { "type": "Point", "coordinates": [ 9.232962021423175, 51.704557739358457 ] } },
{ "type": "Feature", "properties": { "strassenschluessel": "057620000016K4010", "bezeichnung": "Im Märsch" }, "geometry": { "type": "Point", "coordinates": [ 9.235692460250347, 51.704254749612339 ] } },
{ "type": "Feature", "properties": { "strassenschluessel": "057620000016K4020", "bezeichnung": "Johannesplatz" }, "geometry": { "type": "Point", "coordinates": [ 9.241339876922705, 51.709180559514579 ] } },
{ "type": "Feature", "properties": { "strassenschluessel": "057620000016K4030", "bezeichnung": "Kirchstraße" }, "geometry": { "type": "Point", "coordinates": [ 9.241673216473799, 51.709799482385002 ] } },
{ "type": "Feature", "properties": { "strassenschluessel": "057620000016K4041", "bezeichnung": "Kleiner Winkel" }, "geometry": { "type": "Point", "coordinates": [ 9.242735565942573, 51.708256459172915 ] } },
{ "type": "Feature", "properties": { "strassenschluessel": "057620000016K4050", "bezeichnung": "Koppelweg" }, "geometry": { "type": "Point", "coordinates": [ 9.241130442969267, 51.712183710725441 ] } },
{ "type": "Feature", "properties": { "strassenschluessel": "057620000016K4060", "bezeichnung": "Landwehrstraße" }, "geometry": { "type": "Point", "coordinates": [ 9.241097314206939, 51.711228557204912 ] } },
{ "type": "Feature", "properties": { "strassenschluessel": "057620000016K4070", "bezeichnung": "Lange Straße" }, "geometry": { "type": "Point", "coordinates": [ 9.241340146464571, 51.710879317447898 ] } },
{ "type": "Feature", "properties": { "strassenschluessel": "057620000016K4075", "bezeichnung": "Leichstein" }, "geometry": { "type": "Point", "coordinates": [ 9.236497515343787, 51.706735566601616 ] } },
{ "type": "Feature", "properties": { "strassenschluessel": "057620000016K4077", "bezeichnung": "Linnenworth" }, "geometry": { "type": "Point", "coordinates": [ 9.236303808990089, 51.707280719886064 ] } },
{ "type": "Feature", "properties": { "strassenschluessel": "057620000016K4080", "bezeichnung": "Marienlinde" }, "geometry": { "type": "Point", "coordinates": [ 9.237459056851939, 51.710198212030754 ] } },
{ "type": "Feature", "properties": { "strassenschluessel": "057620000016K4090", "bezeichnung": "Netheweg" }, "geometry": { "type": "Point", "coordinates": [ 9.24414053444635, 51.711376125899719 ] } },
{ "type": "Feature", "properties": { "strassenschluessel": "057620000016K4100", "bezeichnung": "Ochsenkamp" }, "geometry": { "type": "Point", "coordinates": [ 9.242259157391779, 51.708240691347171 ] } },
{ "type": "Feature", "properties": { "strassenschluessel": "057620000016K4120", "bezeichnung": "Potthof" }, "geometry": { "type": "Point", "coordinates": [ 9.239891977592649, 51.708812016785615 ] } },
{ "type": "Feature", "properties": { "strassenschluessel": "057620000016K4130", "bezeichnung": "Schilfkamp" }, "geometry": { "type": "Point", "coordinates": [ 9.241089020212078, 51.708228253205547 ] } },
{ "type": "Feature", "properties": { "strassenschluessel": "057620000016K4135", "bezeichnung": "Wilhelm-Winter-Weg" }, "geometry": { "type": "Point", "coordinates": [ 9.23808996059225, 51.710556376440792 ] } },
{ "type": "Feature", "properties": { "strassenschluessel": "057620000016K4140", "bezeichnung": "Worthstraße" }, "geometry": { "type": "Point", "coordinates": [ 9.24237599739909, 51.710459003326072 ] } },
{ "type": "Feature", "properties": { "strassenschluessel": "057620000016K4150", "bezeichnung": "Zum Futterbusch" }, "geometry": { "type": "Point", "coordinates": [ 9.236753515243068, 51.706100966597361 ] } },
{ "type": "Feature", "properties": { "strassenschluessel": "057620000016K4301", "bezeichnung": "Albrock" }, "geometry": { "type": "Point", "coordinates": [ 9.149454404699428, 51.757867415089947 ] } },
{ "type": "Feature", "properties": { "strassenschluessel": "057620000016K4310", "bezeichnung": "Emde" }, "geometry": { "type": "Point", "coordinates": [ 9.12468702212343, 51.755319440589112 ] } },
{ "type": "Feature", "properties": { "strassenschluessel": "057620000016K4315", "bezeichnung": "Feriendorf Hinnenburg" }, "geometry": { "type": "Point", "coordinates": [ 9.180322809200728, 51.737395798530407 ] } },
{ "type": "Feature", "properties": { "strassenschluessel": "057620000016K4320", "bezeichnung": "Kunstmühle" }, "geometry": { "type": "Point", "coordinates": [ 9.178299379495957, 51.742121521029276 ] } },
{ "type": "Feature", "properties": { "strassenschluessel": "057620000016K4330", "bezeichnung": "Schäferhof" }, "geometry": { "type": "Point", "coordinates": [ 9.175213629685585, 51.738417294373107 ] } },
{ "type": "Feature", "properties": { "strassenschluessel": "057620000016K4340", "bezeichnung": "Schloß Hinnenburg" }, "geometry": { "type": "Point", "coordinates": [ 9.180683505679134, 51.740125051619827 ] } },
{ "type": "Feature", "properties": { "strassenschluessel": "057620000016K4350", "bezeichnung": "Sengental" }, "geometry": { "type": "Point", "coordinates": [ 9.180846976264922, 51.756619729952817 ] } },
{ "type": "Feature", "properties": { "strassenschluessel": "057620000016K4500", "bezeichnung": "Am Bleichplatz" }, "geometry": { "type": "Point", "coordinates": [ 9.120012042661056, 51.708968931879319 ] } },
{ "type": "Feature", "properties": { "strassenschluessel": "057620000016K4510", "bezeichnung": "Am Brunsberg" }, "geometry": { "type": "Point", "coordinates": [ 9.124093958563998, 51.705087324536635 ] } },
{ "type": "Feature", "properties": { "strassenschluessel": "057620000016K4520", "bezeichnung": "Angerweg" }, "geometry": { "type": "Point", "coordinates": [ 9.119852521126685, 51.709762424773473 ] } },
{ "type": "Feature", "properties": { "strassenschluessel": "057620000016K4530", "bezeichnung": "Bornegrund" }, "geometry": { "type": "Point", "coordinates": [ 9.115843441561468, 51.705338795418932 ] } },
{ "type": "Feature", "properties": { "strassenschluessel": "057620000016K4540", "bezeichnung": "Brakeler Straße" }, "geometry": { "type": "Point", "coordinates": [ 9.123045852342621, 51.707808554493987 ] } },
{ "type": "Feature", "properties": { "strassenschluessel": "057620000016K4550", "bezeichnung": "Ferdinand-Ernst-Platz" }, "geometry": { "type": "Point", "coordinates": [ 9.119937197297913, 51.706717315913806 ] } },
{ "type": "Feature", "properties": { "strassenschluessel": "057620000016K4555", "bezeichnung": "Heinrich-Balzer-Straße" }, "geometry": { "type": "Point", "coordinates": [ 9.117168564030029, 51.706988098416026 ] } },
{ "type": "Feature", "properties": { "strassenschluessel": "057620000016K4560", "bezeichnung": "Holzgarten" }, "geometry": { "type": "Point", "coordinates": [ 9.122033669225111, 51.711533860903536 ] } },
{ "type": "Feature", "properties": { "strassenschluessel": "057620000016K4570", "bezeichnung": "Istruper Straße" }, "geometry": { "type": "Point", "coordinates": [ 9.120181094865318, 51.710507036375162 ] } },
{ "type": "Feature", "properties": { "strassenschluessel": "057620000016K4580", "bezeichnung": "Jardengrundstraße" }, "geometry": { "type": "Point", "coordinates": [ 9.120858308045451, 51.711698125843753 ] } },
{ "type": "Feature", "properties": { "strassenschluessel": "057620000016K4585", "bezeichnung": "Johannes-Allerkamp-Straße" }, "geometry": { "type": "Point", "coordinates": [ 9.117283757275979, 51.706235923650596 ] } },
{ "type": "Feature", "properties": { "strassenschluessel": "057620000016K4590", "bezeichnung": "Löwenbergstraße" }, "geometry": { "type": "Point", "coordinates": [ 9.112518340114603, 51.702505728853723 ] } },
{ "type": "Feature", "properties": { "strassenschluessel": "057620000016K4600", "bezeichnung": "Mittelstraße" }, "geometry": { "type": "Point", "coordinates": [ 9.122354065543069, 51.705839213128037 ] } },
{ "type": "Feature", "properties": { "strassenschluessel": "057620000016K4610", "bezeichnung": "Ostfeldstraße" }, "geometry": { "type": "Point", "coordinates": [ 9.123903036403824, 51.706449590627628 ] } },
{ "type": "Feature", "properties": { "strassenschluessel": "057620000016K4620", "bezeichnung": "Rustenhof" }, "geometry": { "type": "Point", "coordinates": [ 9.13535788594924, 51.707538005947121 ] } },
{ "type": "Feature", "properties": { "strassenschluessel": "057620000016K4630", "bezeichnung": "Stubelitt" }, "geometry": { "type": "Point", "coordinates": [ 9.117783704414736, 51.705326589293946 ] } },
{ "type": "Feature", "properties": { "strassenschluessel": "057620000016K4640", "bezeichnung": "Ziegenbergstraße" }, "geometry": { "type": "Point", "coordinates": [ 9.113174812805067, 51.703447183299794 ] } },
{ "type": "Feature", "properties": { "strassenschluessel": "057620000016K4650", "bezeichnung": "Zum Aspen" }, "geometry": { "type": "Point", "coordinates": [ 9.110498482159823, 51.720642690817201 ] } },
{ "type": "Feature", "properties": { "strassenschluessel": "057620000016K4660", "bezeichnung": "Zum Grasegrund" }, "geometry": { "type": "Point", "coordinates": [ 9.121214365232193, 51.712435719728816 ] } },
{ "type": "Feature", "properties": { "strassenschluessel": "057620000016K4800", "bezeichnung": "Am Habichtsberg" }, "geometry": { "type": "Point", "coordinates": [ 9.166026458130972, 51.680333283985931 ] } },
{ "type": "Feature", "properties": { "strassenschluessel": "057620000016K4820", "bezeichnung": "Gartenstraße" }, "geometry": { "type": "Point", "coordinates": [ 9.163988037773018, 51.681021601998943 ] } },
{ "type": "Feature", "properties": { "strassenschluessel": "057620000016K4825", "bezeichnung": "Graf-Joseph-Bruno-Weg" }, "geometry": { "type": "Point", "coordinates": [ 9.161848062721376, 51.681698371557893 ] } },
{ "type": "Feature", "properties": { "strassenschluessel": "057620000016K4830", "bezeichnung": "Hampenhauser Straße" }, "geometry": { "type": "Point", "coordinates": [ 9.165383515827358, 51.680051409514427 ] } },
{ "type": "Feature", "properties": { "strassenschluessel": "057620000016K4840", "bezeichnung": "Im Siek" }, "geometry": { "type": "Point", "coordinates": [ 9.166646984200472, 51.673599723045392 ] } },
{ "type": "Feature", "properties": { "strassenschluessel": "057620000016K4845", "bezeichnung": "Johann-Conrad-Schlaun-Straße" }, "geometry": { "type": "Point", "coordinates": [ 9.162895640238585, 51.680233698807477 ] } },
{ "type": "Feature", "properties": { "strassenschluessel": "057620000016K4850", "bezeichnung": "Nethetalstraße" }, "geometry": { "type": "Point", "coordinates": [ 9.162564182095077, 51.680255782412907 ] } },
{ "type": "Feature", "properties": { "strassenschluessel": "057620000016K4860", "bezeichnung": "Parkweg" }, "geometry": null },
{ "type": "Feature", "properties": { "strassenschluessel": "057620000016K4870", "bezeichnung": "Spiegelbreite" }, "geometry": { "type": "Point", "coordinates": [ 9.164198782423256, 51.674048338303812 ] } },
{ "type": "Feature", "properties": { "strassenschluessel": "057620000016K4881", "bezeichnung": "Triftweg" }, "geometry": { "type": "Point", "coordinates": [ 9.161543650176959, 51.679869406589482 ] } },
{ "type": "Feature", "properties": { "strassenschluessel": "057620000016K4890", "bezeichnung": "Trompetersprung" }, "geometry": { "type": "Point", "coordinates": [ 9.159770762464039, 51.682635885876131 ] } },
{ "type": "Feature", "properties": { "strassenschluessel": "057620000016K4900", "bezeichnung": "Weglange" }, "geometry": { "type": "Point", "coordinates": [ 9.161091559359543, 51.682713908276234 ] } },
{ "type": "Feature", "properties": { "strassenschluessel": "057620000016K5000", "bezeichnung": "Zum Kapellenberg" }, "geometry": { "type": "Point", "coordinates": [ 9.161507220602838, 51.681964394304998 ] } },
{ "type": "Feature", "properties": { "strassenschluessel": "057620000016K5010", "bezeichnung": "Zum Papenbusch" }, "geometry": { "type": "Point", "coordinates": [ 9.164543512672173, 51.682330736622283 ] } },
{ "type": "Feature", "properties": { "strassenschluessel": "057620000016K5111", "bezeichnung": "Am Bruk" }, "geometry": { "type": "Point", "coordinates": [ 9.152433506501197, 51.690813826104034 ] } },
{ "type": "Feature", "properties": { "strassenschluessel": "057620000016K5120", "bezeichnung": "Am Everstein" }, "geometry": { "type": "Point", "coordinates": [ 9.161095873781518, 51.700064083970439 ] } },
{ "type": "Feature", "properties": { "strassenschluessel": "057620000016K5122", "bezeichnung": "Am Hohlweg" }, "geometry": { "type": "Point", "coordinates": [ 9.162934857023663, 51.701091758911339 ] } },
{ "type": "Feature", "properties": { "strassenschluessel": "057620000016K5130", "bezeichnung": "Dreifeldweg" }, "geometry": { "type": "Point", "coordinates": [ 9.156046863758279, 51.701007633984872 ] } },
{ "type": "Feature", "properties": { "strassenschluessel": "057620000016K5140", "bezeichnung": "Im Aatal" }, "geometry": { "type": "Point", "coordinates": [ 9.160984382030552, 51.698746920528009 ] } },
{ "type": "Feature", "properties": { "strassenschluessel": "057620000016K5150", "bezeichnung": "Im Hinteren Felde" }, "geometry": { "type": "Point", "coordinates": [ 9.160646460980285, 51.705346801080459 ] } },
{ "type": "Feature", "properties": { "strassenschluessel": "057620000016K5160", "bezeichnung": "Im Huk" }, "geometry": { "type": "Point", "coordinates": [ 9.142257257938978, 51.701667252513261 ] } },
{ "type": "Feature", "properties": { "strassenschluessel": "057620000016K5170", "bezeichnung": "Immenhof" }, "geometry": { "type": "Point", "coordinates": [ 9.15742661244901, 51.700532943297816 ] } },
{ "type": "Feature", "properties": { "strassenschluessel": "057620000016K5180", "bezeichnung": "Im Roten Felde" }, "geometry": { "type": "Point", "coordinates": [ 9.158326978666592, 51.701416786531375 ] } },
{ "type": "Feature", "properties": { "strassenschluessel": "057620000016K5190", "bezeichnung": "In der Bohle" }, "geometry": { "type": "Point", "coordinates": [ 9.159859565502193, 51.698823058218679 ] } },
{ "type": "Feature", "properties": { "strassenschluessel": "057620000016K5200", "bezeichnung": "Knuttenberg" }, "geometry": { "type": "Point", "coordinates": [ 9.161085728300591, 51.702162211222671 ] } },
{ "type": "Feature", "properties": { "strassenschluessel": "057620000016K5210", "bezeichnung": "Lingenstraße" }, "geometry": { "type": "Point", "coordinates": [ 9.162323048546956, 51.698968156083112 ] } },
{ "type": "Feature", "properties": { "strassenschluessel": "057620000016K5220", "bezeichnung": "Milseberg" }, "geometry": { "type": "Point", "coordinates": [ 9.151081942696885, 51.688882699522523 ] } },
{ "type": "Feature", "properties": { "strassenschluessel": "057620000016K5230", "bezeichnung": "Mühlenberg" }, "geometry": { "type": "Point", "coordinates": [ 9.158122708333861, 51.697483734250021 ] } },
{ "type": "Feature", "properties": { "strassenschluessel": "057620000016K5240", "bezeichnung": "Oberstein" }, "geometry": { "type": "Point", "coordinates": [ 9.160181633126271, 51.700885136284533 ] } },
{ "type": "Feature", "properties": { "strassenschluessel": "057620000016K5241", "bezeichnung": "Obertalsweg" }, "geometry": null },
{ "type": "Feature", "properties": { "strassenschluessel": "057620000016K5245", "bezeichnung": "Rieseler Feld" }, "geometry": { "type": "Point", "coordinates": [ 9.163379803921437, 51.708110060140932 ] } },
{ "type": "Feature", "properties": { "strassenschluessel": "057620000016K5250", "bezeichnung": "Rieseler Straße" }, "geometry": { "type": "Point", "coordinates": [ 9.167951822129769, 51.704457908366905 ] } },
{ "type": "Feature", "properties": { "strassenschluessel": "057620000016K5260", "bezeichnung": "Zum Ellernbruch" }, "geometry": { "type": "Point", "coordinates": [ 9.148320466024153, 51.700987897846773 ] } },
{ "type": "Feature", "properties": { "strassenschluessel": "057620000016K5600", "bezeichnung": "Am Kirchhof" }, "geometry": { "type": "Point", "coordinates": [ 9.148739173988879, 51.662738367960351 ] } },
{ "type": "Feature", "properties": { "strassenschluessel": "057620000016K5610", "bezeichnung": "Am Sportplatz" }, "geometry": { "type": "Point", "coordinates": [ 9.14485129211336, 51.66404374600264 ] } },
{ "type": "Feature", "properties": { "strassenschluessel": "057620000016K5620", "bezeichnung": "Bergstraße" }, "geometry": { "type": "Point", "coordinates": [ 9.147206568278364, 51.662805424056835 ] } },
{ "type": "Feature", "properties": { "strassenschluessel": "057620000016K5630", "bezeichnung": "Bruchweg" }, "geometry": { "type": "Point", "coordinates": [ 9.15340217336089, 51.659690901195006 ] } },
{ "type": "Feature", "properties": { "strassenschluessel": "057620000016K5640", "bezeichnung": "Eltenberg" }, "geometry": { "type": "Point", "coordinates": [ 9.14692422035059, 51.66510928736885 ] } },
{ "type": "Feature", "properties": { "strassenschluessel": "057620000016K5650", "bezeichnung": "Eulenstraße" }, "geometry": { "type": "Point", "coordinates": [ 9.146982432182604, 51.661387127170784 ] } },
{ "type": "Feature", "properties": { "strassenschluessel": "057620000016K5655", "bezeichnung": "Feldbrede" }, "geometry": { "type": "Point", "coordinates": [ 9.146391643599516, 51.66484076539453 ] } },
{ "type": "Feature", "properties": { "strassenschluessel": "057620000016K5660", "bezeichnung": "Frankfurter Straße" }, "geometry": { "type": "Point", "coordinates": [ 9.147277476971253, 51.662682367633366 ] } },
{ "type": "Feature", "properties": { "strassenschluessel": "057620000016K5670", "bezeichnung": "Frohnhauser Straße" }, "geometry": { "type": "Point", "coordinates": [ 9.154765913165457, 51.660351470176408 ] } },
{ "type": "Feature", "properties": { "strassenschluessel": "057620000016K5680", "bezeichnung": "Hauptstraße" }, "geometry": { "type": "Point", "coordinates": [ 9.14720782479308, 51.659762074167205 ] } },
{ "type": "Feature", "properties": { "strassenschluessel": "057620000016K5691", "bezeichnung": "Hilgensaat" }, "geometry": { "type": "Point", "coordinates": [ 9.13814304719442, 51.655643428562882 ] } },
{ "type": "Feature", "properties": { "strassenschluessel": "057620000016K5700", "bezeichnung": "Hohlweg" }, "geometry": { "type": "Point", "coordinates": [ 9.147630079158043, 51.664167533751375 ] } },
{ "type": "Feature", "properties": { "strassenschluessel": "057620000016K5710", "bezeichnung": "Klinkenhahn" }, "geometry": { "type": "Point", "coordinates": [ 9.148871646892234, 51.662325922590149 ] } },
{ "type": "Feature", "properties": { "strassenschluessel": "057620000016K5720", "bezeichnung": "Mähne" }, "geometry": { "type": "Point", "coordinates": [ 9.145682070806485, 51.67562165853812 ] } },
{ "type": "Feature", "properties": { "strassenschluessel": "057620000016K5730", "bezeichnung": "Schulbrede" }, "geometry": { "type": "Point", "coordinates": [ 9.14581120169859, 51.663577213142624 ] } },
{ "type": "Feature", "properties": { "strassenschluessel": "057620000016K5741", "bezeichnung": "Sieseberg" }, "geometry": { "type": "Point", "coordinates": [ 9.149933332140341, 51.671004837227997 ] } },
{ "type": "Feature", "properties": { "strassenschluessel": "057620000016K5750", "bezeichnung": "Sonnenbrede" }, "geometry": { "type": "Point", "coordinates": [ 9.142216726382891, 51.665442946708446 ] } },
{ "type": "Feature", "properties": { "strassenschluessel": "057620000016K5760", "bezeichnung": "Steinbrede" }, "geometry": { "type": "Point", "coordinates": [ 9.146341389371655, 51.664339534969166 ] } },
{ "type": "Feature", "properties": { "strassenschluessel": "057620000016K5780", "bezeichnung": "Zum Stock" }, "geometry": { "type": "Point", "coordinates": [ 9.158998483969787, 51.66270167630001 ] } },
{ "type": "Feature", "properties": { "strassenschluessel": "057620000016K5790", "bezeichnung": "Zum Tiefental" }, "geometry": { "type": "Point", "coordinates": [ 9.145913474649701, 51.66172537993917 ] } },
{ "type": "Feature", "properties": { "strassenschluessel": "057620000016K5900", "bezeichnung": "Am Kleekamp" }, "geometry": { "type": "Point", "coordinates": [ 9.082318657012634, 51.687522039973828 ] } },
{ "type": "Feature", "properties": { "strassenschluessel": "057620000016K5905", "bezeichnung": "Am Meierkamp" }, "geometry": { "type": "Point", "coordinates": [ 9.087493866288495, 51.687433636345915 ] } },
{ "type": "Feature", "properties": { "strassenschluessel": "057620000016K5907", "bezeichnung": "Am Riesenberg" }, "geometry": { "type": "Point", "coordinates": [ 9.104404697162574, 51.683336180114615 ] } },
{ "type": "Feature", "properties": { "strassenschluessel": "057620000016K5910", "bezeichnung": "Bischof-Ferdinand-Straße" }, "geometry": { "type": "Point", "coordinates": [ 9.083815535932493, 51.685935592483894 ] } },
{ "type": "Feature", "properties": { "strassenschluessel": "057620000016K5915", "bezeichnung": "Fillerkuhle" }, "geometry": { "type": "Point", "coordinates": [ 9.081752165690016, 51.683489269322301 ] } },
{ "type": "Feature", "properties": { "strassenschluessel": "057620000016K5920", "bezeichnung": "Gehrdener Weg" }, "geometry": { "type": "Point", "coordinates": [ 9.084967557050913, 51.684491395279665 ] } },
{ "type": "Feature", "properties": { "strassenschluessel": "057620000016K5930", "bezeichnung": "Grüner Weg" }, "geometry": { "type": "Point", "coordinates": [ 9.082707636853343, 51.683895670309916 ] } },
{ "type": "Feature", "properties": { "strassenschluessel": "057620000016K5940", "bezeichnung": "Herster Straße" }, "geometry": { "type": "Point", "coordinates": [ 9.083345062870634, 51.687828167198987 ] } },
{ "type": "Feature", "properties": { "strassenschluessel": "057620000016K5951", "bezeichnung": "Leineweberstraße" }, "geometry": { "type": "Point", "coordinates": [ 9.084601985574452, 51.685075599544028 ] } },
{ "type": "Feature", "properties": { "strassenschluessel": "057620000016K5955", "bezeichnung": "Mühlenkämpe" }, "geometry": { "type": "Point", "coordinates": [ 9.082075922984544, 51.68401340677385 ] } },
{ "type": "Feature", "properties": { "strassenschluessel": "057620000016K5960", "bezeichnung": "Neuenheerser Straße" }, "geometry": { "type": "Point", "coordinates": [ 9.079291882637959, 51.686832149477631 ] } },
{ "type": "Feature", "properties": { "strassenschluessel": "057620000016K5970", "bezeichnung": "Sachsenring" }, "geometry": { "type": "Point", "coordinates": [ 9.084959771236477, 51.68773528889696 ] } },
{ "type": "Feature", "properties": { "strassenschluessel": "057620000016K5980", "bezeichnung": "Stiewenweg" }, "geometry": { "type": "Point", "coordinates": [ 9.081087288167145, 51.685243187949581 ] } },
{ "type": "Feature", "properties": { "strassenschluessel": "057620000016K5990", "bezeichnung": "Waldeyerweg" }, "geometry": { "type": "Point", "coordinates": [ 9.083298808426813, 51.687107491033871 ] } },
{ "type": "Feature", "properties": { "strassenschluessel": "057620000016K6000", "bezeichnung": "Ludwig-Hatteisen-Weg" }, "geometry": { "type": "Point", "coordinates": [ 9.186299086279902, 51.728944758764428 ] } },
{ "type": "Feature", "properties": { "strassenschluessel": "057620000016K6010", "bezeichnung": "Wallmeier" }, "geometry": { "type": "Point", "coordinates": [ 9.118896894135776, 51.704000483934216 ] } },
{ "type": "Feature", "properties": { "strassenschluessel": "057620000016K6020", "bezeichnung": "Dr.-Maria-Schmidt-Weg" }, "geometry": { "type": "Point", "coordinates": [ 9.185301557664914, 51.727880164147557 ] } },
{ "type": "Feature", "properties": { "strassenschluessel": "057620000016K6030", "bezeichnung": "Bruchtauenweg" }, "geometry": null },
{ "type": "Feature", "properties": { "strassenschluessel": "057620000016K6040", "bezeichnung": "Graf-Dietrich-Weg" }, "geometry": { "type": "Point", "coordinates": [ 9.185994629348517, 51.728619797769646 ] } },
{ "type": "Feature", "properties": { "strassenschluessel": "057620000016K6050", "bezeichnung": "Theresia-Gerhardinger-Weg" }, "geometry": { "type": "Point", "coordinates": [ 9.187733326974074, 51.728315066444893 ] } },
{ "type": "Feature", "properties": { "strassenschluessel": "057620000016K6060", "bezeichnung": "Heinrich-Kluge-Weg" }, "geometry": { "type": "Point", "coordinates": [ 9.194375429855668, 51.713451483387026 ] } },
{ "type": "Feature", "properties": { "strassenschluessel": "057620000016K6070", "bezeichnung": "Steffensgrund" }, "geometry": { "type": "Point", "coordinates": [ 9.195998728010371, 51.633029771596135 ] } },
{ "type": "Feature", "properties": { "strassenschluessel": "057620000016K6080", "bezeichnung": "Bruchtauenstraße" }, "geometry": null },
{ "type": "Feature", "properties": { "strassenschluessel": "057620000016K6090", "bezeichnung": "Zum Imberg" }, "geometry": { "type": "Point", "coordinates": [ 9.239248639824046, 51.712739513473906 ] } },
{ "type": "Feature", "properties": { "strassenschluessel": "057620000016K6110", "bezeichnung": "Uhlenberg" }, "geometry": { "type": "Point", "coordinates": [ 9.237754064362681, 51.711939901040324 ] } },
{ "type": "Feature", "properties": { "strassenschluessel": "057620000016R8857", "bezeichnung": "R 53 Schieder-Brakel" }, "geometry": null },
{ "type": "Feature", "properties": { "strassenschluessel": "057620000016R8858", "bezeichnung": "Am Schwalbenberg" }, "geometry": { "type": "Point", "coordinates": [ 9.242452016052818, 51.691190394733631 ] } },
{ "type": "Feature", "properties": { "strassenschluessel": "057620000016R8859", "bezeichnung": "Auf dem Mühlenberge" }, "geometry": { "type": "Point", "coordinates": [ 9.246611483786253, 51.701199060962232 ] } },
{ "type": "Feature", "properties": { "strassenschluessel": "057620000016R8860", "bezeichnung": "Auf dem Steinberge" }, "geometry": null },
{ "type": "Feature", "properties": { "strassenschluessel": "057620000016R8861", "bezeichnung": "Auf der Hausstelle" }, "geometry": null },
{ "type": "Feature", "properties": { "strassenschluessel": "057620000016R8863", "bezeichnung": "Bellerburg" }, "geometry": null },
{ "type": "Feature", "properties": { "strassenschluessel": "057620000016R8864", "bezeichnung": "Der Schwalbenberg" }, "geometry": { "type": "Point", "coordinates": [ 9.25054916576128, 51.698506974162655 ] } },
{ "type": "Feature", "properties": { "strassenschluessel": "057620000016R8865", "bezeichnung": "Die Otterburg" }, "geometry": null },
{ "type": "Feature", "properties": { "strassenschluessel": "057620000016R8866", "bezeichnung": "Hausstelle" }, "geometry": { "type": "Point", "coordinates": [ 9.263493630571917, 51.701730520038403 ] } },
{ "type": "Feature", "properties": { "strassenschluessel": "057620000016R8867", "bezeichnung": "Hohlstück" }, "geometry": null },
{ "type": "Feature", "properties": { "strassenschluessel": "057620000016R8868", "bezeichnung": "Im Flachsgarten" }, "geometry": null },
{ "type": "Feature", "properties": { "strassenschluessel": "057620000016R8869", "bezeichnung": "Im Flut" }, "geometry": null },
{ "type": "Feature", "properties": { "strassenschluessel": "057620000016R8870", "bezeichnung": "Im Flutgraben" }, "geometry": null },
{ "type": "Feature", "properties": { "strassenschluessel": "057620000016R8871", "bezeichnung": "Im Randahle" }, "geometry": { "type": "Point", "coordinates": [ 9.250483876225207, 51.690452304476295 ] } },
{ "type": "Feature", "properties": { "strassenschluessel": "057620000016R8872", "bezeichnung": "Im Winkel" }, "geometry": null },
{ "type": "Feature", "properties": { "strassenschluessel": "057620000016R8873", "bezeichnung": "Landwehr" }, "geometry": null },
{ "type": "Feature", "properties": { "strassenschluessel": "057620000016R8874", "bezeichnung": "Mühlenberg" }, "geometry": { "type": "Point", "coordinates": [ 9.245800167938196, 51.707450148080717 ] } },
{ "type": "Feature", "properties": { "strassenschluessel": "057620000016R8875", "bezeichnung": "Mühlengraben" }, "geometry": null },
{ "type": "Feature", "properties": { "strassenschluessel": "057620000016R8877", "bezeichnung": "Niederfeld" }, "geometry": { "type": "Point", "coordinates": [ 9.250812273747938, 51.705998922590595 ] } },
{ "type": "Feature", "properties": { "strassenschluessel": "057620000016R8878", "bezeichnung": "Niederfeldskämpe" }, "geometry": null },
{ "type": "Feature", "properties": { "strassenschluessel": "057620000016R8879", "bezeichnung": "Osterberg" }, "geometry": { "type": "Point", "coordinates": [ 9.249781017319233, 51.68657353760581 ] } },
{ "type": "Feature", "properties": { "strassenschluessel": "057620000016R8880", "bezeichnung": "Rickenberg" }, "geometry": null },
{ "type": "Feature", "properties": { "strassenschluessel": "057620000016R8900", "bezeichnung": "Alte Feld" }, "geometry": { "type": "Point", "coordinates": [ 9.220308183633454, 51.72966079503837 ] } },
{ "type": "Feature", "properties": { "strassenschluessel": "057620000016R8901", "bezeichnung": "Am Bohenberg" }, "geometry": null },
{ "type": "Feature", "properties": { "strassenschluessel": "057620000016R8903", "bezeichnung": "Am Galgenberge" }, "geometry": null },
{ "type": "Feature", "properties": { "strassenschluessel": "057620000016R8904", "bezeichnung": "Am Hartheiserberg" }, "geometry": { "type": "Point", "coordinates": [ 9.210975019862088, 51.696902258462231 ] } },
{ "type": "Feature", "properties": { "strassenschluessel": "057620000016R8905", "bezeichnung": "Am Hembser Grund" }, "geometry": null },
{ "type": "Feature", "properties": { "strassenschluessel": "057620000016R8906", "bezeichnung": "Am Hembser Wege" }, "geometry": null },
{ "type": "Feature", "properties": { "strassenschluessel": "057620000016R8907", "bezeichnung": "Am hohen Strauß" }, "geometry": null },
{ "type": "Feature", "properties": { "strassenschluessel": "057620000016R8908", "bezeichnung": "Am Schüttberg" }, "geometry": { "type": "Point", "coordinates": [ 9.200309240318063, 51.72287619884542 ] } },
{ "type": "Feature", "properties": { "strassenschluessel": "057620000016R8910", "bezeichnung": "An der Brede" }, "geometry": null },
{ "type": "Feature", "properties": { "strassenschluessel": "057620000016R8911", "bezeichnung": "An der Landwehr" }, "geometry": null },
{ "type": "Feature", "properties": { "strassenschluessel": "057620000016R8912", "bezeichnung": "Annenfeld" }, "geometry": { "type": "Point", "coordinates": [ 9.169839993988791, 51.725351437417544 ] } },
{ "type": "Feature", "properties": { "strassenschluessel": "057620000016R8913", "bezeichnung": "Auf dem Eilande" }, "geometry": null },
{ "type": "Feature", "properties": { "strassenschluessel": "057620000016R8914", "bezeichnung": "Auf dem Galgenberge" }, "geometry": { "type": "Point", "coordinates": [ 9.200931656933991, 51.72232268681563 ] } },
{ "type": "Feature", "properties": { "strassenschluessel": "057620000016R8915", "bezeichnung": "Auf der Lechtenheide" }, "geometry": null },
{ "type": "Feature", "properties": { "strassenschluessel": "057620000016R8916", "bezeichnung": "Auf der Wort" }, "geometry": { "type": "Point", "coordinates": [ 9.194895070035063, 51.737582585053126 ] } },
{ "type": "Feature", "properties": { "strassenschluessel": "057620000016R8917", "bezeichnung": "B 64" }, "geometry": null },
{ "type": "Feature", "properties": { "strassenschluessel": "057620000016R8919", "bezeichnung": "K 57" }, "geometry": null },
{ "type": "Feature", "properties": { "strassenschluessel": "057620000016R8920", "bezeichnung": "B 252" }, "geometry": null },
{ "type": "Feature", "properties": { "strassenschluessel": "057620000016R8924", "bezeichnung": "Bei dem weißen Kreuze" }, "geometry": null },
{ "type": "Feature", "properties": { "strassenschluessel": "057620000016R8925", "bezeichnung": "Bei der Hembser Kapelle" }, "geometry": { "type": "Point", "coordinates": [ 9.21018325916015, 51.714034914250469 ] } },
{ "type": "Feature", "properties": { "strassenschluessel": "057620000016R8926", "bezeichnung": "Bei der Ostheimer Linde" }, "geometry": null },
{ "type": "Feature", "properties": { "strassenschluessel": "057620000016R8927", "bezeichnung": "Bei der lütken Linde" }, "geometry": { "type": "Point", "coordinates": [ 9.185385146125089, 51.726432841312601 ] } },
{ "type": "Feature", "properties": { "strassenschluessel": "057620000016R8928", "bezeichnung": "Bei der Wallmei" }, "geometry": null },
{ "type": "Feature", "properties": { "strassenschluessel": "057620000016R8929", "bezeichnung": "Bei der Ziegelei" }, "geometry": null },
{ "type": "Feature", "properties": { "strassenschluessel": "057620000016R8930", "bezeichnung": "Bei den Teufelshöhlen" }, "geometry": null },
{ "type": "Feature", "properties": { "strassenschluessel": "057620000016R8931", "bezeichnung": "Beim Heinesieke" }, "geometry": null },
{ "type": "Feature", "properties": { "strassenschluessel": "057620000016R8932", "bezeichnung": "Beim Meierbrunnen" }, "geometry": null },
{ "type": "Feature", "properties": { "strassenschluessel": "057620000016R8933", "bezeichnung": "Beim Modexer Turm" }, "geometry": null },
{ "type": "Feature", "properties": { "strassenschluessel": "057620000016R8934", "bezeichnung": "Bergstiege" }, "geometry": { "type": "Point", "coordinates": [ 9.127722171131257, 51.72539547108574 ] } },
{ "type": "Feature", "properties": { "strassenschluessel": "057620000016R8935", "bezeichnung": "Bohenkamp" }, "geometry": null },
{ "type": "Feature", "properties": { "strassenschluessel": "057620000016R8936", "bezeichnung": "Bohlengärten" }, "geometry": null },
{ "type": "Feature", "properties": { "strassenschluessel": "057620000016R8937", "bezeichnung": "Bohengrund" }, "geometry": null },
{ "type": "Feature", "properties": { "strassenschluessel": "057620000016R8938", "bezeichnung": "Bohenberg" }, "geometry": null },
{ "type": "Feature", "properties": { "strassenschluessel": "057620000016R8940", "bezeichnung": "Bredewiesen" }, "geometry": null },
{ "type": "Feature", "properties": { "strassenschluessel": "057620000016R8941", "bezeichnung": "Brenkhauser Holz" }, "geometry": null },
{ "type": "Feature", "properties": { "strassenschluessel": "057620000016R8942", "bezeichnung": "Brucht" }, "geometry": null },
{ "type": "Feature", "properties": { "strassenschluessel": "057620000016R8943", "bezeichnung": "Bruchtwiesen" }, "geometry": { "type": "Point", "coordinates": [ 9.180586231965883, 51.723896064448041 ] } },
{ "type": "Feature", "properties": { "strassenschluessel": "057620000016R8944", "bezeichnung": "Bülhof" }, "geometry": null },
{ "type": "Feature", "properties": { "strassenschluessel": "057620000016R8945", "bezeichnung": "Bundahle" }, "geometry": null },
{ "type": "Feature", "properties": { "strassenschluessel": "057620000016R8946", "bezeichnung": "Das große Sudheimer Feld" }, "geometry": { "type": "Point", "coordinates": [ 9.172844260562469, 51.700456939003217 ] } },
{ "type": "Feature", "properties": { "strassenschluessel": "057620000016R8947", "bezeichnung": "Das kleine Sudheimer Feld" }, "geometry": null },
{ "type": "Feature", "properties": { "strassenschluessel": "057620000016R8948", "bezeichnung": "Der Wall" }, "geometry": { "type": "Point", "coordinates": [ 9.189045088926287, 51.716006168921858 ] } },
{ "type": "Feature", "properties": { "strassenschluessel": "057620000016R8949", "bezeichnung": "Die Helle" }, "geometry": null },
{ "type": "Feature", "properties": { "strassenschluessel": "057620000016R8950", "bezeichnung": "Die Spitze" }, "geometry": null },
{ "type": "Feature", "properties": { "strassenschluessel": "057620000016R8951", "bezeichnung": "Drei Linden" }, "geometry": null },
{ "type": "Feature", "properties": { "strassenschluessel": "057620000016R8952", "bezeichnung": "Emdeweg" }, "geometry": null },
{ "type": "Feature", "properties": { "strassenschluessel": "057620000016R8953", "bezeichnung": "Feldtekansen" }, "geometry": null },
{ "type": "Feature", "properties": { "strassenschluessel": "057620000016R8955", "bezeichnung": "Flechtheimer Berg" }, "geometry": null },
{ "type": "Feature", "properties": { "strassenschluessel": "057620000016R8956", "bezeichnung": "Flechtheimer Hof" }, "geometry": null },
{ "type": "Feature", "properties": { "strassenschluessel": "057620000016R8957", "bezeichnung": "Flechtheimer Holz" }, "geometry": null },
{ "type": "Feature", "properties": { "strassenschluessel": "057620000016R8958", "bezeichnung": "Flechtheimer Kämpe" }, "geometry": null },
{ "type": "Feature", "properties": { "strassenschluessel": "057620000016R8959", "bezeichnung": "Flechtheimer Seite" }, "geometry": null },
{ "type": "Feature", "properties": { "strassenschluessel": "057620000016R8962", "bezeichnung": "Gänsefuß" }, "geometry": null },
{ "type": "Feature", "properties": { "strassenschluessel": "057620000016R8963", "bezeichnung": "Gartengrund" }, "geometry": null },
{ "type": "Feature", "properties": { "strassenschluessel": "057620000016R8964", "bezeichnung": "Galgengrund" }, "geometry": null },
{ "type": "Feature", "properties": { "strassenschluessel": "057620000016R8965", "bezeichnung": "Hahnenhofsgärten" }, "geometry": null },
{ "type": "Feature", "properties": { "strassenschluessel": "057620000016R8966", "bezeichnung": "Hakesbach" }, "geometry": null },
{ "type": "Feature", "properties": { "strassenschluessel": "057620000016R8967", "bezeichnung": "Hakesberg" }, "geometry": { "type": "Point", "coordinates": [ 9.198866503985355, 51.730515379369258 ] } },
{ "type": "Feature", "properties": { "strassenschluessel": "057620000016R8968", "bezeichnung": "Hartheiserhof" }, "geometry": null },
{ "type": "Feature", "properties": { "strassenschluessel": "057620000016R8969", "bezeichnung": "Hartheiserberg" }, "geometry": null },
{ "type": "Feature", "properties": { "strassenschluessel": "057620000016R8970", "bezeichnung": "Heineberg" }, "geometry": null },