{
"type": "FeatureCollection",
"features": [
{ "type": "Feature", "properties": { "strassenschluessel": "05362000001204040", "bezeichnung": "In der Hell" }, "geometry": null },
{ "type": "Feature", "properties": { "strassenschluessel": "05362000001204041", "bezeichnung": "Kerkrader Straße" }, "geometry": null },
{ "type": "Feature", "properties": { "strassenschluessel": "05362000001204043", "bezeichnung": "Hedwig-Gries-Straße" }, "geometry": null },
{ "type": "Feature", "properties": { "strassenschluessel": "05362000001204044", "bezeichnung": "Marie-Curie-Straße" }, "geometry": { "type": "Point", "coordinates": [ 6.91922624093841, 50.833297788977234 ] } },
{ "type": "Feature", "properties": { "strassenschluessel": "05362000001204045", "bezeichnung": "Lida-Gustava-Heymann-Str." }, "geometry": { "type": "Point", "coordinates": [ 6.914056784377542, 50.831948147108839 ] } },
{ "type": "Feature", "properties": { "strassenschluessel": "05362000001204046", "bezeichnung": "Anna-Schmitz-Straße" }, "geometry": { "type": "Point", "coordinates": [ 6.916721836982982, 50.833360141763919 ] } },
{ "type": "Feature", "properties": { "strassenschluessel": "05362000001204047", "bezeichnung": "Schwestern-Brünell-Weg" }, "geometry": { "type": "Point", "coordinates": [ 6.916213563145298, 50.832703425901883 ] } },
{ "type": "Feature", "properties": { "strassenschluessel": "05362000001204048", "bezeichnung": "Maja-Lex-Weg" }, "geometry": { "type": "Point", "coordinates": [ 6.912992051598294, 50.831286770509713 ] } },
{ "type": "Feature", "properties": { "strassenschluessel": "05362000001204049", "bezeichnung": "Ida-Ehre-Weg" }, "geometry": { "type": "Point", "coordinates": [ 6.913531097611646, 50.831269072484083 ] } },
{ "type": "Feature", "properties": { "strassenschluessel": "05362000001204050", "bezeichnung": "Gabriele-Münter-Weg" }, "geometry": { "type": "Point", "coordinates": [ 6.915041072985553, 50.83139748882126 ] } },
{ "type": "Feature", "properties": { "strassenschluessel": "05362000001204051", "bezeichnung": "Irmgard-Keun-Weg" }, "geometry": { "type": "Point", "coordinates": [ 6.917169524686853, 50.831721487092231 ] } },
{ "type": "Feature", "properties": { "strassenschluessel": "05362000001204052", "bezeichnung": "Hannah-Arendt-Straße" }, "geometry": { "type": "Point", "coordinates": [ 6.913576700142494, 50.831060157985874 ] } },
{ "type": "Feature", "properties": { "strassenschluessel": "05362000001204053", "bezeichnung": "Sophie-Scholl-Straße" }, "geometry": { "type": "Point", "coordinates": [ 6.918104054049458, 50.831125457494437 ] } },
{ "type": "Feature", "properties": { "strassenschluessel": "05362000001204054", "bezeichnung": "Ricarda-Huch-Weg" }, "geometry": { "type": "Point", "coordinates": [ 6.920261608717894, 50.831238713666394 ] } },
{ "type": "Feature", "properties": { "strassenschluessel": "05362000001204055", "bezeichnung": "An der alten Zuckerfabrik" }, "geometry": { "type": "Point", "coordinates": [ 6.916120570156857, 50.832013780727451 ] } },
{ "type": "Feature", "properties": { "strassenschluessel": "05362000001204056", "bezeichnung": "Lise-Meitner-Straße" }, "geometry": { "type": "Point", "coordinates": [ 6.921082084923531, 50.832486851654693 ] } },
{ "type": "Feature", "properties": { "strassenschluessel": "05362000001204057", "bezeichnung": "Marie-Schlei-Straße" }, "geometry": { "type": "Point", "coordinates": [ 6.914510793188688, 50.830850889523589 ] } },
{ "type": "Feature", "properties": { "strassenschluessel": "05362000001204058", "bezeichnung": "Helma-Meyers-Straße" }, "geometry": { "type": "Point", "coordinates": [ 6.920684174240882, 50.830567482493329 ] } },
{ "type": "Feature", "properties": { "strassenschluessel": "05362000001204059", "bezeichnung": "Otto-Paes-Straße" }, "geometry": { "type": "Point", "coordinates": [ 6.918166874268306, 50.827943472456845 ] } },
{ "type": "Feature", "properties": { "strassenschluessel": "05362000001204060", "bezeichnung": "Xavier-Kürten-Weg" }, "geometry": { "type": "Point", "coordinates": [ 6.902953723166538, 50.824217599726822 ] } },
{ "type": "Feature", "properties": { "strassenschluessel": "05362000001204061", "bezeichnung": "Falkenweg" }, "geometry": null },
{ "type": "Feature", "properties": { "strassenschluessel": "05362000001204062", "bezeichnung": "Josef-Flohr-Weg" }, "geometry": { "type": "Point", "coordinates": [ 6.894377049542406, 50.823608306966797 ] } },
{ "type": "Feature", "properties": { "strassenschluessel": "05362000001204063", "bezeichnung": "Knappschaftsstraße" }, "geometry": null },
{ "type": "Feature", "properties": { "strassenschluessel": "05362000001204065", "bezeichnung": "Auf der Höhe" }, "geometry": { "type": "Point", "coordinates": [ 6.886154976550102, 50.817878232794392 ] } },
{ "type": "Feature", "properties": { "strassenschluessel": "05362000001204066", "bezeichnung": "Arminiusweg" }, "geometry": { "type": "Point", "coordinates": [ 6.892183703909916, 50.822055458034072 ] } },
{ "type": "Feature", "properties": { "strassenschluessel": "05362000001204067", "bezeichnung": "Willy-Brandt-Straße" }, "geometry": { "type": "Point", "coordinates": [ 6.880029253649154, 50.830555729377025 ] } },
{ "type": "Feature", "properties": { "strassenschluessel": "05362000001204068", "bezeichnung": "Am Rankewerk" }, "geometry": { "type": "Point", "coordinates": [ 6.928560886839282, 50.829717514330099 ] } },
{ "type": "Feature", "properties": { "strassenschluessel": "05362000001204069", "bezeichnung": "Arndtstraße" }, "geometry": { "type": "Point", "coordinates": [ 6.901327383616378, 50.835144866804882 ] } },
{ "type": "Feature", "properties": { "strassenschluessel": "05362000001204070", "bezeichnung": "An der Bleiche" }, "geometry": { "type": "Point", "coordinates": [ 6.902840002266394, 50.829489724473753 ] } },
{ "type": "Feature", "properties": { "strassenschluessel": "05362000001204071", "bezeichnung": "An der Synagoge" }, "geometry": { "type": "Point", "coordinates": [ 6.903405338084907, 50.831672373514003 ] } },
{ "type": "Feature", "properties": { "strassenschluessel": "05362000001204072", "bezeichnung": "Am Amtsgericht" }, "geometry": null },
{ "type": "Feature", "properties": { "strassenschluessel": "05362000001204073", "bezeichnung": "An der alten Brauerei" }, "geometry": { "type": "Point", "coordinates": [ 6.898885781888757, 50.824876103926982 ] } },
{ "type": "Feature", "properties": { "strassenschluessel": "05362000001204074", "bezeichnung": "Max-Ernst-Allee" }, "geometry": { "type": "Point", "coordinates": [ 6.912422042114785, 50.82880970531253 ] } },
{ "type": "Feature", "properties": { "strassenschluessel": "05362000001204075", "bezeichnung": "Am Daberger Hof" }, "geometry": { "type": "Point", "coordinates": [ 6.886152501924165, 50.830909105394952 ] } },
{ "type": "Feature", "properties": { "strassenschluessel": "05362000001204076", "bezeichnung": "Alte Bohle" }, "geometry": { "type": "Point", "coordinates": [ 6.887376502203157, 50.820393145634092 ] } },
{ "type": "Feature", "properties": { "strassenschluessel": "05362000001204077", "bezeichnung": "Am Eichenbusch" }, "geometry": { "type": "Point", "coordinates": [ 6.888872905957578, 50.826910861670989 ] } },
{ "type": "Feature", "properties": { "strassenschluessel": "05362000001204078", "bezeichnung": "Am Inselweiher" }, "geometry": { "type": "Point", "coordinates": [ 6.914237660213531, 50.828635028534372 ] } },
{ "type": "Feature", "properties": { "strassenschluessel": "05362000001204079", "bezeichnung": "Am Krausen Baum" }, "geometry": { "type": "Point", "coordinates": [ 6.88506901286841, 50.824509057443144 ] } },
{ "type": "Feature", "properties": { "strassenschluessel": "05362000001204080", "bezeichnung": "Am Pappelbusch" }, "geometry": { "type": "Point", "coordinates": [ 6.874971276357369, 50.824208163776326 ] } },
{ "type": "Feature", "properties": { "strassenschluessel": "05362000001204081", "bezeichnung": "Am Rolfsacker" }, "geometry": { "type": "Point", "coordinates": [ 6.888111885962283, 50.826896886837972 ] } },
{ "type": "Feature", "properties": { "strassenschluessel": "05362000001204082", "bezeichnung": "Am Volkspark" }, "geometry": { "type": "Point", "coordinates": [ 6.907179819695243, 50.839601233002611 ] } },
{ "type": "Feature", "properties": { "strassenschluessel": "05362000001204083", "bezeichnung": "An Haus Vendel" }, "geometry": { "type": "Point", "coordinates": [ 6.88560056128895, 50.821184283793563 ] } },
{ "type": "Feature", "properties": { "strassenschluessel": "05362000001204084", "bezeichnung": "An Maria Glück" }, "geometry": { "type": "Point", "coordinates": [ 6.885693502503316, 50.820855933519674 ] } },
{ "type": "Feature", "properties": { "strassenschluessel": "05362000001204085", "bezeichnung": "Auf der Pehle" }, "geometry": { "type": "Point", "coordinates": [ 6.895824066328868, 50.819737637545856 ] } },
{ "type": "Feature", "properties": { "strassenschluessel": "05362000001204086", "bezeichnung": "Auguste-Viktoria-Str." }, "geometry": { "type": "Point", "coordinates": [ 6.898995791903449, 50.83543125433755 ] } },
{ "type": "Feature", "properties": { "strassenschluessel": "05362000001204087", "bezeichnung": "An der Ziegelei" }, "geometry": { "type": "Point", "coordinates": [ 6.890995874035047, 50.823419834761395 ] } },
{ "type": "Feature", "properties": { "strassenschluessel": "05362000001204088", "bezeichnung": "Am Römerkanal" }, "geometry": { "type": "Point", "coordinates": [ 6.891239631205103, 50.821816366774399 ] } },
{ "type": "Feature", "properties": { "strassenschluessel": "05362000001204089", "bezeichnung": "Bahnhofstraße" }, "geometry": { "type": "Point", "coordinates": [ 6.90520364892792, 50.829091088948495 ] } },
{ "type": "Feature", "properties": { "strassenschluessel": "05362000001204090", "bezeichnung": "Balthasar-Neumann-Platz" }, "geometry": { "type": "Point", "coordinates": [ 6.897212624652679, 50.827669065078219 ] } },
{ "type": "Feature", "properties": { "strassenschluessel": "05362000001204091", "bezeichnung": "Bergerstraße" }, "geometry": { "type": "Point", "coordinates": [ 6.920983793729705, 50.832203382196269 ] } },
{ "type": "Feature", "properties": { "strassenschluessel": "05362000001204092", "bezeichnung": "Berzdorfer Straße" }, "geometry": { "type": "Point", "coordinates": [ 6.918853318361752, 50.837206319847454 ] } },
{ "type": "Feature", "properties": { "strassenschluessel": "05362000001204093", "bezeichnung": "Bleiche" }, "geometry": null },
{ "type": "Feature", "properties": { "strassenschluessel": "05362000001204094", "bezeichnung": "Böningergasse" }, "geometry": { "type": "Point", "coordinates": [ 6.903382154610346, 50.826353485080197 ] } },
{ "type": "Feature", "properties": { "strassenschluessel": "05362000001204095", "bezeichnung": "Bonnstraße" }, "geometry": { "type": "Point", "coordinates": [ 6.902077438465965, 50.824203433166637 ] } },
{ "type": "Feature", "properties": { "strassenschluessel": "05362000001204096", "bezeichnung": "Lennéstraße" }, "geometry": { "type": "Point", "coordinates": [ 6.905453626424669, 50.818770756658779 ] } },
{ "type": "Feature", "properties": { "strassenschluessel": "05362000001204097", "bezeichnung": "Buba-Waerterh.Falkenlust" }, "geometry": null },
{ "type": "Feature", "properties": { "strassenschluessel": "05362000001204098", "bezeichnung": "Burgstraße" }, "geometry": { "type": "Point", "coordinates": [ 6.905921943518655, 50.829829836694934 ] } },
{ "type": "Feature", "properties": { "strassenschluessel": "05362000001204099", "bezeichnung": "Cäcilienstraße" }, "geometry": { "type": "Point", "coordinates": [ 6.913037939695977, 50.833786338952677 ] } },
{ "type": "Feature", "properties": { "strassenschluessel": "05362000001204100", "bezeichnung": "Chlodwigstraße" }, "geometry": { "type": "Point", "coordinates": [ 6.892948190241829, 50.826112891305023 ] } },
{ "type": "Feature", "properties": { "strassenschluessel": "05362000001204101", "bezeichnung": "Clemens-August-Straße" }, "geometry": { "type": "Point", "coordinates": [ 6.898024875316601, 50.82556121479989 ] } },
{ "type": "Feature", "properties": { "strassenschluessel": "05362000001204102", "bezeichnung": "Comesstraße" }, "geometry": { "type": "Point", "coordinates": [ 6.906871644662605, 50.831638572132114 ] } },
{ "type": "Feature", "properties": { "strassenschluessel": "05362000001204103", "bezeichnung": "Donatusstraße" }, "geometry": { "type": "Point", "coordinates": [ 6.883824155186904, 50.821729085762627 ] } },
{ "type": "Feature", "properties": { "strassenschluessel": "05362000001204104", "bezeichnung": "Drachenfelsstraße" }, "geometry": { "type": "Point", "coordinates": [ 6.886114726524212, 50.82359856526093 ] } },
{ "type": "Feature", "properties": { "strassenschluessel": "05362000001204105", "bezeichnung": "Weyhestraße" }, "geometry": { "type": "Point", "coordinates": [ 6.904840517283719, 50.819320771400356 ] } },
{ "type": "Feature", "properties": { "strassenschluessel": "05362000001204106", "bezeichnung": "Eibenweg" }, "geometry": { "type": "Point", "coordinates": [ 6.87836940489817, 50.825370615325106 ] } },
{ "type": "Feature", "properties": { "strassenschluessel": "05362000001204107", "bezeichnung": "Elisabethstraße" }, "geometry": { "type": "Point", "coordinates": [ 6.923299960529805, 50.830194461756697 ] } },
{ "type": "Feature", "properties": { "strassenschluessel": "05362000001204108", "bezeichnung": "Erlengrund" }, "geometry": { "type": "Point", "coordinates": [ 6.873341670722636, 50.823930856134822 ] } },
{ "type": "Feature", "properties": { "strassenschluessel": "05362000001204109", "bezeichnung": "Eichendorffstraße" }, "geometry": { "type": "Point", "coordinates": [ 6.89391061277104, 50.820817160443568 ] } },
{ "type": "Feature", "properties": { "strassenschluessel": "05362000001204110", "bezeichnung": "Engeldorfer Straße" }, "geometry": { "type": "Point", "coordinates": [ 6.91969364099573, 50.838585430257368 ] } },
{ "type": "Feature", "properties": { "strassenschluessel": "05362000001204111", "bezeichnung": "Fischmarkt" }, "geometry": { "type": "Point", "coordinates": [ 6.904354691447566, 50.826001652125072 ] } },
{ "type": "Feature", "properties": { "strassenschluessel": "05362000001204112", "bezeichnung": "Frankenstraße" }, "geometry": { "type": "Point", "coordinates": [ 6.891979244070733, 50.824427581489871 ] } },
{ "type": "Feature", "properties": { "strassenschluessel": "05362000001204113", "bezeichnung": "Franzstraße" }, "geometry": { "type": "Point", "coordinates": [ 6.911365949630516, 50.831609607017789 ] } },
{ "type": "Feature", "properties": { "strassenschluessel": "05362000001204114", "bezeichnung": "Freiherr-Vom-Stein-Straße" }, "geometry": { "type": "Point", "coordinates": [ 6.900535479438802, 50.839280766599465 ] } },
{ "type": "Feature", "properties": { "strassenschluessel": "05362000001204115", "bezeichnung": "Friedrichstraße" }, "geometry": { "type": "Point", "coordinates": [ 6.90374111211576, 50.832663707190477 ] } },
{ "type": "Feature", "properties": { "strassenschluessel": "05362000001204116", "bezeichnung": "An Schloss Falkenlust" }, "geometry": null },
{ "type": "Feature", "properties": { "strassenschluessel": "05362000001204117", "bezeichnung": "Franziskanerhof" }, "geometry": { "type": "Point", "coordinates": [ 6.904922891673012, 50.826318176714288 ] } },
{ "type": "Feature", "properties": { "strassenschluessel": "05362000001204118", "bezeichnung": "Janshofpassage" }, "geometry": { "type": "Point", "coordinates": [ 6.903178928792094, 50.827587538433448 ] } },
{ "type": "Feature", "properties": { "strassenschluessel": "05362000001204119", "bezeichnung": "Gartenstraße" }, "geometry": { "type": "Point", "coordinates": [ 6.906274405751622, 50.830512987459457 ] } },
{ "type": "Feature", "properties": { "strassenschluessel": "05362000001204120", "bezeichnung": "Georg-Grosser-Straße" }, "geometry": { "type": "Point", "coordinates": [ 6.898830824392215, 50.833583825311933 ] } },
{ "type": "Feature", "properties": { "strassenschluessel": "05362000001204121", "bezeichnung": "Georg-Sandmann-Straße" }, "geometry": { "type": "Point", "coordinates": [ 6.897080274585469, 50.825321550472154 ] } },
{ "type": "Feature", "properties": { "strassenschluessel": "05362000001204122", "bezeichnung": "Gertrudenstraße" }, "geometry": { "type": "Point", "coordinates": [ 6.91119468761215, 50.834845284224897 ] } },
{ "type": "Feature", "properties": { "strassenschluessel": "05362000001204123", "bezeichnung": "Ginsterhang" }, "geometry": { "type": "Point", "coordinates": [ 6.87330897940754, 50.824730763707954 ] } },
{ "type": "Feature", "properties": { "strassenschluessel": "05362000001204124", "bezeichnung": "Godorfer Straße" }, "geometry": { "type": "Point", "coordinates": [ 6.915865642724015, 50.839004939627173 ] } },
{ "type": "Feature", "properties": { "strassenschluessel": "05362000001204125", "bezeichnung": "Goethestraße" }, "geometry": { "type": "Point", "coordinates": [ 6.895283309095849, 50.824796887488453 ] } },
{ "type": "Feature", "properties": { "strassenschluessel": "05362000001204126", "bezeichnung": "Grünebergstraße" }, "geometry": { "type": "Point", "coordinates": [ 6.883352829851801, 50.821420726707196 ] } },
{ "type": "Feature", "properties": { "strassenschluessel": "05362000001204127", "bezeichnung": "Hainbuchenweg" }, "geometry": { "type": "Point", "coordinates": [ 6.877559580593886, 50.824419316929088 ] } },
{ "type": "Feature", "properties": { "strassenschluessel": "05362000001204128", "bezeichnung": "Heinrich-Esser-Straße" }, "geometry": { "type": "Point", "coordinates": [ 6.904361504680848, 50.831789920129644 ] } },
{ "type": "Feature", "properties": { "strassenschluessel": "05362000001204129", "bezeichnung": "Hermann-Löns-Straße" }, "geometry": { "type": "Point", "coordinates": [ 6.901973714108238, 50.833255662769851 ] } },
{ "type": "Feature", "properties": { "strassenschluessel": "05362000001204130", "bezeichnung": "Hermannstraße" }, "geometry": { "type": "Point", "coordinates": [ 6.901928721031124, 50.82988323679443 ] } },
{ "type": "Feature", "properties": { "strassenschluessel": "05362000001204131", "bezeichnung": "Hospitalstraße" }, "geometry": { "type": "Point", "coordinates": [ 6.903679198735583, 50.828648043796278 ] } },
{ "type": "Feature", "properties": { "strassenschluessel": "05362000001204132", "bezeichnung": "Hubert-Geuer-Straße" }, "geometry": { "type": "Point", "coordinates": [ 6.902622495473474, 50.821858259441555 ] } },
{ "type": "Feature", "properties": { "strassenschluessel": "05362000001204133", "bezeichnung": "Hubertusstraße" }, "geometry": { "type": "Point", "coordinates": [ 6.901328524170168, 50.833118482233544 ] } },
{ "type": "Feature", "properties": { "strassenschluessel": "05362000001204134", "bezeichnung": "Heinestraße" }, "geometry": { "type": "Point", "coordinates": [ 6.896534165040101, 50.823965095571936 ] } },
{ "type": "Feature", "properties": { "strassenschluessel": "05362000001204135", "bezeichnung": "Herseler Straße" }, "geometry": { "type": "Point", "coordinates": [ 6.897867377819161, 50.819530683394916 ] } },
{ "type": "Feature", "properties": { "strassenschluessel": "05362000001204136", "bezeichnung": "In der Maar" }, "geometry": { "type": "Point", "coordinates": [ 6.899872274728823, 50.823269295687872 ] } },
{ "type": "Feature", "properties": { "strassenschluessel": "05362000001204137", "bezeichnung": "Janshof" }, "geometry": { "type": "Point", "coordinates": [ 6.903892371912958, 50.827402566350123 ] } },
{ "type": "Feature", "properties": { "strassenschluessel": "05362000001204138", "bezeichnung": "Jordanstraße" }, "geometry": { "type": "Point", "coordinates": [ 6.910700450479607, 50.833436234632551 ] } },
{ "type": "Feature", "properties": { "strassenschluessel": "05362000001204139", "bezeichnung": "Josefstraße" }, "geometry": { "type": "Point", "coordinates": [ 6.89991230297514, 50.830654788110238 ] } },
{ "type": "Feature", "properties": { "strassenschluessel": "05362000001204140", "bezeichnung": "Joseph-von-Görres-Str." }, "geometry": { "type": "Point", "coordinates": [ 6.898945325612203, 50.839570800970549 ] } },
{ "type": "Feature", "properties": { "strassenschluessel": "05362000001204141", "bezeichnung": "Heinrich-Fetten-Platz" }, "geometry": { "type": "Point", "coordinates": [ 6.90333042061442, 50.829216642852344 ] } },
{ "type": "Feature", "properties": { "strassenschluessel": "05362000001204142", "bezeichnung": "Immendorfer Straße" }, "geometry": { "type": "Point", "coordinates": [ 6.920769371571838, 50.840738144090444 ] } },
{ "type": "Feature", "properties": { "strassenschluessel": "05362000001204143", "bezeichnung": "Kaiserstraße" }, "geometry": { "type": "Point", "coordinates": [ 6.905058030290121, 50.834027945155427 ] } },
{ "type": "Feature", "properties": { "strassenschluessel": "05362000001204144", "bezeichnung": "Carl-Schurz-Straße" }, "geometry": { "type": "Point", "coordinates": [ 6.900483967477028, 50.828274479441951 ] } },
{ "type": "Feature", "properties": { "strassenschluessel": "05362000001204145", "bezeichnung": "Kempishofstraße" }, "geometry": { "type": "Point", "coordinates": [ 6.903503869965056, 50.83037625104123 ] } },
{ "type": "Feature", "properties": { "strassenschluessel": "05362000001204146", "bezeichnung": "Kentenichstraße" }, "geometry": { "type": "Point", "coordinates": [ 6.902227084002815, 50.831078299531882 ] } },
{ "type": "Feature", "properties": { "strassenschluessel": "05362000001204147", "bezeichnung": "Kirchstraße" }, "geometry": { "type": "Point", "coordinates": [ 6.904554451089854, 50.829210290159494 ] } },
{ "type": "Feature", "properties": { "strassenschluessel": "05362000001204148", "bezeichnung": "Kölnstraße" }, "geometry": { "type": "Point", "coordinates": [ 6.912252063845982, 50.841860620705681 ] } },
{ "type": "Feature", "properties": { "strassenschluessel": "05362000001204149", "bezeichnung": "Königstraße" }, "geometry": { "type": "Point", "coordinates": [ 6.902519215649409, 50.835701985075069 ] } },
{ "type": "Feature", "properties": { "strassenschluessel": "05362000001204150", "bezeichnung": "Kolpingplatz" }, "geometry": { "type": "Point", "coordinates": [ 6.897726917995333, 50.832974190494724 ] } },
{ "type": "Feature", "properties": { "strassenschluessel": "05362000001204151", "bezeichnung": "Konrad-Adenauer-Straße" }, "geometry": null },
{ "type": "Feature", "properties": { "strassenschluessel": "05362000001204152", "bezeichnung": "Kurfürstenstraße" }, "geometry": { "type": "Point", "coordinates": [ 6.902894902474703, 50.8380267822279 ] } },
{ "type": "Feature", "properties": { "strassenschluessel": "05362000001204154", "bezeichnung": "Kleiststraße" }, "geometry": { "type": "Point", "coordinates": [ 6.897614954833121, 50.824045408603766 ] } },
{ "type": "Feature", "properties": { "strassenschluessel": "05362000001204155", "bezeichnung": "Langenackerstraße" }, "geometry": { "type": "Point", "coordinates": [ 6.914554515322809, 50.833520970761491 ] } },
{ "type": "Feature", "properties": { "strassenschluessel": "05362000001204156", "bezeichnung": "Liblarer Straße" }, "geometry": { "type": "Point", "coordinates": [ 6.896522868423304, 50.824302634231344 ] } },
{ "type": "Feature", "properties": { "strassenschluessel": "05362000001204157", "bezeichnung": "Lindenhof" }, "geometry": { "type": "Point", "coordinates": [ 6.912252531995863, 50.83208990941872 ] } },
{ "type": "Feature", "properties": { "strassenschluessel": "05362000001204158", "bezeichnung": "Löwenburgstraße" }, "geometry": { "type": "Point", "coordinates": [ 6.884212189159931, 50.822570535817036 ] } },
{ "type": "Feature", "properties": { "strassenschluessel": "05362000001204159", "bezeichnung": "Lohrbergstraße" }, "geometry": { "type": "Point", "coordinates": [ 6.88718396771648, 50.822786227876662 ] } },
{ "type": "Feature", "properties": { "strassenschluessel": "05362000001204160", "bezeichnung": "Ludwig-Jahn-Straße" }, "geometry": { "type": "Point", "coordinates": [ 6.901175760660559, 50.838103583168646 ] } },
{ "type": "Feature", "properties": { "strassenschluessel": "05362000001204161", "bezeichnung": "Ludwig-Uhland-Straße" }, "geometry": { "type": "Point", "coordinates": [ 6.903083940956869, 50.836423066697883 ] } },
{ "type": "Feature", "properties": { "strassenschluessel": "05362000001204162", "bezeichnung": "Luisenstraße" }, "geometry": { "type": "Point", "coordinates": [ 6.897359528509645, 50.834393653563787 ] } },
{ "type": "Feature", "properties": { "strassenschluessel": "05362000001204163", "bezeichnung": "Lupinenweg" }, "geometry": { "type": "Point", "coordinates": [ 6.872544878987637, 50.82481818229293 ] } },
{ "type": "Feature", "properties": { "strassenschluessel": "05362000001204164", "bezeichnung": "Lessingstraße" }, "geometry": { "type": "Point", "coordinates": [ 6.896674757608177, 50.822629675630544 ] } },
{ "type": "Feature", "properties": { "strassenschluessel": "05362000001204165", "bezeichnung": "Maximilian-Franz-Straße" }, "geometry": { "type": "Point", "coordinates": [ 6.885064542308398, 50.830411613300747 ] } },
{ "type": "Feature", "properties": { "strassenschluessel": "05362000001204166", "bezeichnung": "Markt" }, "geometry": { "type": "Point", "coordinates": [ 6.905065034114453, 50.829116435754031 ] } },
{ "type": "Feature", "properties": { "strassenschluessel": "05362000001204167", "bezeichnung": "Mayersweg" }, "geometry": { "type": "Point", "coordinates": [ 6.90710655801054, 50.829945580131181 ] } },
{ "type": "Feature", "properties": { "strassenschluessel": "05362000001204168", "bezeichnung": "Merricher Straße" }, "geometry": { "type": "Point", "coordinates": [ 6.893693003835686, 50.828915497576041 ] } },
{ "type": "Feature", "properties": { "strassenschluessel": "05362000001204169", "bezeichnung": "Mertener Straße" }, "geometry": { "type": "Point", "coordinates": [ 6.899966263971001, 50.822770544462614 ] } },
{ "type": "Feature", "properties": { "strassenschluessel": "05362000001204170", "bezeichnung": "Mühlenstraße" }, "geometry": { "type": "Point", "coordinates": [ 6.899606542302767, 50.827767790696853 ] } },
{ "type": "Feature", "properties": { "strassenschluessel": "05362000001204171", "bezeichnung": "Neue Bohle" }, "geometry": { "type": "Point", "coordinates": [ 6.889730848090769, 50.820169311426696 ] } },
{ "type": "Feature", "properties": { "strassenschluessel": "05362000001204172", "bezeichnung": "Neue Königstraße" }, "geometry": { "type": "Point", "coordinates": [ 6.899666973420548, 50.836203170551514 ] } },
{ "type": "Feature", "properties": { "strassenschluessel": "05362000001204173", "bezeichnung": "Leopold-Bähr-Platz" }, "geometry": null },
{ "type": "Feature", "properties": { "strassenschluessel": "05362000001204174", "bezeichnung": "Nord-Süd-Weg" }, "geometry": null },
{ "type": "Feature", "properties": { "strassenschluessel": "05362000001204175", "bezeichnung": "Oelbergstraße" }, "geometry": { "type": "Point", "coordinates": [ 6.882104866483151, 50.823218666587913 ] } },
{ "type": "Feature", "properties": { "strassenschluessel": "05362000001204176", "bezeichnung": "Otto-Wels-Straße" }, "geometry": { "type": "Point", "coordinates": [ 6.902092669918793, 50.814401038210455 ] } },
{ "type": "Feature", "properties": { "strassenschluessel": "05362000001204177", "bezeichnung": "Palmersdorfer Hof" }, "geometry": { "type": "Point", "coordinates": [ 6.921765918533895, 50.82696941886261 ] } },
{ "type": "Feature", "properties": { "strassenschluessel": "05362000001204178", "bezeichnung": "Parkstraße" }, "geometry": { "type": "Point", "coordinates": [ 6.915547638858835, 50.827686261764477 ] } },
{ "type": "Feature", "properties": { "strassenschluessel": "05362000001204179", "bezeichnung": "Pastoratstraße" }, "geometry": { "type": "Point", "coordinates": [ 6.903954421578255, 50.829905266304017 ] } },
{ "type": "Feature", "properties": { "strassenschluessel": "05362000001204180", "bezeichnung": "Petersbergstraße" }, "geometry": { "type": "Point", "coordinates": [ 6.883766381740614, 50.823623614820583 ] } },
{ "type": "Feature", "properties": { "strassenschluessel": "05362000001204181", "bezeichnung": "Peter-Schmitter-Straße" }, "geometry": { "type": "Point", "coordinates": [ 6.897555204673993, 50.830244138531164 ] } },
{ "type": "Feature", "properties": { "strassenschluessel": "05362000001204182", "bezeichnung": "Peterstraße" }, "geometry": { "type": "Point", "coordinates": [ 6.922229216184166, 50.831178245930495 ] } },
{ "type": "Feature", "properties": { "strassenschluessel": "05362000001204183", "bezeichnung": "Pingsdorfer Straße" }, "geometry": { "type": "Point", "coordinates": [ 6.89919696398048, 50.824120619966159 ] } },
{ "type": "Feature", "properties": { "strassenschluessel": "05362000001204184", "bezeichnung": "Poststraße" }, "geometry": { "type": "Point", "coordinates": [ 6.908194291909347, 50.832239298488425 ] } },
{ "type": "Feature", "properties": { "strassenschluessel": "05362000001204188", "bezeichnung": "Rheinstraße" }, "geometry": { "type": "Point", "coordinates": [ 6.913186422127684, 50.830134424816428 ] } },
{ "type": "Feature", "properties": { "strassenschluessel": "05362000001204189", "bezeichnung": "Richard-Bertram-Straße" }, "geometry": { "type": "Point", "coordinates": [ 6.900709163588155, 50.833413779568829 ] } },
{ "type": "Feature", "properties": { "strassenschluessel": "05362000001204190", "bezeichnung": "Rösberger Straße" }, "geometry": { "type": "Point", "coordinates": [ 6.895220305582133, 50.819051239980112 ] } },
{ "type": "Feature", "properties": { "strassenschluessel": "05362000001204191", "bezeichnung": "Rodderweg" }, "geometry": { "type": "Point", "coordinates": [ 6.887889504102904, 50.828018117093947 ] } },
{ "type": "Feature", "properties": { "strassenschluessel": "05362000001204192", "bezeichnung": "Römerhof" }, "geometry": { "type": "Point", "coordinates": [ 6.893452539638498, 50.825545378461186 ] } },
{ "type": "Feature", "properties": { "strassenschluessel": "05362000001204193", "bezeichnung": "Römerstraße" }, "geometry": { "type": "Point", "coordinates": [ 6.896420660683792, 50.832716086159934 ] } },
{ "type": "Feature", "properties": { "strassenschluessel": "05362000001204194", "bezeichnung": "Roisdorfer Straße" }, "geometry": { "type": "Point", "coordinates": [ 6.901663022544476, 50.822243068860232 ] } },
{ "type": "Feature", "properties": { "strassenschluessel": "05362000001204195", "bezeichnung": "Rondorfer Straße" }, "geometry": { "type": "Point", "coordinates": [ 6.911116438210898, 50.838471299250074 ] } },
{ "type": "Feature", "properties": { "strassenschluessel": "05362000001204196", "bezeichnung": "Rosenhof" }, "geometry": { "type": "Point", "coordinates": [ 6.918538272137675, 50.830641462255343 ] } },
{ "type": "Feature", "properties": { "strassenschluessel": "05362000001204198", "bezeichnung": "Senecaweg" }, "geometry": { "type": "Point", "coordinates": [ 6.893016468313073, 50.822113802097441 ] } },
{ "type": "Feature", "properties": { "strassenschluessel": "05362000001204199", "bezeichnung": "Schildgesstraße" }, "geometry": { "type": "Point", "coordinates": [ 6.917677952553797, 50.835230598345248 ] } },
{ "type": "Feature", "properties": { "strassenschluessel": "05362000001204200", "bezeichnung": "Schillerstraße" }, "geometry": { "type": "Point", "coordinates": [ 6.896380631174623, 50.827470936049671 ] } },
{ "type": "Feature", "properties": { "strassenschluessel": "05362000001204201", "bezeichnung": "Schlaunstraße" }, "geometry": { "type": "Point", "coordinates": [ 6.897517568108065, 50.828491953710149 ] } },
{ "type": "Feature", "properties": { "strassenschluessel": "05362000001204202", "bezeichnung": "Schloß Augustusburg" }, "geometry": null },
{ "type": "Feature", "properties": { "strassenschluessel": "05362000001204203", "bezeichnung": "Schloß Falkenlust" }, "geometry": { "type": "Point", "coordinates": [ 6.929173863176306, 50.819771840131509 ] } },
{ "type": "Feature", "properties": { "strassenschluessel": "05362000001204204", "bezeichnung": "Schloßstraße" }, "geometry": { "type": "Point", "coordinates": [ 6.906452726787563, 50.82830973268748 ] } },
{ "type": "Feature", "properties": { "strassenschluessel": "05362000001204205", "bezeichnung": "Schützenstraße" }, "geometry": { "type": "Point", "coordinates": [ 6.903343448468886, 50.831113050028556 ] } },
{ "type": "Feature", "properties": { "strassenschluessel": "05362000001204206", "bezeichnung": "Sophienstraße" }, "geometry": { "type": "Point", "coordinates": [ 6.914145651675136, 50.832646822230231 ] } },
{ "type": "Feature", "properties": { "strassenschluessel": "05362000001204207", "bezeichnung": "Steinkleehang" }, "geometry": { "type": "Point", "coordinates": [ 6.875518460783542, 50.825310212392182 ] } },
{ "type": "Feature", "properties": { "strassenschluessel": "05362000001204208", "bezeichnung": "Steinweg" }, "geometry": { "type": "Point", "coordinates": [ 6.903204813633059, 50.82802297959244 ] } },
{ "type": "Feature", "properties": { "strassenschluessel": "05362000001204209", "bezeichnung": "Stephanstraße" }, "geometry": { "type": "Point", "coordinates": [ 6.914958427462573, 50.830581896102871 ] } },
{ "type": "Feature", "properties": { "strassenschluessel": "05362000001204210", "bezeichnung": "Sürther Straße" }, "geometry": { "type": "Point", "coordinates": [ 6.920769371817127, 50.835841471678179 ] } },
{ "type": "Feature", "properties": { "strassenschluessel": "05362000001204211", "bezeichnung": "Tacitusweg" }, "geometry": { "type": "Point", "coordinates": [ 6.891984466712411, 50.821592380697048 ] } },
{ "type": "Feature", "properties": { "strassenschluessel": "05362000001204212", "bezeichnung": "Theodor-Körner-Straße" }, "geometry": { "type": "Point", "coordinates": [ 6.900163592434627, 50.838179722585629 ] } },
{ "type": "Feature", "properties": { "strassenschluessel": "05362000001204213", "bezeichnung": "Tiergartenstraße" }, "geometry": { "type": "Point", "coordinates": [ 6.903754750941286, 50.825748447502747 ] } },
{ "type": "Feature", "properties": { "strassenschluessel": "05362000001204214", "bezeichnung": "Ubierstraße" }, "geometry": { "type": "Point", "coordinates": [ 6.893532480994601, 50.826986634561848 ] } },
{ "type": "Feature", "properties": { "strassenschluessel": "05362000001204215", "bezeichnung": "Uhlstraße" }, "geometry": { "type": "Point", "coordinates": [ 6.900198252645575, 50.825090232501061 ] } },
{ "type": "Feature", "properties": { "strassenschluessel": "05362000001204216", "bezeichnung": "Urfelder Straße" }, "geometry": { "type": "Point", "coordinates": [ 6.897697809778356, 50.8211828010487 ] } },
{ "type": "Feature", "properties": { "strassenschluessel": "05362000001204218", "bezeichnung": "Von-Heinsberg-Straße" }, "geometry": { "type": "Point", "coordinates": [ 6.887387903509954, 50.828756937688787 ] } },
{ "type": "Feature", "properties": { "strassenschluessel": "05362000001204219", "bezeichnung": "Von-Hessen-Straße" }, "geometry": { "type": "Point", "coordinates": [ 6.885711432841591, 50.830092955612791 ] } },
{ "type": "Feature", "properties": { "strassenschluessel": "05362000001204220", "bezeichnung": "Von-Holte-Straße" }, "geometry": { "type": "Point", "coordinates": [ 6.89098845913675, 50.830819482689066 ] } },
{ "type": "Feature", "properties": { "strassenschluessel": "05362000001204221", "bezeichnung": "Von-Westerburg-Straße" }, "geometry": { "type": "Point", "coordinates": [ 6.884795776221838, 50.828364058649214 ] } },
{ "type": "Feature", "properties": { "strassenschluessel": "05362000001204222", "bezeichnung": "Von-Wied-Straße" }, "geometry": { "type": "Point", "coordinates": [ 6.884793953005841, 50.831728824075299 ] } },
{ "type": "Feature", "properties": { "strassenschluessel": "05362000001204225", "bezeichnung": "Walberberger Straße" }, "geometry": { "type": "Point", "coordinates": [ 6.898923100661619, 50.822695886575467 ] } },
{ "type": "Feature", "properties": { "strassenschluessel": "05362000001204226", "bezeichnung": "Waldorfer Straße" }, "geometry": { "type": "Point", "coordinates": [ 6.900680427303546, 50.823153386768226 ] } },
{ "type": "Feature", "properties": { "strassenschluessel": "05362000001204227", "bezeichnung": "Wallstraße" }, "geometry": { "type": "Point", "coordinates": [ 6.902739181460156, 50.827485824976755 ] } },
{ "type": "Feature", "properties": { "strassenschluessel": "05362000001204228", "bezeichnung": "Weisser Straße" }, "geometry": { "type": "Point", "coordinates": [ 6.922775294539832, 50.832605400809094 ] } },
{ "type": "Feature", "properties": { "strassenschluessel": "05362000001204229", "bezeichnung": "Wesselinger Straße" }, "geometry": { "type": "Point", "coordinates": [ 6.925159832535272, 50.829816626760497 ] } },
{ "type": "Feature", "properties": { "strassenschluessel": "05362000001204230", "bezeichnung": "Wilhelm-Kamm-Straße" }, "geometry": { "type": "Point", "coordinates": [ 6.895384568433299, 50.830601501246136 ] } },
{ "type": "Feature", "properties": { "strassenschluessel": "05362000001204231", "bezeichnung": "Wilhelmstraße" }, "geometry": { "type": "Point", "coordinates": [ 6.909006460394108, 50.831665754183256 ] } },
{ "type": "Feature", "properties": { "strassenschluessel": "05362000001204232", "bezeichnung": "Wittelsbacherstraße" }, "geometry": { "type": "Point", "coordinates": [ 6.890762102664417, 50.82840471212463 ] } },
{ "type": "Feature", "properties": { "strassenschluessel": "05362000001204233", "bezeichnung": "Wolkenburgstraße" }, "geometry": { "type": "Point", "coordinates": [ 6.884070276630159, 50.823933242739173 ] } },
{ "type": "Feature", "properties": { "strassenschluessel": "05362000001204234", "bezeichnung": "Will-Küpper-Straße" }, "geometry": { "type": "Point", "coordinates": [ 6.909231731525644, 50.832960264598675 ] } },
{ "type": "Feature", "properties": { "strassenschluessel": "05362000001204235", "bezeichnung": "Ziegelweg" }, "geometry": { "type": "Point", "coordinates": [ 6.887775340182922, 50.821739451026573 ] } },
{ "type": "Feature", "properties": { "strassenschluessel": "05362000001204236", "bezeichnung": "Wasserturmweg" }, "geometry": null },
{ "type": "Feature", "properties": { "strassenschluessel": "05362000001204237", "bezeichnung": "Zum Donnerbach" }, "geometry": { "type": "Point", "coordinates": [ 6.890468215933053, 50.826314355380461 ] } },
{ "type": "Feature", "properties": { "strassenschluessel": "05362000001204238", "bezeichnung": "Zum Rodderbruch" }, "geometry": { "type": "Point", "coordinates": [ 6.889316712145257, 50.825620169467712 ] } },
{ "type": "Feature", "properties": { "strassenschluessel": "05362000001204239", "bezeichnung": "Zur Gabjei" }, "geometry": { "type": "Point", "coordinates": [ 6.889182879622751, 50.82500977115869 ] } },
{ "type": "Feature", "properties": { "strassenschluessel": "05362000001204240", "bezeichnung": "Zum Schützenplatz" }, "geometry": null },
{ "type": "Feature", "properties": { "strassenschluessel": "05362000001204241", "bezeichnung": "Anna-Seghers-Straße" }, "geometry": { "type": "Point", "coordinates": [ 6.905657201057009, 50.817878107440649 ] } },
{ "type": "Feature", "properties": { "strassenschluessel": "05362000001204242", "bezeichnung": "Louise-Straus-Straße" }, "geometry": { "type": "Point", "coordinates": [ 6.901824088903141, 50.816835567567445 ] } },
{ "type": "Feature", "properties": { "strassenschluessel": "05362000001204243", "bezeichnung": "Mascha-Kaleko-Straße" }, "geometry": { "type": "Point", "coordinates": [ 6.901279934946775, 50.816540163498033 ] } },
{ "type": "Feature", "properties": { "strassenschluessel": "05362000001204244", "bezeichnung": "Bettina-von-Arnim-Straße" }, "geometry": { "type": "Point", "coordinates": [ 6.902781041191767, 50.817461699797619 ] } },
{ "type": "Feature", "properties": { "strassenschluessel": "05362000001204245", "bezeichnung": "Anne-Frank-Straße" }, "geometry": { "type": "Point", "coordinates": [ 6.905660047605852, 50.817389326193691 ] } },
{ "type": "Feature", "properties": { "strassenschluessel": "05362000001204254", "bezeichnung": "Andreaskirchplatz" }, "geometry": { "type": "Point", "coordinates": [ 6.896864319504077, 50.843240838151104 ] } },
{ "type": "Feature", "properties": { "strassenschluessel": "05362000001204255", "bezeichnung": "Adolf-Damaschke-Straße" }, "geometry": { "type": "Point", "coordinates": [ 6.890640833452949, 50.84505238548428 ] } },
{ "type": "Feature", "properties": { "strassenschluessel": "05362000001204256", "bezeichnung": "Agathastraße" }, "geometry": { "type": "Point", "coordinates": [ 6.895540097468537, 50.844276526091313 ] } },
{ "type": "Feature", "properties": { "strassenschluessel": "05362000001204257", "bezeichnung": "Am Kreuz" }, "geometry": { "type": "Point", "coordinates": [ 6.888639654504927, 50.84362369002902 ] } },
{ "type": "Feature", "properties": { "strassenschluessel": "05362000001204258", "bezeichnung": "Hamburger Straße" }, "geometry": { "type": "Point", "coordinates": [ 6.913201657918865, 50.845946860127874 ] } },
{ "type": "Feature", "properties": { "strassenschluessel": "05362000001204259", "bezeichnung": "An der Linde" }, "geometry": { "type": "Point", "coordinates": [ 6.894439839116635, 50.844796831348638 ] } },
{ "type": "Feature", "properties": { "strassenschluessel": "05362000001204260", "bezeichnung": "Bitterfelder Straße" }, "geometry": { "type": "Point", "coordinates": [ 6.896238154283079, 50.838102966138678 ] } },
{ "type": "Feature", "properties": { "strassenschluessel": "05362000001204261", "bezeichnung": "Brauweilerweg" }, "geometry": { "type": "Point", "coordinates": [ 6.887985009057096, 50.845914926248952 ] } },
{ "type": "Feature", "properties": { "strassenschluessel": "05362000001204262", "bezeichnung": "Brückenstraße" }, "geometry": { "type": "Point", "coordinates": [ 6.895056107162584, 50.84613245855941 ] } },
{ "type": "Feature", "properties": { "strassenschluessel": "05362000001204263", "bezeichnung": "Bremer Straße" }, "geometry": { "type": "Point", "coordinates": [ 6.909586957987931, 50.845662437416387 ] } },
{ "type": "Feature", "properties": { "strassenschluessel": "05362000001204264", "bezeichnung": "Danziger Straße" }, "geometry": { "type": "Point", "coordinates": [ 6.893672747694947, 50.838396813108986 ] } },
{ "type": "Feature", "properties": { "strassenschluessel": "05362000001204265", "bezeichnung": "Dresdener Straße" }, "geometry": { "type": "Point", "coordinates": [ 6.895062855893308, 50.839891000076804 ] } },
{ "type": "Feature", "properties": { "strassenschluessel": "05362000001204266", "bezeichnung": "Gleueler Weg" }, "geometry": { "type": "Point", "coordinates": [ 6.903816077574263, 50.844178956795957 ] } },
{ "type": "Feature", "properties": { "strassenschluessel": "05362000001204267", "bezeichnung": "Fischenicher Straße" }, "geometry": { "type": "Point", "coordinates": [ 6.907772077434556, 50.843843018693349 ] } },
{ "type": "Feature", "properties": { "strassenschluessel": "05362000001204268", "bezeichnung": "Frechener Straße" }, "geometry": { "type": "Point", "coordinates": [ 6.889854180984928, 50.846242316034221 ] } },
{ "type": "Feature", "properties": { "strassenschluessel": "05362000001204269", "bezeichnung": "Fronhofweg" }, "geometry": { "type": "Point", "coordinates": [ 6.899595562530215, 50.844729379201844 ] } },
{ "type": "Feature", "properties": { "strassenschluessel": "05362000001204270", "bezeichnung": "Hermülheimer Straße" }, "geometry": { "type": "Point", "coordinates": [ 6.905544386839094, 50.845223610478733 ] } },
{ "type": "Feature", "properties": { "strassenschluessel": "05362000001204271", "bezeichnung": "Hauptstraße" }, "geometry": { "type": "Point", "coordinates": [ 6.888939371270608, 50.843780788848456 ] } },
{ "type": "Feature", "properties": { "strassenschluessel": "05362000001204272", "bezeichnung": "Hürther Straße" }, "geometry": { "type": "Point", "coordinates": [ 6.887142418028215, 50.845138328061438 ] } },
{ "type": "Feature", "properties": { "strassenschluessel": "05362000001204273", "bezeichnung": "Junkersdorfer Weg" }, "geometry": { "type": "Point", "coordinates": [ 6.892649343546031, 50.845464068204272 ] } },
{ "type": "Feature", "properties": { "strassenschluessel": "05362000001204274", "bezeichnung": "Im Sonntagsgarten" }, "geometry": { "type": "Point", "coordinates": [ 6.890180024577774, 50.843969946897147 ] } },
{ "type": "Feature", "properties": { "strassenschluessel": "05362000001204275", "bezeichnung": "Kierberger Straße" }, "geometry": { "type": "Point", "coordinates": [ 6.894139093857475, 50.843445401261889 ] } },
{ "type": "Feature", "properties": { "strassenschluessel": "05362000001204276", "bezeichnung": "Renault-Nissan-Straße" }, "geometry": { "type": "Point", "coordinates": [ 6.904505970136389, 50.842924957713123 ] } },
{ "type": "Feature", "properties": { "strassenschluessel": "05362000001204277", "bezeichnung": "Königsberger Straße" }, "geometry": { "type": "Point", "coordinates": [ 6.89450565813725, 50.83911498121973 ] } },
{ "type": "Feature", "properties": { "strassenschluessel": "05362000001204278", "bezeichnung": "Königsdorfer Weg" }, "geometry": { "type": "Point", "coordinates": [ 6.893111678847911, 50.845732021318959 ] } },
{ "type": "Feature", "properties": { "strassenschluessel": "05362000001204279", "bezeichnung": "Leipziger Straße" }, "geometry": { "type": "Point", "coordinates": [ 6.895174970506322, 50.839222225667633 ] } },
{ "type": "Feature", "properties": { "strassenschluessel": "05362000001204280", "bezeichnung": "Lövenicher Straße" }, "geometry": { "type": "Point", "coordinates": [ 6.888533714692525, 50.845350702119177 ] } },
{ "type": "Feature", "properties": { "strassenschluessel": "05362000001204281", "bezeichnung": "Matthäusstraße" }, "geometry": { "type": "Point", "coordinates": [ 6.898166374678774, 50.847421054278449 ] } },
{ "type": "Feature", "properties": { "strassenschluessel": "05362000001204282", "bezeichnung": "Pfarrer-Robert-Grosche-Straße" }, "geometry": { "type": "Point", "coordinates": [ 6.895091698329346, 50.845558971045037 ] } },
{ "type": "Feature", "properties": { "strassenschluessel": "05362000001204283", "bezeichnung": "Pulheimer Straße" }, "geometry": { "type": "Point", "coordinates": [ 6.889478823185756, 50.844875151393296 ] } },
{ "type": "Feature", "properties": { "strassenschluessel": "05362000001204284", "bezeichnung": "Römerstraße" }, "geometry": { "type": "Point", "coordinates": [ 6.898907867390908, 50.842650568797275 ] } },
{ "type": "Feature", "properties": { "strassenschluessel": "05362000001204285", "bezeichnung": "Nikolaus-Ehlen-Straße" }, "geometry": { "type": "Point", "coordinates": [ 6.891714978074157, 50.845312086584848 ] } },
{ "type": "Feature", "properties": { "strassenschluessel": "05362000001204286", "bezeichnung": "Schöffenstraße" }, "geometry": { "type": "Point", "coordinates": [ 6.898637726387903, 50.841660539751707 ] } },
{ "type": "Feature", "properties": { "strassenschluessel": "05362000001204287", "bezeichnung": "Schultheißstraße" }, "geometry": { "type": "Point", "coordinates": [ 6.893931943138825, 50.84066555537246 ] } },
{ "type": "Feature", "properties": { "strassenschluessel": "05362000001204288", "bezeichnung": "St.-Albert-Straße" }, "geometry": { "type": "Point", "coordinates": [ 6.897973801391778, 50.844662140564978 ] } },
{ "type": "Feature", "properties": { "strassenschluessel": "05362000001204289", "bezeichnung": "Stiftstraße" }, "geometry": { "type": "Point", "coordinates": [ 6.896449096221456, 50.841269428410563 ] } },
{ "type": "Feature", "properties": { "strassenschluessel": "05362000001204290", "bezeichnung": "Stommelner Weg" }, "geometry": { "type": "Point", "coordinates": [ 6.889721788030759, 50.845330873470154 ] } },
{ "type": "Feature", "properties": { "strassenschluessel": "05362000001204291", "bezeichnung": "Thüringer Platz" }, "geometry": { "type": "Point", "coordinates": [ 6.896075513304487, 50.841012712552789 ] } },
{ "type": "Feature", "properties": { "strassenschluessel": "05362000001204292", "bezeichnung": "Paul-Dahm-Straße" }, "geometry": { "type": "Point", "coordinates": [ 6.891556345061756, 50.844784286423099 ] } },
{ "type": "Feature", "properties": { "strassenschluessel": "05362000001204293", "bezeichnung": "Ursulastraße" }, "geometry": { "type": "Point", "coordinates": [ 6.901079493937316, 50.847462424622485 ] } },
{ "type": "Feature", "properties": { "strassenschluessel": "05362000001204294", "bezeichnung": "Weilerstraße" }, "geometry": { "type": "Point", "coordinates": [ 6.895089921385612, 50.847525586061408 ] } },
{ "type": "Feature", "properties": { "strassenschluessel": "05362000001204295", "bezeichnung": "Merseburger Straße" }, "geometry": { "type": "Point", "coordinates": [ 6.89662801727284, 50.838962058783395 ] } },
{ "type": "Feature", "properties": { "strassenschluessel": "05362000001204296", "bezeichnung": "Zum Herrengarten" }, "geometry": { "type": "Point", "coordinates": [ 6.898368969414916, 50.844449906905375 ] } },
{ "type": "Feature", "properties": { "strassenschluessel": "05362000001204297", "bezeichnung": "Zum Sommersberg" }, "geometry": { "type": "Point", "coordinates": [ 6.893002409684793, 50.842397098520664 ] } },
{ "type": "Feature", "properties": { "strassenschluessel": "05362000001204298", "bezeichnung": "Stotzheimer Weg" }, "geometry": { "type": "Point", "coordinates": [ 6.903016061252812, 50.845319636046682 ] } },
{ "type": "Feature", "properties": { "strassenschluessel": "05362000001204301", "bezeichnung": "Am Kirchberg" }, "geometry": { "type": "Point", "coordinates": [ 6.889200812449279, 50.834222157311942 ] } },
{ "type": "Feature", "properties": { "strassenschluessel": "05362000001204302", "bezeichnung": "Am Mühlenhof" }, "geometry": { "type": "Point", "coordinates": [ 6.887116717574087, 50.834264767697071 ] } },
{ "type": "Feature", "properties": { "strassenschluessel": "05362000001204303", "bezeichnung": "An der Brücke" }, "geometry": { "type": "Point", "coordinates": [ 6.885802784113722, 50.835889503929501 ] } },
{ "type": "Feature", "properties": { "strassenschluessel": "05362000001204304", "bezeichnung": "Bitterfelder Straße" }, "geometry": { "type": "Point", "coordinates": [ 6.895550328851601, 50.837600612164259 ] } },
{ "type": "Feature", "properties": { "strassenschluessel": "05362000001204305", "bezeichnung": "An der Ville-Bahn" }, "geometry": null },
{ "type": "Feature", "properties": { "strassenschluessel": "05362000001204306", "bezeichnung": "Berrenrather Straße" }, "geometry": { "type": "Point", "coordinates": [ 6.882777192032826, 50.838064982103091 ] } },
{ "type": "Feature", "properties": { "strassenschluessel": "05362000001204307", "bezeichnung": "Breslauer Straße" }, "geometry": { "type": "Point", "coordinates": [ 6.893419185158035, 50.837287935653293 ] } },
{ "type": "Feature", "properties": { "strassenschluessel": "05362000001204308", "bezeichnung": "Daberger Höhe" }, "geometry": { "type": "Point", "coordinates": [ 6.88621183789811, 50.833503310867982 ] } },
{ "type": "Feature", "properties": { "strassenschluessel": "05362000001204309", "bezeichnung": "Cottbuser Weg" }, "geometry": { "type": "Point", "coordinates": [ 6.895109615566338, 50.836848606625914 ] } },
{ "type": "Feature", "properties": { "strassenschluessel": "05362000001204310", "bezeichnung": "Daberger Weg" }, "geometry": { "type": "Point", "coordinates": [ 6.88835441390718, 50.832036102253923 ] } },
{ "type": "Feature", "properties": { "strassenschluessel": "05362000001204311", "bezeichnung": "Danziger Straße" }, "geometry": { "type": "Point", "coordinates": [ 6.892990433988165, 50.838277084282488 ] } },
{ "type": "Feature", "properties": { "strassenschluessel": "05362000001204312", "bezeichnung": "Elsterpfad" }, "geometry": { "type": "Point", "coordinates": [ 6.883854604709533, 50.836314192192233 ] } },
{ "type": "Feature", "properties": { "strassenschluessel": "05362000001204314", "bezeichnung": "Franz-Von-Kesseler-Straße" }, "geometry": { "type": "Point", "coordinates": [ 6.887800794452369, 50.839885293452703 ] } },
{ "type": "Feature", "properties": { "strassenschluessel": "05362000001204315", "bezeichnung": "Fredenbruch" }, "geometry": { "type": "Point", "coordinates": [ 6.886116974211507, 50.837262464240446 ] } },
{ "type": "Feature", "properties": { "strassenschluessel": "05362000001204316", "bezeichnung": "Friedrich-Ebert-Straße" }, "geometry": { "type": "Point", "coordinates": [ 6.882835450069704, 50.835041836895684 ] } },
{ "type": "Feature", "properties": { "strassenschluessel": "05362000001204317", "bezeichnung": "Bleibtreuseeweg" }, "geometry": null },
{ "type": "Feature", "properties": { "strassenschluessel": "05362000001204318", "bezeichnung": "Im Mühlengrund" }, "geometry": { "type": "Point", "coordinates": [ 6.889387232481164, 50.833798235329439 ] } },
{ "type": "Feature", "properties": { "strassenschluessel": "05362000001204319", "bezeichnung": "Kaiserstraße" }, "geometry": { "type": "Point", "coordinates": [ 6.889626469525324, 50.836373665623505 ] } },
{ "type": "Feature", "properties": { "strassenschluessel": "05362000001204320", "bezeichnung": "Kapellenweg" }, "geometry": { "type": "Point", "coordinates": [ 6.886750580047122, 50.836075406250757 ] } },
{ "type": "Feature", "properties": { "strassenschluessel": "05362000001204321", "bezeichnung": "Kierberger Straße" }, "geometry": { "type": "Point", "coordinates": [ 6.888074369764565, 50.837748240089127 ] } },
{ "type": "Feature", "properties": { "strassenschluessel": "05362000001204322", "bezeichnung": "Letterhausstraße" }, "geometry": { "type": "Point", "coordinates": [ 6.891147656814176, 50.831864827333696 ] } },
{ "type": "Feature", "properties": { "strassenschluessel": "05362000001204323", "bezeichnung": "Lohmühle" }, "geometry": { "type": "Point", "coordinates": [ 6.891003933888508, 50.833492820619675 ] } },
{ "type": "Feature", "properties": { "strassenschluessel": "05362000001204324", "bezeichnung": "Leipziger Straße" }, "geometry": { "type": "Point", "coordinates": [ 6.894751945796936, 50.837075185800089 ] } },
{ "type": "Feature", "properties": { "strassenschluessel": "05362000001204325", "bezeichnung": "Margaretenstraße" }, "geometry": { "type": "Point", "coordinates": [ 6.883968602399675, 50.838651450528729 ] } },
{ "type": "Feature", "properties": { "strassenschluessel": "05362000001204326", "bezeichnung": "Mühlenbach" }, "geometry": { "type": "Point", "coordinates": [ 6.888697041976167, 50.836172199920867 ] } },
{ "type": "Feature", "properties": { "strassenschluessel": "05362000001204327", "bezeichnung": "Mühlenberg" }, "geometry": { "type": "Point", "coordinates": [ 6.886453278185438, 50.835220483481145 ] } },
{ "type": "Feature", "properties": { "strassenschluessel": "05362000001204328", "bezeichnung": "Römerstraße" }, "geometry": { "type": "Point", "coordinates": [ 6.89551879666511, 50.832690545219478 ] } },
{ "type": "Feature", "properties": { "strassenschluessel": "05362000001204329", "bezeichnung": "Senftenberger Straße" }, "geometry": { "type": "Point", "coordinates": [ 6.895510085913779, 50.836040978209304 ] } },
{ "type": "Feature", "properties": { "strassenschluessel": "05362000001204330", "bezeichnung": "Schulstraße" }, "geometry": { "type": "Point", "coordinates": [ 6.887274985000666, 50.835430880959422 ] } },
{ "type": "Feature", "properties": { "strassenschluessel": "05362000001204331", "bezeichnung": "Servatiusstraße" }, "geometry": { "type": "Point", "coordinates": [ 6.884606411112991, 50.836674376322186 ] } },
{ "type": "Feature", "properties": { "strassenschluessel": "05362000001204332", "bezeichnung": "Stettiner Straße" }, "geometry": { "type": "Point", "coordinates": [ 6.892381165694977, 50.837002018614186 ] } },
{ "type": "Feature", "properties": { "strassenschluessel": "05362000001204333", "bezeichnung": "Talstraße" }, "geometry": { "type": "Point", "coordinates": [ 6.881408482588774, 50.835647827702921 ] } },
{ "type": "Feature", "properties": { "strassenschluessel": "05362000001204334", "bezeichnung": "Theismühle" }, "geometry": { "type": "Point", "coordinates": [ 6.882344328969516, 50.835271181533962 ] } },
{ "type": "Feature", "properties": { "strassenschluessel": "05362000001204335", "bezeichnung": "Theodor-Heuss-Straße" }, "geometry": null },
{ "type": "Feature", "properties": { "strassenschluessel": "05362000001204336", "bezeichnung": "Spremberger Weg" }, "geometry": { "type": "Point", "coordinates": [ 6.895495669950356, 50.836823203090759 ] } },
{ "type": "Feature", "properties": { "strassenschluessel": "05362000001204337", "bezeichnung": "Vochemer Straße" }, "geometry": { "type": "Point", "coordinates": [ 6.884856496012636, 50.837362058811692 ] } },
{ "type": "Feature", "properties": { "strassenschluessel": "05362000001204338", "bezeichnung": "Volkwinsweg" }, "geometry": { "type": "Point", "coordinates": [ 6.894632157905308, 50.831424228279936 ] } },
{ "type": "Feature", "properties": { "strassenschluessel": "05362000001204339", "bezeichnung": "Von-Roll-Straße" }, "geometry": { "type": "Point", "coordinates": [ 6.89530563142045, 50.83359471342353 ] } },
{ "type": "Feature", "properties": { "strassenschluessel": "05362000001204340", "bezeichnung": "Waldweg" }, "geometry": { "type": "Point", "coordinates": [ 6.883015315301782, 50.836750209444205 ] } },
{ "type": "Feature", "properties": { "strassenschluessel": "05362000001204341", "bezeichnung": "Winterburg" }, "geometry": { "type": "Point", "coordinates": [ 6.880191987692172, 50.83391579656216 ] } },
{ "type": "Feature", "properties": { "strassenschluessel": "05362000001204342", "bezeichnung": "Heinrich-Kreutzberg-Straße" }, "geometry": { "type": "Point", "coordinates": [ 6.895110389501217, 50.834517633266955 ] } },
{ "type": "Feature", "properties": { "strassenschluessel": "05362000001204343", "bezeichnung": "Margarethe-von-Hersel-Str" }, "geometry": { "type": "Point", "coordinates": [ 6.872652222694847, 50.833486816382596 ] } },
{ "type": "Feature", "properties": { "strassenschluessel": "05362000001204344", "bezeichnung": "Im Klostergarten" }, "geometry": { "type": "Point", "coordinates": [ 6.873358677472984, 50.835515804019451 ] } },
{ "type": "Feature", "properties": { "strassenschluessel": "05362000001204345", "bezeichnung": "Willy-Brandt-Straße" }, "geometry": null },
{ "type": "Feature", "properties": { "strassenschluessel": "05362000001204346", "bezeichnung": "Am Siegesbach" }, "geometry": { "type": "Point", "coordinates": [ 6.874863675712809, 50.836135587388327 ] } },
{ "type": "Feature", "properties": { "strassenschluessel": "05362000001204347", "bezeichnung": "Bootsweg" }, "geometry": { "type": "Point", "coordinates": [ 6.868221011917658, 50.831972052519518 ] } },
{ "type": "Feature", "properties": { "strassenschluessel": "05362000001204348", "bezeichnung": "Barbarastraße" }, "geometry": { "type": "Point", "coordinates": [ 6.870250014599826, 50.833491205203991 ] } },
{ "type": "Feature", "properties": { "strassenschluessel": "05362000001204349", "bezeichnung": "Bergstraße" }, "geometry": { "type": "Point", "coordinates": [ 6.874544865878491, 50.835559963549848 ] } },
{ "type": "Feature", "properties": { "strassenschluessel": "05362000001204350", "bezeichnung": "Freiheitstraße" }, "geometry": { "type": "Point", "coordinates": [ 6.870193758130509, 50.837099851140231 ] } },
{ "type": "Feature", "properties": { "strassenschluessel": "05362000001204351", "bezeichnung": "Grubenstraße" }, "geometry": { "type": "Point", "coordinates": [ 6.874971760809118, 50.833792172455283 ] } },
{ "type": "Feature", "properties": { "strassenschluessel": "05362000001204352", "bezeichnung": "Gruhlstraße" }, "geometry": { "type": "Point", "coordinates": [ 6.872288495886267, 50.832935792708334 ] } },
{ "type": "Feature", "properties": { "strassenschluessel": "05362000001204353", "bezeichnung": "Gustav-Wegge-Straße" }, "geometry": { "type": "Point", "coordinates": [ 6.871976248094053, 50.837052526154466 ] } },
{ "type": "Feature", "properties": { "strassenschluessel": "05362000001204354", "bezeichnung": "Heider Bergsee" }, "geometry": null },
{ "type": "Feature", "properties": { "strassenschluessel": "05362000001204355", "bezeichnung": "Hermann-Gruhl-Straße" }, "geometry": { "type": "Point", "coordinates": [ 6.867980679930736, 50.836410054199405 ] } },
{ "type": "Feature", "properties": { "strassenschluessel": "05362000001204356", "bezeichnung": "Himmelreich" }, "geometry": { "type": "Point", "coordinates": [ 6.869738884507858, 50.837550616776895 ] } },
{ "type": "Feature", "properties": { "strassenschluessel": "05362000001204357", "bezeichnung": "Hochstraße" }, "geometry": { "type": "Point", "coordinates": [ 6.86868464425542, 50.836941657557695 ] } },
{ "type": "Feature", "properties": { "strassenschluessel": "05362000001204358", "bezeichnung": "Höhenweg" }, "geometry": { "type": "Point", "coordinates": [ 6.878075690286284, 50.833608872687016 ] } },
{ "type": "Feature", "properties": { "strassenschluessel": "05362000001204359", "bezeichnung": "Kloster Benden" }, "geometry": { "type": "Point", "coordinates": [ 6.87411582399078, 50.834670840412024 ] } },
{ "type": "Feature", "properties": { "strassenschluessel": "05362000001204360", "bezeichnung": "Klosterstraße" }, "geometry": { "type": "Point", "coordinates": [ 6.871564715943889, 50.8338938596101 ] } },
{ "type": "Feature", "properties": { "strassenschluessel": "05362000001204361", "bezeichnung": "Marienstraße" }, "geometry": { "type": "Point", "coordinates": [ 6.872063222638555, 50.834467410003903 ] } },
{ "type": "Feature", "properties": { "strassenschluessel": "05362000001204362", "bezeichnung": "Seeweg" }, "geometry": { "type": "Point", "coordinates": [ 6.874889550723062, 50.833190513742238 ] } },
{ "type": "Feature", "properties": { "strassenschluessel": "05362000001204363", "bezeichnung": "Theodor-Heuss-Straße" }, "geometry": null },
{ "type": "Feature", "properties": { "strassenschluessel": "05362000001204364", "bezeichnung": "Villestraße" }, "geometry": { "type": "Point", "coordinates": [ 6.869799496879953, 50.835881743567263 ] } },
{ "type": "Feature", "properties": { "strassenschluessel": "05362000001204365", "bezeichnung": "Friederikeweg" }, "geometry": { "type": "Point", "coordinates": [ 6.873210567486742, 50.8326745053512 ] } },
{ "type": "Feature", "properties": { "strassenschluessel": "05362000001204366", "bezeichnung": "Härriskuhl" }, "geometry": { "type": "Point", "coordinates": [ 6.871119881690807, 50.836586237143827 ] } },
{ "type": "Feature", "properties": { "strassenschluessel": "05362000001204367", "bezeichnung": "Hennersweg" }, "geometry": { "type": "Point", "coordinates": [ 6.873073588160994, 50.831782401246564 ] } },
{ "type": "Feature", "properties": { "strassenschluessel": "05362000001204368", "bezeichnung": "Luxemburger Straße" }, "geometry": null },
{ "type": "Feature", "properties": { "strassenschluessel": "05362000001204369", "bezeichnung": "Auf der Burg" }, "geometry": null },
{ "type": "Feature", "properties": { "strassenschluessel": "05362000001204370", "bezeichnung": "Berliner Ring" }, "geometry": { "type": "Point", "coordinates": [ 6.896112014759396, 50.815360406045698 ] } },
{ "type": "Feature", "properties": { "strassenschluessel": "05362000001204371", "bezeichnung": "Alte Bonnstraße" }, "geometry": { "type": "Point", "coordinates": [ 6.893893410109584, 50.817269138744557 ] } },
{ "type": "Feature", "properties": { "strassenschluessel": "05362000001204372", "bezeichnung": "Alte Poststraße" }, "geometry": null },
{ "type": "Feature", "properties": { "strassenschluessel": "05362000001204373", "bezeichnung": "Am Hülderberg" }, "geometry": { "type": "Point", "coordinates": [ 6.884598251571524, 50.80959731963204 ] } },
{ "type": "Feature", "properties": { "strassenschluessel": "05362000001204375", "bezeichnung": "Bertolt-Brecht-Straße" }, "geometry": { "type": "Point", "coordinates": [ 6.896590011562424, 50.814488361926962 ] } },
{ "type": "Feature", "properties": { "strassenschluessel": "05362000001204376", "bezeichnung": "Badorfer Straße" }, "geometry": { "type": "Point", "coordinates": [ 6.891616844764806, 50.809219575245208 ] } },
{ "type": "Feature", "properties": { "strassenschluessel": "05362000001204377", "bezeichnung": "Bendgespfad" }, "geometry": { "type": "Point", "coordinates": [ 6.891207425827272, 50.814230761087416 ] } },
{ "type": "Feature", "properties": { "strassenschluessel": "05362000001204378", "bezeichnung": "Burgpfad" }, "geometry": { "type": "Point", "coordinates": [ 6.88745748492016, 50.815985775488784 ] } },
{ "type": "Feature", "properties": { "strassenschluessel": "05362000001204379", "bezeichnung": "Buschgasse" }, "geometry": { "type": "Point", "coordinates": [ 6.886947024354032, 50.815252518898582 ] } },
{ "type": "Feature", "properties": { "strassenschluessel": "05362000001204381", "bezeichnung": "Euskirchener Straße" }, "geometry": { "type": "Point", "coordinates": [ 6.892611519223184, 50.817110011651316 ] } },
{ "type": "Feature", "properties": { "strassenschluessel": "05362000001204383", "bezeichnung": "Hüllenweg" }, "geometry": { "type": "Point", "coordinates": [ 6.885198963843493, 50.812532306118342 ] } },
{ "type": "Feature", "properties": { "strassenschluessel": "05362000001204384", "bezeichnung": "Gottfried-Keller-Straße" }, "geometry": { "type": "Point", "coordinates": [ 6.898803283235679, 50.815726286207479 ] } },
{ "type": "Feature", "properties": { "strassenschluessel": "05362000001204385", "bezeichnung": "Kirchgasse" }, "geometry": { "type": "Point", "coordinates": [ 6.890509203321034, 50.816013356587817 ] } },
{ "type": "Feature", "properties": { "strassenschluessel": "05362000001204386", "bezeichnung": "Heinrich-Spoerl-Straße" }, "geometry": null },
{ "type": "Feature", "properties": { "strassenschluessel": "05362000001204387", "bezeichnung": "Maiglerstraße" }, "geometry": { "type": "Point", "coordinates": [ 6.880002910769064, 50.811701312009156 ] } },
{ "type": "Feature", "properties": { "strassenschluessel": "05362000001204389", "bezeichnung": "Obermühle" }, "geometry": { "type": "Point", "coordinates": [ 6.889492096985337, 50.812598285189132 ] } },
{ "type": "Feature", "properties": { "strassenschluessel": "05362000001204390", "bezeichnung": "Pantaleonstraße" }, "geometry": { "type": "Point", "coordinates": [ 6.892419294067194, 50.815148677588063 ] } },
{ "type": "Feature", "properties": { "strassenschluessel": "05362000001204392", "bezeichnung": "Schiffergasse" }, "geometry": { "type": "Point", "coordinates": [ 6.888693428387971, 50.815137418987781 ] } },
{ "type": "Feature", "properties": { "strassenschluessel": "05362000001204393", "bezeichnung": "Theodor-Storm-Straße" }, "geometry": { "type": "Point", "coordinates": [ 6.897953646954529, 50.81507928208331 ] } },
{ "type": "Feature", "properties": { "strassenschluessel": "05362000001204394", "bezeichnung": "Untermühle" }, "geometry": { "type": "Point", "coordinates": [ 6.890207534324991, 50.813667954689855 ] } },
{ "type": "Feature", "properties": { "strassenschluessel": "05362000001204395", "bezeichnung": "Vorgebirgsstraße" }, "geometry": { "type": "Point", "coordinates": [ 6.89459387612532, 50.813609245351451 ] } },
{ "type": "Feature", "properties": { "strassenschluessel": "05362000001204396", "bezeichnung": "Wasserturmweg" }, "geometry": { "type": "Point", "coordinates": [ 6.876636084489339, 50.815394996010113 ] } },
{ "type": "Feature", "properties": { "strassenschluessel": "05362000001204397", "bezeichnung": "Wehrbachsweg" }, "geometry": { "type": "Point", "coordinates": [ 6.884711092161072, 50.813154613719412 ] } },
{ "type": "Feature", "properties": { "strassenschluessel": "05362000001204398", "bezeichnung": "Von-Droste-Hülshoff-Straße" }, "geometry": { "type": "Point", "coordinates": [ 6.897442654942053, 50.81462654972475 ] } },
{ "type": "Feature", "properties": { "strassenschluessel": "05362000001204400", "bezeichnung": "Auf der Pehle" }, "geometry": { "type": "Point", "coordinates": [ 6.896658856085042, 50.81718477348705 ] } },
{ "type": "Feature", "properties": { "strassenschluessel": "05362000001204401", "bezeichnung": "Am Römerkanal" }, "geometry": { "type": "Point", "coordinates": [ 6.891424513069041, 50.82002802315553 ] } },
{ "type": "Feature", "properties": { "strassenschluessel": "05362000001204402", "bezeichnung": "Im Bungarten" }, "geometry": { "type": "Point", "coordinates": [ 6.889775595142589, 50.818978217381776 ] } },
{ "type": "Feature", "properties": { "strassenschluessel": "05362000001204403", "bezeichnung": "Kreuzhof" }, "geometry": { "type": "Point", "coordinates": [ 6.890345955395626, 50.818788284148965 ] } },
{ "type": "Feature", "properties": { "strassenschluessel": "05362000001204404", "bezeichnung": "Römerstraße" }, "geometry": { "type": "Point", "coordinates": [ 6.892900909429224, 50.819485214401048 ] } },
{ "type": "Feature", "properties": { "strassenschluessel": "05362000001204405", "bezeichnung": "Am Ringofen" }, "geometry": { "type": "Point", "coordinates": [ 6.891512822148902, 50.818140042239484 ] } },
{ "type": "Feature", "properties": { "strassenschluessel": "05362000001204406", "bezeichnung": "Töpfergasse" }, "geometry": { "type": "Point", "coordinates": [ 6.889175331686715, 50.812954885306205 ] } },
{ "type": "Feature", "properties": { "strassenschluessel": "05362000001204407", "bezeichnung": "Halfenweg" }, "geometry": { "type": "Point", "coordinates": [ 6.900792511376062, 50.807819539015505 ] } },
{ "type": "Feature", "properties": { "strassenschluessel": "05362000001204408", "bezeichnung": "Agnes-Decker-Straße" }, "geometry": { "type": "Point", "coordinates": [ 6.898369383943373, 50.811957400625182 ] } },
{ "type": "Feature", "properties": { "strassenschluessel": "05362000001204409", "bezeichnung": "An Hornsgarten" }, "geometry": { "type": "Point", "coordinates": [ 6.909560872614787, 50.805216072354995 ] } },
{ "type": "Feature", "properties": { "strassenschluessel": "05362000001204410", "bezeichnung": "Am Birkhof" }, "geometry": { "type": "Point", "coordinates": [ 6.871481557403196, 50.793276528189097 ] } },
{ "type": "Feature", "properties": { "strassenschluessel": "05362000001204411", "bezeichnung": "Ahornweg" }, "geometry": { "type": "Point", "coordinates": [ 6.878591068428073, 50.802686612735926 ] } },
{ "type": "Feature", "properties": { "strassenschluessel": "05362000001204412", "bezeichnung": "Akazienweg" }, "geometry": { "type": "Point", "coordinates": [ 6.880755749188846, 50.803437058036259 ] } },
{ "type": "Feature", "properties": { "strassenschluessel": "05362000001204413", "bezeichnung": "Alte Bonnstraße" }, "geometry": { "type": "Point", "coordinates": [ 6.897987335145696, 50.812221639616524 ] } },
{ "type": "Feature", "properties": { "strassenschluessel": "05362000001204414", "bezeichnung": "Am Hennebach" }, "geometry": { "type": "Point", "coordinates": [ 6.901884739742542, 50.804303064282195 ] } },
{ "type": "Feature", "properties": { "strassenschluessel": "05362000001204415", "bezeichnung": "Am Kuttenbusch" }, "geometry": { "type": "Point", "coordinates": [ 6.888077782788513, 50.808931525337421 ] } },
{ "type": "Feature", "properties": { "strassenschluessel": "05362000001204416", "bezeichnung": "Am Pastorsgarten" }, "geometry": { "type": "Point", "coordinates": [ 6.89098490975915, 50.806098322360235 ] } },
{ "type": "Feature", "properties": { "strassenschluessel": "05362000001204417", "bezeichnung": "Am Rott" }, "geometry": { "type": "Point", "coordinates": [ 6.886651084197562, 50.808684903885478 ] } },
{ "type": "Feature", "properties": { "strassenschluessel": "05362000001204418", "bezeichnung": "An der Kapelle" }, "geometry": { "type": "Point", "coordinates": [ 6.891718441219552, 50.806771414100169 ] } },
{ "type": "Feature", "properties": { "strassenschluessel": "05362000001204419", "bezeichnung": "Auf dem Gallberg" }, "geometry": { "type": "Point", "coordinates": [ 6.880238551773078, 50.806564804949453 ] } },
{ "type": "Feature", "properties": { "strassenschluessel": "05362000001204420", "bezeichnung": "Auf dem Kamm" }, "geometry": { "type": "Point", "coordinates": [ 6.887912420010671, 50.808440164183487 ] } },
{ "type": "Feature", "properties": { "strassenschluessel": "05362000001204421", "bezeichnung": "Auf den Steinen" }, "geometry": { "type": "Point", "coordinates": [ 6.893555289536466, 50.805341504477909 ] } },
{ "type": "Feature", "properties": { "strassenschluessel": "05362000001204422", "bezeichnung": "Auf der Kehre" }, "geometry": { "type": "Point", "coordinates": [ 6.889999287886619, 50.808304157674868 ] } },
{ "type": "Feature", "properties": { "strassenschluessel": "05362000001204423", "bezeichnung": "Anton-Ockenfels-Straße" }, "geometry": { "type": "Point", "coordinates": [ 6.885547356310856, 50.80656409960438 ] } },
{ "type": "Feature", "properties": { "strassenschluessel": "05362000001204424", "bezeichnung": "Badorfer Straße" }, "geometry": { "type": "Point", "coordinates": [ 6.892264663723047, 50.80989775086335 ] } },
{ "type": "Feature", "properties": { "strassenschluessel": "05362000001204425", "bezeichnung": "Berggasse" }, "geometry": { "type": "Point", "coordinates": [ 6.891344706077826, 50.809061819631602 ] } },
{ "type": "Feature", "properties": { "strassenschluessel": "05362000001204426", "bezeichnung": "Berggeiststraße" }, "geometry": { "type": "Point", "coordinates": [ 6.877576709927999, 50.800047533863726 ] } },
{ "type": "Feature", "properties": { "strassenschluessel": "05362000001204427", "bezeichnung": "Berliner Ring" }, "geometry": { "type": "Point", "coordinates": [ 6.897381620059496, 50.813883587911107 ] } },
{ "type": "Feature", "properties": { "strassenschluessel": "05362000001204428", "bezeichnung": "Buchenweg" }, "geometry": { "type": "Point", "coordinates": [ 6.880701237756838, 50.802876521273497 ] } },
{ "type": "Feature", "properties": { "strassenschluessel": "05362000001204429", "bezeichnung": "Am Michelshof" }, "geometry": { "type": "Point", "coordinates": [ 6.90135327833385, 50.807572906628742 ] } },
{ "type": "Feature", "properties": { "strassenschluessel": "05362000001204430", "bezeichnung": "Am Petershof" }, "geometry": { "type": "Point", "coordinates": [ 6.900220367654902, 50.808309269828243 ] } },
{ "type": "Feature", "properties": { "strassenschluessel": "05362000001204431", "bezeichnung": "Eckdorfer Mühlenweg" }, "geometry": { "type": "Point", "coordinates": [ 6.897035718411304, 50.803888142854717 ] } },
{ "type": "Feature", "properties": { "strassenschluessel": "05362000001204432", "bezeichnung": "Eckdorfer Straße" }, "geometry": { "type": "Point", "coordinates": [ 6.89600928988677, 50.802596911849392 ] } },
{ "type": "Feature", "properties": { "strassenschluessel": "05362000001204433", "bezeichnung": "Edelgasse" }, "geometry": { "type": "Point", "coordinates": [ 6.891347277481927, 50.812190101889271 ] } },
{ "type": "Feature", "properties": { "strassenschluessel": "05362000001204434", "bezeichnung": "Eichweg" }, "geometry": { "type": "Point", "coordinates": [ 6.897768517119709, 50.813263941219262 ] } },
{ "type": "Feature", "properties": { "strassenschluessel": "05362000001204435", "bezeichnung": "Eifelstraße" }, "geometry": { "type": "Point", "coordinates": [ 6.892354673573836, 50.81391042872405 ] } },
{ "type": "Feature", "properties": { "strassenschluessel": "05362000001204436", "bezeichnung": "Erich-Kästner-Straße" }, "geometry": { "type": "Point", "coordinates": [ 6.897699431870385, 50.813667120334358 ] } },
{ "type": "Feature", "properties": { "strassenschluessel": "05362000001204437", "bezeichnung": "Geildorfer Straße" }, "geometry": { "type": "Point", "coordinates": [ 6.903983639318048, 50.807236527209753 ] } },
{ "type": "Feature", "properties": { "strassenschluessel": "05362000001204438", "bezeichnung": "Grüner Weg" }, "geometry": { "type": "Point", "coordinates": [ 6.900705767150593, 50.800878439352985 ] } },
{ "type": "Feature", "properties": { "strassenschluessel": "05362000001204439", "bezeichnung": "Gebrüder-Grimm-Straße" }, "geometry": { "type": "Point", "coordinates": [ 6.898862355779214, 50.813773313592741 ] } },
{ "type": "Feature", "properties": { "strassenschluessel": "05362000001204440", "bezeichnung": "Im Vogelsang" }, "geometry": { "type": "Point", "coordinates": [ 6.884591865132489, 50.808248261726064 ] } },
{ "type": "Feature", "properties": { "strassenschluessel": "05362000001204441", "bezeichnung": "Jülichsgasse" }, "geometry": { "type": "Point", "coordinates": [ 6.892165384620875, 50.806253792688075 ] } },
{ "type": "Feature", "properties": { "strassenschluessel": "05362000001204442", "bezeichnung": "Von-Lupenau-Straße" }, "geometry": { "type": "Point", "coordinates": [ 6.90071446754971, 50.807258913652085 ] } },
{ "type": "Feature", "properties": { "strassenschluessel": "05362000001204443", "bezeichnung": "Kämperpfad" }, "geometry": { "type": "Point", "coordinates": [ 6.887891530086828, 50.808123196227264 ] } },
{ "type": "Feature", "properties": { "strassenschluessel": "05362000001204444", "bezeichnung": "Kastanienweg" }, "geometry": { "type": "Point", "coordinates": [ 6.878970202906161, 50.803235705895041 ] } },
{ "type": "Feature", "properties": { "strassenschluessel": "05362000001204445", "bezeichnung": "Kirchweg" }, "geometry": { "type": "Point", "coordinates": [ 6.892592460259343, 50.808709143408862 ] } },
{ "type": "Feature", "properties": { "strassenschluessel": "05362000001204446", "bezeichnung": "Kuhgasse" }, "geometry": { "type": "Point", "coordinates": [ 6.895235656884603, 50.801376133357564 ] } },
{ "type": "Feature", "properties": { "strassenschluessel": "05362000001204447", "bezeichnung": "Bavinganstraße" }, "geometry": { "type": "Point", "coordinates": [ 6.895785298206477, 50.806751974613888 ] } },
{ "type": "Feature", "properties": { "strassenschluessel": "05362000001204448", "bezeichnung": "Lenterbachsweg" }, "geometry": { "type": "Point", "coordinates": [ 6.883998272268087, 50.803401483256913 ] } },
{ "type": "Feature", "properties": { "strassenschluessel": "05362000001204449", "bezeichnung": "Lucretiaweg" }, "geometry": null },
{ "type": "Feature", "properties": { "strassenschluessel": "05362000001204450", "bezeichnung": "Im Paradies" }, "geometry": { "type": "Point", "coordinates": [ 6.896988469627612, 50.808110943626012 ] } },
{ "type": "Feature", "properties": { "strassenschluessel": "05362000001204451", "bezeichnung": "Metzenmacherweg" }, "geometry": { "type": "Point", "coordinates": [ 6.882780656558455, 50.803492968973089 ] } },
{ "type": "Feature", "properties": { "strassenschluessel": "05362000001204452", "bezeichnung": "Mönengasse" }, "geometry": { "type": "Point", "coordinates": [ 6.886874201251836, 50.807256972194679 ] } },
{ "type": "Feature", "properties": { "strassenschluessel": "05362000001204453", "bezeichnung": "Nord-Süd-Weg" }, "geometry": null },
{ "type": "Feature", "properties": { "strassenschluessel": "05362000001204454", "bezeichnung": "Nußbaumweg" }, "geometry": { "type": "Point", "coordinates": [ 6.878833482828466, 50.80555242206507 ] } },
{ "type": "Feature", "properties": { "strassenschluessel": "05362000001204456", "bezeichnung": "Phantasialandstraße" }, "geometry": null },
{ "type": "Feature", "properties": { "strassenschluessel": "05362000001204457", "bezeichnung": "Pehler Hülle" }, "geometry": { "type": "Point", "coordinates": [ 6.89371560648151, 50.811823464549803 ] } },
{ "type": "Feature", "properties": { "strassenschluessel": "05362000001204458", "bezeichnung": "Platanenweg" }, "geometry": { "type": "Point", "coordinates": [ 6.880116288034558, 50.802321794863481 ] } },
{ "type": "Feature", "properties": { "strassenschluessel": "05362000001204459", "bezeichnung": "Pützgasse" }, "geometry": { "type": "Point", "coordinates": [ 6.891024312015567, 50.808391233166752 ] } },
{ "type": "Feature", "properties": { "strassenschluessel": "05362000001204460", "bezeichnung": "Joseph-Hürten-Straße" }, "geometry": { "type": "Point", "coordinates": [ 6.895641378997668, 50.816899450382238 ] } },
{ "type": "Feature", "properties": { "strassenschluessel": "05362000001204461", "bezeichnung": "Robertsstraße" }, "geometry": { "type": "Point", "coordinates": [ 6.884418128894827, 50.806467836125975 ] } },
{ "type": "Feature", "properties": { "strassenschluessel": "05362000001204462", "bezeichnung": "Fritz-Wündisch-Straße" }, "geometry": { "type": "Point", "coordinates": [ 6.897270057212967, 50.81806008200374 ] } },
{ "type": "Feature", "properties": { "strassenschluessel": "05362000001204463", "bezeichnung": "Schnorrenberg" }, "geometry": { "type": "Point", "coordinates": [ 6.876455748878573, 50.803349967518933 ] } },
{ "type": "Feature", "properties": { "strassenschluessel": "05362000001204464", "bezeichnung": "Spielmannsgasse" }, "geometry": { "type": "Point", "coordinates": [ 6.893672201201511, 50.803293698667254 ] } },
{ "type": "Feature", "properties": { "strassenschluessel": "05362000001204465", "bezeichnung": "Steingasse" }, "geometry": { "type": "Point", "coordinates": [ 6.898819652569331, 50.806664741532494 ] } },
{ "type": "Feature", "properties": { "strassenschluessel": "05362000001204466", "bezeichnung": "Taunusstraße" }, "geometry": { "type": "Point", "coordinates": [ 6.892590712058844, 50.813637147968024 ] } },
{ "type": "Feature", "properties": { "strassenschluessel": "05362000001204467", "bezeichnung": "Ulmenweg" }, "geometry": { "type": "Point", "coordinates": [ 6.87699424681999, 50.802924991135377 ] } },
{ "type": "Feature", "properties": { "strassenschluessel": "05362000001204468", "bezeichnung": "Unter Birken" }, "geometry": { "type": "Point", "coordinates": [ 6.881352767343937, 50.805874379943809 ] } },
{ "type": "Feature", "properties": { "strassenschluessel": "05362000001204469", "bezeichnung": "Unter Eschen" }, "geometry": { "type": "Point", "coordinates": [ 6.884288299528727, 50.805825015916781 ] } },
{ "type": "Feature", "properties": { "strassenschluessel": "05362000001204470", "bezeichnung": "Wilhelm-Busch-Straße" }, "geometry": { "type": "Point", "coordinates": [ 6.896798112949872, 50.81344264941918 ] } },
{ "type": "Feature", "properties": { "strassenschluessel": "05362000001204471", "bezeichnung": "Wingertsberg" }, "geometry": { "type": "Point", "coordinates": [ 6.891934373640693, 50.807373365969028 ] } },
{ "type": "Feature", "properties": { "strassenschluessel": "05362000001204472", "bezeichnung": "Wolfsgasse" }, "geometry": { "type": "Point", "coordinates": [ 6.8909473534829, 50.809644947758215 ] } },
{ "type": "Feature", "properties": { "strassenschluessel": "05362000001204473", "bezeichnung": "Pehler Feldchen" }, "geometry": { "type": "Point", "coordinates": [ 6.893814147612393, 50.812737362851131 ] } },
{ "type": "Feature", "properties": { "strassenschluessel": "05362000001204474", "bezeichnung": "Geildorfer Bach" }, "geometry": { "type": "Point", "coordinates": [ 6.897972848342801, 50.805188007853751 ] } },
{ "type": "Feature", "properties": { "strassenschluessel": "05362000001204475", "bezeichnung": "Tafelhofstraße" }, "geometry": { "type": "Point", "coordinates": [ 6.89810612521542, 50.80584861008839 ] } },
{ "type": "Feature", "properties": { "strassenschluessel": "05362000001204476", "bezeichnung": "Glizmudisstraße" }, "geometry": { "type": "Point", "coordinates": [ 6.897125593444156, 50.805785063805956 ] } },
{ "type": "Feature", "properties": { "strassenschluessel": "05362000001204477", "bezeichnung": "Heinrich-Lierz-Straße" }, "geometry": { "type": "Point", "coordinates": [ 6.898937210453192, 50.80585270348206 ] } },
{ "type": "Feature", "properties": { "strassenschluessel": "05362000001204478", "bezeichnung": "Jakob-Sonntag-Straße" }, "geometry": { "type": "Point", "coordinates": [ 6.899521839865722, 50.810251790268694 ] } },
{ "type": "Feature", "properties": { "strassenschluessel": "05362000001204479", "bezeichnung": "Caspar-Markard-Straße" }, "geometry": { "type": "Point", "coordinates": [ 6.900230353668396, 50.811747588577241 ] } },
{ "type": "Feature", "properties": { "strassenschluessel": "05362000001204480", "bezeichnung": "Günter-Krüger-Straße" }, "geometry": { "type": "Point", "coordinates": [ 6.899154599053525, 50.810628742811701 ] } },
{ "type": "Feature", "properties": { "strassenschluessel": "05362000001204481", "bezeichnung": "Am Falter" }, "geometry": { "type": "Point", "coordinates": [ 6.916626416503155, 50.802358545205152 ] } },
{ "type": "Feature", "properties": { "strassenschluessel": "05362000001204482", "bezeichnung": "Am Hohlweg" }, "geometry": { "type": "Point", "coordinates": [ 6.912345099578931, 50.804316756510829 ] } },
{ "type": "Feature", "properties": { "strassenschluessel": "05362000001204483", "bezeichnung": "Am Rheindorfer Bach" }, "geometry": { "type": "Point", "coordinates": [ 6.909978823445101, 50.804682421376249 ] } },
{ "type": "Feature", "properties": { "strassenschluessel": "05362000001204484", "bezeichnung": "Am Strauchshof" }, "geometry": { "type": "Point", "coordinates": [ 6.916642966101194, 50.805158617933401 ] } },
{ "type": "Feature", "properties": { "strassenschluessel": "05362000001204485", "bezeichnung": "An der hohlen Gasse" }, "geometry": { "type": "Point", "coordinates": [ 6.914426726999421, 50.803476062098014 ] } },
{ "type": "Feature", "properties": { "strassenschluessel": "05362000001204486", "bezeichnung": "An der Schallenburg" }, "geometry": { "type": "Point", "coordinates": [ 6.918364365017946, 50.803744499197904 ] } },
{ "type": "Feature", "properties": { "strassenschluessel": "05362000001204487", "bezeichnung": "Bahnhof Schwadorf" }, "geometry": null },
{ "type": "Feature", "properties": { "strassenschluessel": "05362000001204488", "bezeichnung": "Bonnstraße" }, "geometry": { "type": "Point", "coordinates": [ 6.914263064429615, 50.806281528775344 ] } },
{ "type": "Feature", "properties": { "strassenschluessel": "05362000001204489", "bezeichnung": "Josef-Burfeid-Weg" }, "geometry": { "type": "Point", "coordinates": [ 6.9121291553042, 50.805576817369925 ] } },
{ "type": "Feature", "properties": { "strassenschluessel": "05362000001204491", "bezeichnung": "Dreichtenweg" }, "geometry": { "type": "Point", "coordinates": [ 6.905212670289088, 50.808579559357604 ] } },
{ "type": "Feature", "properties": { "strassenschluessel": "05362000001204493", "bezeichnung": "Flechtenweg" }, "geometry": { "type": "Point", "coordinates": [ 6.915572210675229, 50.801105757131694 ] } },
{ "type": "Feature", "properties": { "strassenschluessel": "05362000001204494", "bezeichnung": "Fuchsstraße" }, "geometry": { "type": "Point", "coordinates": [ 6.917920684146881, 50.803112413382181 ] } },
{ "type": "Feature", "properties": { "strassenschluessel": "05362000001204496", "bezeichnung": "Hermann-Faßbender-Straße" }, "geometry": { "type": "Point", "coordinates": [ 6.916910868178069, 50.803416940589415 ] } },
{ "type": "Feature", "properties": { "strassenschluessel": "05362000001204497", "bezeichnung": "Hommelsheimstraße" }, "geometry": { "type": "Point", "coordinates": [ 6.91440620503937, 50.804312253880887 ] } },
{ "type": "Feature", "properties": { "strassenschluessel": "05362000001204498", "bezeichnung": "Laurentiusweg" }, "geometry": { "type": "Point", "coordinates": [ 6.914918885321336, 50.805104402855648 ] } },
{ "type": "Feature", "properties": { "strassenschluessel": "05362000001204499", "bezeichnung": "Lindenstraße" }, "geometry": { "type": "Point", "coordinates": [ 6.914874529881574, 50.806170612486511 ] } },
{ "type": "Feature", "properties": { "strassenschluessel": "05362000001204500", "bezeichnung": "Mittelstraße" }, "geometry": { "type": "Point", "coordinates": [ 6.915550151639798, 50.803907704114785 ] } },
{ "type": "Feature", "properties": { "strassenschluessel": "05362000001204502", "bezeichnung": "Oberstraße" }, "geometry": { "type": "Point", "coordinates": [ 6.914757073905972, 50.80377376178312 ] } },
{ "type": "Feature", "properties": { "strassenschluessel": "05362000001204504", "bezeichnung": "Schwadorfer Burg" }, "geometry": null },
{ "type": "Feature", "properties": { "strassenschluessel": "05362000001204505", "bezeichnung": "Schwadorfer Hof" }, "geometry": null },
{ "type": "Feature", "properties": { "strassenschluessel": "05362000001204506", "bezeichnung": "Sechtemer Straße" }, "geometry": { "type": "Point", "coordinates": [ 6.920377211280444, 50.802262863607588 ] } },
{ "type": "Feature", "properties": { "strassenschluessel": "05362000001204507", "bezeichnung": "Severinstraße" }, "geometry": { "type": "Point", "coordinates": [ 6.916552933026225, 50.80353842307391 ] } },
{ "type": "Feature", "properties": { "strassenschluessel": "05362000001204508", "bezeichnung": "Spürckstraße" }, "geometry": { "type": "Point", "coordinates": [ 6.916454911656066, 50.804613504986129 ] } },
{ "type": "Feature", "properties": { "strassenschluessel": "05362000001204509", "bezeichnung": "Unter dem Dorf" }, "geometry": { "type": "Point", "coordinates": [ 6.913345734281658, 50.805650163307341 ] } },
{ "type": "Feature", "properties": { "strassenschluessel": "05362000001204510", "bezeichnung": "Weiherhofstraße" }, "geometry": { "type": "Point", "coordinates": [ 6.922853737446102, 50.804514440727175 ] } },
{ "type": "Feature", "properties": { "strassenschluessel": "05362000001204511", "bezeichnung": "Kunibertweg" }, "geometry": null },
{ "type": "Feature", "properties": { "strassenschluessel": "05362000001204530", "bezeichnung": "Ferdinand-Krausen-Weg" }, "geometry": { "type": "Point", "coordinates": [ 6.882449085679355, 50.805817509920452 ] } },
{ "type": "Feature", "properties": { "strassenschluessel": "05362000001299997", "bezeichnung": "Brühl" }, "geometry": null }
]
}
