{
"type": "FeatureCollection",
"features": [
{ "type": "Feature", "properties": { "strassenschluessel": "05366000001207300", "bezeichnung": "Auf der Held" }, "geometry": { "type": "Point", "coordinates": [ 6.496040252044673, 50.374190958839755 ] } },
{ "type": "Feature", "properties": { "strassenschluessel": "05366000001207301", "bezeichnung": "Bleichstraße" }, "geometry": { "type": "Point", "coordinates": [ 6.491295247834917, 50.369871319738891 ] } },
{ "type": "Feature", "properties": { "strassenschluessel": "05366000001207302", "bezeichnung": "Fuchsgasse" }, "geometry": { "type": "Point", "coordinates": [ 6.49665884296842, 50.370862056009585 ] } },
{ "type": "Feature", "properties": { "strassenschluessel": "05366000001207303", "bezeichnung": "Hammerstraße" }, "geometry": { "type": "Point", "coordinates": [ 6.497227494327031, 50.37012858247811 ] } },
{ "type": "Feature", "properties": { "strassenschluessel": "05366000001207304", "bezeichnung": "Hardtstraße" }, "geometry": { "type": "Point", "coordinates": [ 6.493362646579235, 50.372659615502791 ] } },
{ "type": "Feature", "properties": { "strassenschluessel": "05366000001207305", "bezeichnung": "Höhenstraße" }, "geometry": { "type": "Point", "coordinates": [ 6.495122964020571, 50.370303954353091 ] } },
{ "type": "Feature", "properties": { "strassenschluessel": "05366000001207306", "bezeichnung": "Hüttenstraße" }, "geometry": { "type": "Point", "coordinates": [ 6.49429654089976, 50.371596932111323 ] } },
{ "type": "Feature", "properties": { "strassenschluessel": "05366000001207307", "bezeichnung": "Karl-Koch-Straße" }, "geometry": null },
{ "type": "Feature", "properties": { "strassenschluessel": "05366000001207308", "bezeichnung": "Kronenburger Straße" }, "geometry": { "type": "Point", "coordinates": [ 6.49367370974069, 50.371873784840339 ] } },
{ "type": "Feature", "properties": { "strassenschluessel": "05366000001207309", "bezeichnung": "Kuckengasse" }, "geometry": { "type": "Point", "coordinates": [ 6.494233061346977, 50.370164717264181 ] } },
{ "type": "Feature", "properties": { "strassenschluessel": "05366000001207310", "bezeichnung": "Leystraße" }, "geometry": { "type": "Point", "coordinates": [ 6.493606837702968, 50.372724788096193 ] } },
{ "type": "Feature", "properties": { "strassenschluessel": "05366000001207311", "bezeichnung": "Rützgasse" }, "geometry": { "type": "Point", "coordinates": [ 6.493383423164093, 50.36982363753296 ] } },
{ "type": "Feature", "properties": { "strassenschluessel": "05366000001207312", "bezeichnung": "Schneiderstraße" }, "geometry": { "type": "Point", "coordinates": [ 6.495715443865008, 50.37127468635186 ] } },
{ "type": "Feature", "properties": { "strassenschluessel": "05366000001207313", "bezeichnung": "Theißenstraße" }, "geometry": { "type": "Point", "coordinates": [ 6.494848584919664, 50.372074586407606 ] } },
{ "type": "Feature", "properties": { "strassenschluessel": "05366000001207314", "bezeichnung": "Auf dem Lohrpfad" }, "geometry": { "type": "Point", "coordinates": [ 6.497568137996534, 50.374902132993206 ] } },
{ "type": "Feature", "properties": { "strassenschluessel": "05366000001207330", "bezeichnung": "Schröderhaus" }, "geometry": { "type": "Point", "coordinates": [ 6.511027801920707, 50.367720637932734 ] } },
{ "type": "Feature", "properties": { "strassenschluessel": "05366000001207331", "bezeichnung": "Hammerhütte" }, "geometry": { "type": "Point", "coordinates": [ 6.508237264335066, 50.36291126123313 ] } },
{ "type": "Feature", "properties": { "strassenschluessel": "05366000001207332", "bezeichnung": "Am Kalkofen" }, "geometry": { "type": "Point", "coordinates": [ 6.495896363165508, 50.363213337157156 ] } },
{ "type": "Feature", "properties": { "strassenschluessel": "05366000001207334", "bezeichnung": "Auf der Hardt" }, "geometry": { "type": "Point", "coordinates": [ 6.486195483558455, 50.3776648888715 ] } },
{ "type": "Feature", "properties": { "strassenschluessel": "05366000001207335", "bezeichnung": "Jagdhäuser am Lorbach" }, "geometry": { "type": "Point", "coordinates": [ 6.486087531729797, 50.388660753721062 ] } },
{ "type": "Feature", "properties": { "strassenschluessel": "05366000001207336", "bezeichnung": "Haus am Forst" }, "geometry": { "type": "Point", "coordinates": [ 6.486498039847326, 50.38723962173929 ] } },
{ "type": "Feature", "properties": { "strassenschluessel": "05366000001207337", "bezeichnung": "Neuhaus" }, "geometry": { "type": "Point", "coordinates": [ 6.459171586289258, 50.419355446951478 ] } },
{ "type": "Feature", "properties": { "strassenschluessel": "05366000001207338", "bezeichnung": "Waldrandsiedlung" }, "geometry": { "type": "Point", "coordinates": [ 6.502523761221675, 50.38758574034815 ] } },
{ "type": "Feature", "properties": { "strassenschluessel": "05366000001207339", "bezeichnung": "Simmeler Hof" }, "geometry": { "type": "Point", "coordinates": [ 6.493603475395723, 50.39853498703949 ] } },
{ "type": "Feature", "properties": { "strassenschluessel": "05366000001207340", "bezeichnung": "Eichenhof" }, "geometry": { "type": "Point", "coordinates": [ 6.516301975395303, 50.384089834695104 ] } },
{ "type": "Feature", "properties": { "strassenschluessel": "05366000001207341", "bezeichnung": "Buchenhof" }, "geometry": { "type": "Point", "coordinates": [ 6.517219089797091, 50.384535420267753 ] } },
{ "type": "Feature", "properties": { "strassenschluessel": "05366000001207342", "bezeichnung": "Im Leger" }, "geometry": { "type": "Point", "coordinates": [ 6.528522553535555, 50.369882907568638 ] } },
{ "type": "Feature", "properties": { "strassenschluessel": "05366000001207360", "bezeichnung": "Alenweg" }, "geometry": { "type": "Point", "coordinates": [ 6.459705340779903, 50.384612458899419 ] } },
{ "type": "Feature", "properties": { "strassenschluessel": "05366000001207361", "bezeichnung": "Auf dem Kramer" }, "geometry": { "type": "Point", "coordinates": [ 6.458883841699723, 50.385858982168813 ] } },
{ "type": "Feature", "properties": { "strassenschluessel": "05366000001207362", "bezeichnung": "Dorfstraße" }, "geometry": { "type": "Point", "coordinates": [ 6.465039943412837, 50.385760437678478 ] } },
{ "type": "Feature", "properties": { "strassenschluessel": "05366000001207363", "bezeichnung": "Frauenkroner Straße" }, "geometry": { "type": "Point", "coordinates": [ 6.45887853466795, 50.383075088702007 ] } },
{ "type": "Feature", "properties": { "strassenschluessel": "05366000001207364", "bezeichnung": "Krombachweg" }, "geometry": { "type": "Point", "coordinates": [ 6.459179504259393, 50.384088237354192 ] } },
{ "type": "Feature", "properties": { "strassenschluessel": "05366000001207365", "bezeichnung": "Schleidener Straße" }, "geometry": { "type": "Point", "coordinates": [ 6.461320442744839, 50.387924519721466 ] } },
{ "type": "Feature", "properties": { "strassenschluessel": "05366000001207366", "bezeichnung": "Wilhelmstraße" }, "geometry": { "type": "Point", "coordinates": [ 6.459453233004493, 50.380109514140429 ] } },
{ "type": "Feature", "properties": { "strassenschluessel": "05366000001207367", "bezeichnung": "In den Wiesen" }, "geometry": { "type": "Point", "coordinates": [ 6.459522089507385, 50.38558767908863 ] } },
{ "type": "Feature", "properties": { "strassenschluessel": "05366000001207375", "bezeichnung": "Am Schleidener Weg" }, "geometry": { "type": "Point", "coordinates": [ 6.459987174724279, 50.393091934594899 ] } },
{ "type": "Feature", "properties": { "strassenschluessel": "05366000001207376", "bezeichnung": "Haus Neugörres" }, "geometry": { "type": "Point", "coordinates": [ 6.460047292751151, 50.394652285976761 ] } },
{ "type": "Feature", "properties": { "strassenschluessel": "05366000001207377", "bezeichnung": "Am Hassel" }, "geometry": { "type": "Point", "coordinates": [ 6.45891530682708, 50.395841715630645 ] } },
{ "type": "Feature", "properties": { "strassenschluessel": "05366000001207378", "bezeichnung": "Am Fichtenberg" }, "geometry": { "type": "Point", "coordinates": [ 6.46215615389214, 50.397923320438338 ] } },
{ "type": "Feature", "properties": { "strassenschluessel": "05366000001207379", "bezeichnung": "Schwannerthof" }, "geometry": { "type": "Point", "coordinates": [ 6.460328850468585, 50.398768633417731 ] } },
{ "type": "Feature", "properties": { "strassenschluessel": "05366000001207380", "bezeichnung": "Forsthaus" }, "geometry": { "type": "Point", "coordinates": [ 6.45795051676839, 50.398476010231136 ] } },
{ "type": "Feature", "properties": { "strassenschluessel": "05366000001207381", "bezeichnung": "An Mospelt" }, "geometry": { "type": "Point", "coordinates": [ 6.458279948231671, 50.401761138343169 ] } },
{ "type": "Feature", "properties": { "strassenschluessel": "05366000001207382", "bezeichnung": "Auf Etscherath" }, "geometry": { "type": "Point", "coordinates": [ 6.455180527905026, 50.403573536310248 ] } },
{ "type": "Feature", "properties": { "strassenschluessel": "05366000001207383", "bezeichnung": "Haus Waldfrieden" }, "geometry": { "type": "Point", "coordinates": [ 6.454044782988317, 50.404993111194607 ] } },
{ "type": "Feature", "properties": { "strassenschluessel": "05366000001207384", "bezeichnung": "Jagdhaus Berghof" }, "geometry": { "type": "Point", "coordinates": [ 6.464399674175128, 50.392489067829388 ] } },
{ "type": "Feature", "properties": { "strassenschluessel": "05366000001207385", "bezeichnung": "Im Bungert" }, "geometry": { "type": "Point", "coordinates": [ 6.461880934385054, 50.387145261669737 ] } },
{ "type": "Feature", "properties": { "strassenschluessel": "05366000001207401", "bezeichnung": "Am Bungert" }, "geometry": { "type": "Point", "coordinates": [ 6.549141102166835, 50.38828253658636 ] } },
{ "type": "Feature", "properties": { "strassenschluessel": "05366000001207402", "bezeichnung": "Am Sönsberg" }, "geometry": { "type": "Point", "coordinates": [ 6.556808168698455, 50.389630655802613 ] } },
{ "type": "Feature", "properties": { "strassenschluessel": "05366000001207403", "bezeichnung": "Am Sportplatz" }, "geometry": { "type": "Point", "coordinates": [ 6.540465194067895, 50.38870994927926 ] } },
{ "type": "Feature", "properties": { "strassenschluessel": "05366000001207404", "bezeichnung": "Am Weiler" }, "geometry": { "type": "Point", "coordinates": [ 6.546499383169373, 50.391118928657534 ] } },
{ "type": "Feature", "properties": { "strassenschluessel": "05366000001207405", "bezeichnung": "Auf Eisen" }, "geometry": { "type": "Point", "coordinates": [ 6.542266310736305, 50.389815168838389 ] } },
{ "type": "Feature", "properties": { "strassenschluessel": "05366000001207406", "bezeichnung": "Bahnstraße" }, "geometry": { "type": "Point", "coordinates": [ 6.547869867980197, 50.386017688263834 ] } },
{ "type": "Feature", "properties": { "strassenschluessel": "05366000001207407", "bezeichnung": "Bergstraße" }, "geometry": { "type": "Point", "coordinates": [ 6.550303980609963, 50.388006100358737 ] } },
{ "type": "Feature", "properties": { "strassenschluessel": "05366000001207408", "bezeichnung": "Brantengasse" }, "geometry": { "type": "Point", "coordinates": [ 6.543881702661469, 50.387438002369933 ] } },
{ "type": "Feature", "properties": { "strassenschluessel": "05366000001207409", "bezeichnung": "Escher Straße" }, "geometry": { "type": "Point", "coordinates": [ 6.549622540419267, 50.383543377623205 ] } },
{ "type": "Feature", "properties": { "strassenschluessel": "05366000001207411", "bezeichnung": "Frankenstraße" }, "geometry": { "type": "Point", "coordinates": [ 6.544189027313781, 50.386760704464244 ] } },
{ "type": "Feature", "properties": { "strassenschluessel": "05366000001207412", "bezeichnung": "Fronenpesch" }, "geometry": { "type": "Point", "coordinates": [ 6.544498761495522, 50.382029259942556 ] } },
{ "type": "Feature", "properties": { "strassenschluessel": "05366000001207413", "bezeichnung": "Gehlengasse" }, "geometry": { "type": "Point", "coordinates": [ 6.545600697314929, 50.388967374853983 ] } },
{ "type": "Feature", "properties": { "strassenschluessel": "05366000001207414", "bezeichnung": "Hüchelbeuel" }, "geometry": { "type": "Point", "coordinates": [ 6.543971827108446, 50.386599882140089 ] } },
{ "type": "Feature", "properties": { "strassenschluessel": "05366000001207415", "bezeichnung": "Kaisergasse" }, "geometry": { "type": "Point", "coordinates": [ 6.543571457515482, 50.388170260102093 ] } },
{ "type": "Feature", "properties": { "strassenschluessel": "05366000001207416", "bezeichnung": "Kantoreiweg" }, "geometry": { "type": "Point", "coordinates": [ 6.54698655077857, 50.386017340509596 ] } },
{ "type": "Feature", "properties": { "strassenschluessel": "05366000001207417", "bezeichnung": "Kapellenweg" }, "geometry": { "type": "Point", "coordinates": [ 6.545074421815539, 50.385616468742661 ] } },
{ "type": "Feature", "properties": { "strassenschluessel": "05366000001207418", "bezeichnung": "Kaucherweg" }, "geometry": { "type": "Point", "coordinates": [ 6.555724423907656, 50.389397681509735 ] } },
{ "type": "Feature", "properties": { "strassenschluessel": "05366000001207419", "bezeichnung": "Kölner Straße" }, "geometry": { "type": "Point", "coordinates": [ 6.545174530455704, 50.387179609204544 ] } },
{ "type": "Feature", "properties": { "strassenschluessel": "05366000001207420", "bezeichnung": "Markusstraße" }, "geometry": { "type": "Point", "coordinates": [ 6.53877008773212, 50.383332161900199 ] } },
{ "type": "Feature", "properties": { "strassenschluessel": "05366000001207421", "bezeichnung": "Moorbachstraße" }, "geometry": { "type": "Point", "coordinates": [ 6.549903946819009, 50.385920189146297 ] } },
{ "type": "Feature", "properties": { "strassenschluessel": "05366000001207422", "bezeichnung": "Mühlenstraße" }, "geometry": { "type": "Point", "coordinates": [ 6.546301412413308, 50.379389160296832 ] } },
{ "type": "Feature", "properties": { "strassenschluessel": "05366000001207423", "bezeichnung": "Rennpfad" }, "geometry": { "type": "Point", "coordinates": [ 6.554555165777774, 50.387430438994627 ] } },
{ "type": "Feature", "properties": { "strassenschluessel": "05366000001207424", "bezeichnung": "Schäfergasse" }, "geometry": { "type": "Point", "coordinates": [ 6.545062922755765, 50.388363970344642 ] } },
{ "type": "Feature", "properties": { "strassenschluessel": "05366000001207425", "bezeichnung": "Schänzchen" }, "geometry": { "type": "Point", "coordinates": [ 6.542892340540437, 50.386451681900162 ] } },
{ "type": "Feature", "properties": { "strassenschluessel": "05366000001207426", "bezeichnung": "Schmidtheimer Straße" }, "geometry": { "type": "Point", "coordinates": [ 6.54439090417108, 50.393429075304219 ] } },
{ "type": "Feature", "properties": { "strassenschluessel": "05366000001207427", "bezeichnung": "Schulstraße" }, "geometry": { "type": "Point", "coordinates": [ 6.553657784472959, 50.388487979487088 ] } },
{ "type": "Feature", "properties": { "strassenschluessel": "05366000001207428", "bezeichnung": "Stollenweg" }, "geometry": { "type": "Point", "coordinates": [ 6.545765614665119, 50.394704582024559 ] } },
{ "type": "Feature", "properties": { "strassenschluessel": "05366000001207429", "bezeichnung": "Teichweg" }, "geometry": { "type": "Point", "coordinates": [ 6.547006905102716, 50.383593449313295 ] } },
{ "type": "Feature", "properties": { "strassenschluessel": "05366000001207430", "bezeichnung": "Trierer Straße" }, "geometry": { "type": "Point", "coordinates": [ 6.543737922418485, 50.382430114186477 ] } },
{ "type": "Feature", "properties": { "strassenschluessel": "05366000001207431", "bezeichnung": "Uferstraße" }, "geometry": { "type": "Point", "coordinates": [ 6.556049016909048, 50.388120068122525 ] } },
{ "type": "Feature", "properties": { "strassenschluessel": "05366000001207432", "bezeichnung": "Ursprungstraße" }, "geometry": { "type": "Point", "coordinates": [ 6.537671988480973, 50.389475655605487 ] } },
{ "type": "Feature", "properties": { "strassenschluessel": "05366000001207433", "bezeichnung": "Waldstraße" }, "geometry": { "type": "Point", "coordinates": [ 6.55787826009895, 50.387819450803278 ] } },
{ "type": "Feature", "properties": { "strassenschluessel": "05366000001207434", "bezeichnung": "Brückendamm" }, "geometry": null },
{ "type": "Feature", "properties": { "strassenschluessel": "05366000001207436", "bezeichnung": "Marienallee" }, "geometry": { "type": "Point", "coordinates": [ 6.543676405609642, 50.384154234542066 ] } },
{ "type": "Feature", "properties": { "strassenschluessel": "05366000001207437", "bezeichnung": "Auf dem Joch" }, "geometry": { "type": "Point", "coordinates": [ 6.542913949915412, 50.382968080172972 ] } },
{ "type": "Feature", "properties": { "strassenschluessel": "05366000001207438", "bezeichnung": "Auf der Menn" }, "geometry": { "type": "Point", "coordinates": [ 6.538164844857588, 50.388510657765075 ] } },
{ "type": "Feature", "properties": { "strassenschluessel": "05366000001207439", "bezeichnung": "Am Herrenberg" }, "geometry": { "type": "Point", "coordinates": [ 6.542040105328235, 50.386266125917054 ] } },
{ "type": "Feature", "properties": { "strassenschluessel": "05366000001207440", "bezeichnung": "Auf der Sandkaul" }, "geometry": { "type": "Point", "coordinates": [ 6.542328747064633, 50.385073645128365 ] } },
{ "type": "Feature", "properties": { "strassenschluessel": "05366000001207441", "bezeichnung": "Auf Horst" }, "geometry": { "type": "Point", "coordinates": [ 6.541512914621868, 50.386845985718487 ] } },
{ "type": "Feature", "properties": { "strassenschluessel": "05366000001207442", "bezeichnung": "Steinweg" }, "geometry": { "type": "Point", "coordinates": [ 6.542476101809583, 50.390526663722248 ] } },
{ "type": "Feature", "properties": { "strassenschluessel": "05366000001207443", "bezeichnung": "Weißdornweg" }, "geometry": { "type": "Point", "coordinates": [ 6.55252601466089, 50.388851698769869 ] } },
{ "type": "Feature", "properties": { "strassenschluessel": "05366000001207444", "bezeichnung": "Talblick" }, "geometry": { "type": "Point", "coordinates": [ 6.542909655419002, 50.379991085419277 ] } },
{ "type": "Feature", "properties": { "strassenschluessel": "05366000001207445", "bezeichnung": "Ahornweg" }, "geometry": { "type": "Point", "coordinates": [ 6.540167547707109, 50.384279642947398 ] } },
{ "type": "Feature", "properties": { "strassenschluessel": "05366000001207446", "bezeichnung": "Buchenweg" }, "geometry": { "type": "Point", "coordinates": [ 6.541543386070964, 50.384900436916745 ] } },
{ "type": "Feature", "properties": { "strassenschluessel": "05366000001207447", "bezeichnung": "Eichenweg" }, "geometry": { "type": "Point", "coordinates": [ 6.539219703290916, 50.383829334865545 ] } },
{ "type": "Feature", "properties": { "strassenschluessel": "05366000001207448", "bezeichnung": "Ulmenweg" }, "geometry": { "type": "Point", "coordinates": [ 6.542318249903528, 50.384105462699949 ] } },
{ "type": "Feature", "properties": { "strassenschluessel": "05366000001207449", "bezeichnung": "Holunderweg" }, "geometry": { "type": "Point", "coordinates": [ 6.537544056524518, 50.384421372514694 ] } },
{ "type": "Feature", "properties": { "strassenschluessel": "05366000001207450", "bezeichnung": "Rotkehlchenweg" }, "geometry": { "type": "Point", "coordinates": [ 6.562391619245171, 50.388753472371825 ] } },
{ "type": "Feature", "properties": { "strassenschluessel": "05366000001207451", "bezeichnung": "Buchfinkenweg" }, "geometry": { "type": "Point", "coordinates": [ 6.561147423162227, 50.389066228212421 ] } },
{ "type": "Feature", "properties": { "strassenschluessel": "05366000001207452", "bezeichnung": "Dahlemer Binz" }, "geometry": { "type": "Point", "coordinates": [ 6.526357393384748, 50.403143932061518 ] } },
{ "type": "Feature", "properties": { "strassenschluessel": "05366000001207453", "bezeichnung": "Wiesenstraße" }, "geometry": null },
{ "type": "Feature", "properties": { "strassenschluessel": "05366000001207454", "bezeichnung": "Auf Schieferstein" }, "geometry": null },
{ "type": "Feature", "properties": { "strassenschluessel": "05366000001207460", "bezeichnung": "Bahnsiedlung" }, "geometry": { "type": "Point", "coordinates": [ 6.557760219867911, 50.400641046944664 ] } },
{ "type": "Feature", "properties": { "strassenschluessel": "05366000001207461", "bezeichnung": "Obermühle" }, "geometry": { "type": "Point", "coordinates": [ 6.549728685587508, 50.377495853165001 ] } },
{ "type": "Feature", "properties": { "strassenschluessel": "05366000001207462", "bezeichnung": "Untermühle" }, "geometry": { "type": "Point", "coordinates": [ 6.547479413216664, 50.376173165241525 ] } },
{ "type": "Feature", "properties": { "strassenschluessel": "05366000001207463", "bezeichnung": "Luttersbach" }, "geometry": { "type": "Point", "coordinates": [ 6.548628472736586, 50.373335480008485 ] } },
{ "type": "Feature", "properties": { "strassenschluessel": "05366000001207464", "bezeichnung": "Fuchskaul" }, "geometry": { "type": "Point", "coordinates": [ 6.534618105805049, 50.371227808116245 ] } },
{ "type": "Feature", "properties": { "strassenschluessel": "05366000001207465", "bezeichnung": "Eipachhof" }, "geometry": { "type": "Point", "coordinates": [ 6.526144914143835, 50.392034859018352 ] } },
{ "type": "Feature", "properties": { "strassenschluessel": "05366000001207466", "bezeichnung": "Lindenhof" }, "geometry": { "type": "Point", "coordinates": [ 6.529283196927915, 50.393469851454782 ] } },
{ "type": "Feature", "properties": { "strassenschluessel": "05366000001207467", "bezeichnung": "Michelshof" }, "geometry": { "type": "Point", "coordinates": [ 6.538933790577078, 50.398258904604418 ] } },
{ "type": "Feature", "properties": { "strassenschluessel": "05366000001207468", "bezeichnung": "Ellenthaler Hof" }, "geometry": { "type": "Point", "coordinates": [ 6.549379500672016, 50.400036357586352 ] } },
{ "type": "Feature", "properties": { "strassenschluessel": "05366000001207469", "bezeichnung": "Gertrudenhof" }, "geometry": { "type": "Point", "coordinates": [ 6.540378434279124, 50.40655450866727 ] } },
{ "type": "Feature", "properties": { "strassenschluessel": "05366000001207470", "bezeichnung": "Abtei Maria Frieden" }, "geometry": { "type": "Point", "coordinates": [ 6.519986121444487, 50.397522442290281 ] } },
{ "type": "Feature", "properties": { "strassenschluessel": "05366000001207471", "bezeichnung": "Binz" }, "geometry": null },
{ "type": "Feature", "properties": { "strassenschluessel": "05366000001207472", "bezeichnung": "Margaretenhof" }, "geometry": { "type": "Point", "coordinates": [ 6.551329116574562, 50.381820401811815 ] } },
{ "type": "Feature", "properties": { "strassenschluessel": "05366000001207500", "bezeichnung": "Berker Weg" }, "geometry": { "type": "Point", "coordinates": [ 6.437192650883003, 50.372823351347286 ] } },
{ "type": "Feature", "properties": { "strassenschluessel": "05366000001207501", "bezeichnung": "Birtweg" }, "geometry": { "type": "Point", "coordinates": [ 6.433311438026182, 50.371637104511969 ] } },
{ "type": "Feature", "properties": { "strassenschluessel": "05366000001207502", "bezeichnung": "Kyllweg" }, "geometry": { "type": "Point", "coordinates": [ 6.426089931225215, 50.370831388129297 ] } },
{ "type": "Feature", "properties": { "strassenschluessel": "05366000001207503", "bezeichnung": "Marienstraße" }, "geometry": { "type": "Point", "coordinates": [ 6.437559395822435, 50.372485438317575 ] } },
{ "type": "Feature", "properties": { "strassenschluessel": "05366000001207504", "bezeichnung": "Nonnenpütz" }, "geometry": { "type": "Point", "coordinates": [ 6.431821073446331, 50.370047367484084 ] } },
{ "type": "Feature", "properties": { "strassenschluessel": "05366000001207505", "bezeichnung": "Waldweg" }, "geometry": { "type": "Point", "coordinates": [ 6.430788273492442, 50.371904819523976 ] } },
{ "type": "Feature", "properties": { "strassenschluessel": "05366000001207515", "bezeichnung": "Birkenhau" }, "geometry": { "type": "Point", "coordinates": [ 6.421825964239962, 50.382735446137076 ] } },
{ "type": "Feature", "properties": { "strassenschluessel": "05366000001207520", "bezeichnung": "Auf dem Plan" }, "geometry": { "type": "Point", "coordinates": [ 6.477101691907071, 50.360902598596084 ] } },
{ "type": "Feature", "properties": { "strassenschluessel": "05366000001207521", "bezeichnung": "Burgbering" }, "geometry": { "type": "Point", "coordinates": [ 6.476595040909474, 50.363877220533702 ] } },
{ "type": "Feature", "properties": { "strassenschluessel": "05366000001207522", "bezeichnung": "Burgstraße" }, "geometry": { "type": "Point", "coordinates": [ 6.477111810564693, 50.365070790649874 ] } },
{ "type": "Feature", "properties": { "strassenschluessel": "05366000001207524", "bezeichnung": "Gerichtsstraße" }, "geometry": { "type": "Point", "coordinates": [ 6.479798652135939, 50.367711785539669 ] } },
{ "type": "Feature", "properties": { "strassenschluessel": "05366000001207525", "bezeichnung": "Gerlachstraße" }, "geometry": { "type": "Point", "coordinates": [ 6.476077853625453, 50.365810022684641 ] } },
{ "type": "Feature", "properties": { "strassenschluessel": "05366000001207526", "bezeichnung": "Hodebuschheck" }, "geometry": { "type": "Point", "coordinates": [ 6.473432336198634, 50.368171899530751 ] } },
{ "type": "Feature", "properties": { "strassenschluessel": "05366000001207527", "bezeichnung": "Hofgasse" }, "geometry": { "type": "Point", "coordinates": [ 6.481278256403066, 50.362626166684166 ] } },
{ "type": "Feature", "properties": { "strassenschluessel": "05366000001207528", "bezeichnung": "In der Hüll" }, "geometry": { "type": "Point", "coordinates": [ 6.477927288491572, 50.36034876857407 ] } },
{ "type": "Feature", "properties": { "strassenschluessel": "05366000001207529", "bezeichnung": "Insel" }, "geometry": { "type": "Point", "coordinates": [ 6.476896248447333, 50.359219156871724 ] } },
{ "type": "Feature", "properties": { "strassenschluessel": "05366000001207530", "bezeichnung": "Luxemburger Straße" }, "geometry": { "type": "Point", "coordinates": [ 6.478841434342728, 50.368560637952093 ] } },
{ "type": "Feature", "properties": { "strassenschluessel": "05366000001207531", "bezeichnung": "Neuer Weg" }, "geometry": { "type": "Point", "coordinates": [ 6.478549570740922, 50.359958847875447 ] } },
{ "type": "Feature", "properties": { "strassenschluessel": "05366000001207532", "bezeichnung": "Steinertstraße" }, "geometry": { "type": "Point", "coordinates": [ 6.477503352744773, 50.359785893078588 ] } },
{ "type": "Feature", "properties": { "strassenschluessel": "05366000001207533", "bezeichnung": "St.-Vither-Straße" }, "geometry": { "type": "Point", "coordinates": [ 6.473698350789763, 50.360472435024072 ] } },
{ "type": "Feature", "properties": { "strassenschluessel": "05366000001207534", "bezeichnung": "Virneburgweg" }, "geometry": { "type": "Point", "coordinates": [ 6.478292533515598, 50.367408224810248 ] } },
{ "type": "Feature", "properties": { "strassenschluessel": "05366000001207535", "bezeichnung": "Wilhelm-Tell-Gasse" }, "geometry": { "type": "Point", "coordinates": [ 6.477728867374389, 50.363570549005942 ] } },
{ "type": "Feature", "properties": { "strassenschluessel": "05366000001207536", "bezeichnung": "Auf Schoppfeld" }, "geometry": { "type": "Point", "coordinates": [ 6.47843425569388, 50.359359376886268 ] } },
{ "type": "Feature", "properties": { "strassenschluessel": "05366000001207537", "bezeichnung": "Johanniterstraße" }, "geometry": { "type": "Point", "coordinates": [ 6.475046817172298, 50.36914540370271 ] } },
{ "type": "Feature", "properties": { "strassenschluessel": "05366000001207538", "bezeichnung": "Am Höchsten" }, "geometry": { "type": "Point", "coordinates": [ 6.475671257246503, 50.369721285782312 ] } },
{ "type": "Feature", "properties": { "strassenschluessel": "05366000001207539", "bezeichnung": "Malmedyer Straße" }, "geometry": { "type": "Point", "coordinates": [ 6.477175810605383, 50.368081113200738 ] } },
{ "type": "Feature", "properties": { "strassenschluessel": "05366000001207540", "bezeichnung": "Seeuferstraße" }, "geometry": { "type": "Point", "coordinates": [ 6.466587264683725, 50.358208220949635 ] } },
{ "type": "Feature", "properties": { "strassenschluessel": "05366000001207541", "bezeichnung": "Zum Kleebusch" }, "geometry": { "type": "Point", "coordinates": [ 6.475451332497677, 50.361112565400376 ] } },
{ "type": "Feature", "properties": { "strassenschluessel": "05366000001207542", "bezeichnung": "Binzertweg" }, "geometry": { "type": "Point", "coordinates": [ 6.481317871382902, 50.359855426976942 ] } },
{ "type": "Feature", "properties": { "strassenschluessel": "05366000001207543", "bezeichnung": "Mühlenweg" }, "geometry": { "type": "Point", "coordinates": [ 6.477869988461639, 50.361188873673235 ] } },
{ "type": "Feature", "properties": { "strassenschluessel": "05366000001207544", "bezeichnung": "Trift" }, "geometry": { "type": "Point", "coordinates": [ 6.477571153419738, 50.36448724477124 ] } },
{ "type": "Feature", "properties": { "strassenschluessel": "05366000001207545", "bezeichnung": "Ferienpark Kronenburger See" }, "geometry": { "type": "Point", "coordinates": [ 6.467167439576434, 50.362619866836866 ] } },
{ "type": "Feature", "properties": { "strassenschluessel": "05366000001207554", "bezeichnung": "Schullandheim" }, "geometry": { "type": "Point", "coordinates": [ 6.468743940937793, 50.363661716434294 ] } },
{ "type": "Feature", "properties": { "strassenschluessel": "05366000001207555", "bezeichnung": "Am Kalkofen" }, "geometry": { "type": "Point", "coordinates": [ 6.496246860361505, 50.361572403689713 ] } },
{ "type": "Feature", "properties": { "strassenschluessel": "05366000001207557", "bezeichnung": "Hubertushof" }, "geometry": { "type": "Point", "coordinates": [ 6.488379713280335, 50.357974509002617 ] } },
{ "type": "Feature", "properties": { "strassenschluessel": "05366000001207558", "bezeichnung": "Haus Karlsruhe" }, "geometry": { "type": "Point", "coordinates": [ 6.493557936625273, 50.360728182267465 ] } },
{ "type": "Feature", "properties": { "strassenschluessel": "05366000001207560", "bezeichnung": "Alteburger Straße" }, "geometry": { "type": "Point", "coordinates": [ 6.565876398043391, 50.414660019953708 ] } },
{ "type": "Feature", "properties": { "strassenschluessel": "05366000001207561", "bezeichnung": "Bahnhofstraße" }, "geometry": { "type": "Point", "coordinates": [ 6.552131890635251, 50.414533480115395 ] } },
{ "type": "Feature", "properties": { "strassenschluessel": "05366000001207562", "bezeichnung": "Birkenweg" }, "geometry": { "type": "Point", "coordinates": [ 6.562900891916815, 50.415946224090071 ] } },
{ "type": "Feature", "properties": { "strassenschluessel": "05366000001207563", "bezeichnung": "Blankenheimer Straße" }, "geometry": { "type": "Point", "coordinates": [ 6.563017826059554, 50.411364569096342 ] } },
{ "type": "Feature", "properties": { "strassenschluessel": "05366000001207564", "bezeichnung": "Brunnenstraße" }, "geometry": { "type": "Point", "coordinates": [ 6.559067149836974, 50.417982138896129 ] } },
{ "type": "Feature", "properties": { "strassenschluessel": "05366000001207565", "bezeichnung": "Dahlemer Straße" }, "geometry": { "type": "Point", "coordinates": [ 6.553134552292397, 50.411681660529226 ] } },
{ "type": "Feature", "properties": { "strassenschluessel": "05366000001207566", "bezeichnung": "Gartenstraße" }, "geometry": { "type": "Point", "coordinates": [ 6.559081072037384, 50.414221612896512 ] } },
{ "type": "Feature", "properties": { "strassenschluessel": "05366000001207567", "bezeichnung": "Hauptstraße" }, "geometry": { "type": "Point", "coordinates": [ 6.562024210735196, 50.412179891720122 ] } },
{ "type": "Feature", "properties": { "strassenschluessel": "05366000001207568", "bezeichnung": "Hochstraße" }, "geometry": { "type": "Point", "coordinates": [ 6.558287499308393, 50.412292825455708 ] } },
{ "type": "Feature", "properties": { "strassenschluessel": "05366000001207569", "bezeichnung": "Hubertusstraße" }, "geometry": { "type": "Point", "coordinates": [ 6.556738208569763, 50.417174613041979 ] } },
{ "type": "Feature", "properties": { "strassenschluessel": "05366000001207570", "bezeichnung": "Im Driesch" }, "geometry": { "type": "Point", "coordinates": [ 6.557031217871615, 50.415494857165818 ] } },
{ "type": "Feature", "properties": { "strassenschluessel": "05366000001207571", "bezeichnung": "Im Wiesental" }, "geometry": { "type": "Point", "coordinates": [ 6.558015226482488, 50.419609318755164 ] } },
{ "type": "Feature", "properties": { "strassenschluessel": "05366000001207572", "bezeichnung": "Industriestraße" }, "geometry": { "type": "Point", "coordinates": [ 6.550648955926166, 50.409061125787943 ] } },
{ "type": "Feature", "properties": { "strassenschluessel": "05366000001207573", "bezeichnung": "Kastanienstraße" }, "geometry": null },
{ "type": "Feature", "properties": { "strassenschluessel": "05366000001207574", "bezeichnung": "Kirchweg" }, "geometry": { "type": "Point", "coordinates": [ 6.557802067377461, 50.417530898397068 ] } },
{ "type": "Feature", "properties": { "strassenschluessel": "05366000001207575", "bezeichnung": "Kommstraße" }, "geometry": { "type": "Point", "coordinates": [ 6.563992543179764, 50.415202946354988 ] } },
{ "type": "Feature", "properties": { "strassenschluessel": "05366000001207576", "bezeichnung": "Krähenberg" }, "geometry": { "type": "Point", "coordinates": [ 6.552657249981091, 50.421323044839561 ] } },
{ "type": "Feature", "properties": { "strassenschluessel": "05366000001207577", "bezeichnung": "Lindenstraße" }, "geometry": { "type": "Point", "coordinates": [ 6.557816973286845, 50.413706375321539 ] } },
{ "type": "Feature", "properties": { "strassenschluessel": "05366000001207578", "bezeichnung": "Marktstraße" }, "geometry": { "type": "Point", "coordinates": [ 6.559484569693274, 50.417036852824573 ] } },
{ "type": "Feature", "properties": { "strassenschluessel": "05366000001207579", "bezeichnung": "Mittelstraße" }, "geometry": { "type": "Point", "coordinates": [ 6.559782264215473, 50.415378785800129 ] } },
{ "type": "Feature", "properties": { "strassenschluessel": "05366000001207580", "bezeichnung": "Mittelweg" }, "geometry": null },
{ "type": "Feature", "properties": { "strassenschluessel": "05366000001207581", "bezeichnung": "Mühlenberg" }, "geometry": { "type": "Point", "coordinates": [ 6.56029089357299, 50.417076098471689 ] } },
{ "type": "Feature", "properties": { "strassenschluessel": "05366000001207582", "bezeichnung": "Neustraße" }, "geometry": { "type": "Point", "coordinates": [ 6.563764500543055, 50.416277524346086 ] } },
{ "type": "Feature", "properties": { "strassenschluessel": "05366000001207583", "bezeichnung": "Nordstraße" }, "geometry": null },
{ "type": "Feature", "properties": { "strassenschluessel": "05366000001207584", "bezeichnung": "Rathausstraße" }, "geometry": { "type": "Point", "coordinates": [ 6.557788306358881, 50.420539387402805 ] } },
{ "type": "Feature", "properties": { "strassenschluessel": "05366000001207585", "bezeichnung": "Reifferscheider Straße" }, "geometry": { "type": "Point", "coordinates": [ 6.55507786610141, 50.421426548387508 ] } },
{ "type": "Feature", "properties": { "strassenschluessel": "05366000001207586", "bezeichnung": "Sonnenweg" }, "geometry": { "type": "Point", "coordinates": [ 6.55158819887526, 50.421190433584265 ] } },
{ "type": "Feature", "properties": { "strassenschluessel": "05366000001207587", "bezeichnung": "Sternstraße" }, "geometry": { "type": "Point", "coordinates": [ 6.560382514563887, 50.415446951534491 ] } },
{ "type": "Feature", "properties": { "strassenschluessel": "05366000001207588", "bezeichnung": "Talweg" }, "geometry": { "type": "Point", "coordinates": [ 6.554496142434334, 50.418248431462573 ] } },
{ "type": "Feature", "properties": { "strassenschluessel": "05366000001207589", "bezeichnung": "Thomasstraße" }, "geometry": { "type": "Point", "coordinates": [ 6.559009405601277, 50.416200829376002 ] } },
{ "type": "Feature", "properties": { "strassenschluessel": "05366000001207590", "bezeichnung": "Urftstraße" }, "geometry": { "type": "Point", "coordinates": [ 6.551379329615062, 50.418489469580457 ] } },
{ "type": "Feature", "properties": { "strassenschluessel": "05366000001207591", "bezeichnung": "Weiherstraße" }, "geometry": { "type": "Point", "coordinates": [ 6.551315530233179, 50.417606783687994 ] } },
{ "type": "Feature", "properties": { "strassenschluessel": "05366000001207592", "bezeichnung": "In der Juecht" }, "geometry": { "type": "Point", "coordinates": [ 6.554920519838054, 50.411610282689765 ] } },
{ "type": "Feature", "properties": { "strassenschluessel": "05366000001207593", "bezeichnung": "Martinskreuz" }, "geometry": { "type": "Point", "coordinates": [ 6.558500056933392, 50.411924052660581 ] } },
{ "type": "Feature", "properties": { "strassenschluessel": "05366000001207594", "bezeichnung": "Lindenweg" }, "geometry": { "type": "Point", "coordinates": [ 6.557413849976601, 50.413286407412009 ] } },
{ "type": "Feature", "properties": { "strassenschluessel": "05366000001207595", "bezeichnung": "Höhenbergweg" }, "geometry": { "type": "Point", "coordinates": [ 6.549268413142477, 50.410699539089983 ] } },
{ "type": "Feature", "properties": { "strassenschluessel": "05366000001207596", "bezeichnung": "Auf Katzelter" }, "geometry": { "type": "Point", "coordinates": [ 6.562589885390704, 50.414297041983588 ] } },
{ "type": "Feature", "properties": { "strassenschluessel": "05366000001207620", "bezeichnung": "Hof Waldeck" }, "geometry": { "type": "Point", "coordinates": [ 6.543997456306514, 50.420858008105313 ] } },
{ "type": "Feature", "properties": { "strassenschluessel": "05366000001207621", "bezeichnung": "Sonnenhof" }, "geometry": { "type": "Point", "coordinates": [ 6.547254214580239, 50.421542757056677 ] } },
{ "type": "Feature", "properties": { "strassenschluessel": "05366000001207622", "bezeichnung": "Recherhof" }, "geometry": null },
{ "type": "Feature", "properties": { "strassenschluessel": "05366000001207623", "bezeichnung": "Haus Kuchental" }, "geometry": { "type": "Point", "coordinates": [ 6.561459573272417, 50.419532985308095 ] } },
{ "type": "Feature", "properties": { "strassenschluessel": "05366000001207624", "bezeichnung": "Hof Steinweg" }, "geometry": { "type": "Point", "coordinates": [ 6.571966979068959, 50.419749977185937 ] } },
{ "type": "Feature", "properties": { "strassenschluessel": "05366000001207625", "bezeichnung": "Hof Eichenpesch" }, "geometry": { "type": "Point", "coordinates": [ 6.575207615149743, 50.417867355833359 ] } },
{ "type": "Feature", "properties": { "strassenschluessel": "05366000001207626", "bezeichnung": "Freuenhof" }, "geometry": { "type": "Point", "coordinates": [ 6.587918546125378, 50.421887567134924 ] } },
{ "type": "Feature", "properties": { "strassenschluessel": "05366000001207627", "bezeichnung": "Haus in den Aachen" }, "geometry": { "type": "Point", "coordinates": [ 6.569067678851527, 50.416389455290322 ] } },
{ "type": "Feature", "properties": { "strassenschluessel": "05366000001299995", "bezeichnung": "Schmidtheim" }, "geometry": null },
{ "type": "Feature", "properties": { "strassenschluessel": "05366000001299996", "bezeichnung": "Kronenburg" }, "geometry": null },
{ "type": "Feature", "properties": { "strassenschluessel": "05366000001299997", "bezeichnung": "Berk" }, "geometry": null },
{ "type": "Feature", "properties": { "strassenschluessel": "05366000001299998", "bezeichnung": "Baasem" }, "geometry": null },
{ "type": "Feature", "properties": { "strassenschluessel": "05366000001299999", "bezeichnung": "Dahlem" }, "geometry": null },
{ "type": "Feature", "properties": { "strassenschluessel": "053660000012=2631", "bezeichnung": "Kalscheuren - Ehrang" }, "geometry": null },
{ "type": "Feature", "properties": { "strassenschluessel": "053660000012=3003", "bezeichnung": "Jünkerath - Losheimergraben" }, "geometry": null }
]
}
