{
"type": "FeatureCollection",
"features": [
{ "type": "Feature", "properties": { "strassenschluessel": "05766000002402301", "bezeichnung": "Am Fassenberg" }, "geometry": { "type": "Point", "coordinates": [ 8.999192148584473, 52.0488924585405 ] } },
{ "type": "Feature", "properties": { "strassenschluessel": "05766000002402302", "bezeichnung": "Am Friedhof" }, "geometry": { "type": "Point", "coordinates": [ 8.997107275386533, 52.047695523310992 ] } },
{ "type": "Feature", "properties": { "strassenschluessel": "05766000002402303", "bezeichnung": "Am Krügerberg" }, "geometry": { "type": "Point", "coordinates": [ 8.996854079425463, 52.048850458866831 ] } },
{ "type": "Feature", "properties": { "strassenschluessel": "05766000002402304", "bezeichnung": "Am Langen Feld" }, "geometry": { "type": "Point", "coordinates": [ 9.006698164849453, 52.042019959250034 ] } },
{ "type": "Feature", "properties": { "strassenschluessel": "05766000002402305", "bezeichnung": "Amselweg" }, "geometry": { "type": "Point", "coordinates": [ 9.004934804903675, 52.042384887764221 ] } },
{ "type": "Feature", "properties": { "strassenschluessel": "05766000002402306", "bezeichnung": "Am Spreenland" }, "geometry": { "type": "Point", "coordinates": [ 9.004200054226677, 52.042169872047928 ] } },
{ "type": "Feature", "properties": { "strassenschluessel": "05766000002402307", "bezeichnung": "An der Niedermühle" }, "geometry": { "type": "Point", "coordinates": [ 9.004881393295973, 52.039537707093899 ] } },
{ "type": "Feature", "properties": { "strassenschluessel": "05766000002402308", "bezeichnung": "Auf dem Brinke" }, "geometry": { "type": "Point", "coordinates": [ 8.996714318619935, 52.04829535787605 ] } },
{ "type": "Feature", "properties": { "strassenschluessel": "05766000002402309", "bezeichnung": "Auf dem Papierkamp" }, "geometry": { "type": "Point", "coordinates": [ 9.006360332024032, 52.040100448746927 ] } },
{ "type": "Feature", "properties": { "strassenschluessel": "05766000002402310", "bezeichnung": "Auf der Insel" }, "geometry": { "type": "Point", "coordinates": [ 9.021369815347208, 52.019742644870483 ] } },
{ "type": "Feature", "properties": { "strassenschluessel": "05766000002402311", "bezeichnung": "Auf der Wiese" }, "geometry": { "type": "Point", "coordinates": [ 8.998950794417437, 52.047670829208364 ] } },
{ "type": "Feature", "properties": { "strassenschluessel": "05766000002402312", "bezeichnung": "Am Bahnhof" }, "geometry": { "type": "Point", "coordinates": [ 8.997138706316928, 52.033662263723663 ] } },
{ "type": "Feature", "properties": { "strassenschluessel": "05766000002402313", "bezeichnung": "Bredenweg" }, "geometry": { "type": "Point", "coordinates": [ 9.000832214744289, 52.02277328121945 ] } },
{ "type": "Feature", "properties": { "strassenschluessel": "05766000002402314", "bezeichnung": "Bromernkamp" }, "geometry": { "type": "Point", "coordinates": [ 9.007215873390297, 52.033389473218413 ] } },
{ "type": "Feature", "properties": { "strassenschluessel": "05766000002402315", "bezeichnung": "Brüderstraße" }, "geometry": { "type": "Point", "coordinates": [ 9.018230670642675, 52.022030634973198 ] } },
{ "type": "Feature", "properties": { "strassenschluessel": "05766000002402316", "bezeichnung": "Dammstraße" }, "geometry": { "type": "Point", "coordinates": [ 9.004031067869288, 52.032265986463749 ] } },
{ "type": "Feature", "properties": { "strassenschluessel": "05766000002402317", "bezeichnung": "Danziger Straße" }, "geometry": { "type": "Point", "coordinates": [ 9.01260069528502, 52.02482539070914 ] } },
{ "type": "Feature", "properties": { "strassenschluessel": "05766000002402318", "bezeichnung": "Dockenweg" }, "geometry": { "type": "Point", "coordinates": [ 9.003435675417327, 52.04336796026255 ] } },
{ "type": "Feature", "properties": { "strassenschluessel": "05766000002402319", "bezeichnung": "Sporkhagen" }, "geometry": { "type": "Point", "coordinates": [ 9.001916359487028, 52.019483713485961 ] } },
{ "type": "Feature", "properties": { "strassenschluessel": "05766000002402320", "bezeichnung": "Ellernweg" }, "geometry": { "type": "Point", "coordinates": [ 8.999233415371297, 52.022554577444623 ] } },
{ "type": "Feature", "properties": { "strassenschluessel": "05766000002402321", "bezeichnung": "Gartenstraße" }, "geometry": { "type": "Point", "coordinates": [ 8.998379934134171, 52.041713620908205 ] } },
{ "type": "Feature", "properties": { "strassenschluessel": "05766000002402322", "bezeichnung": "Grenzstraße" }, "geometry": { "type": "Point", "coordinates": [ 9.006889990932562, 52.040183297056664 ] } },
{ "type": "Feature", "properties": { "strassenschluessel": "05766000002402323", "bezeichnung": "Hamelner Straße" }, "geometry": { "type": "Point", "coordinates": [ 9.005174444174518, 52.032892356380671 ] } },
{ "type": "Feature", "properties": { "strassenschluessel": "05766000002402324", "bezeichnung": "Hauptstraße" }, "geometry": { "type": "Point", "coordinates": [ 9.005886710403036, 52.035957997022244 ] } },
{ "type": "Feature", "properties": { "strassenschluessel": "05766000002402325", "bezeichnung": "Homeien" }, "geometry": { "type": "Point", "coordinates": [ 8.974401716978937, 52.059659185564179 ] } },
{ "type": "Feature", "properties": { "strassenschluessel": "05766000002402326", "bezeichnung": "Hornsiek" }, "geometry": { "type": "Point", "coordinates": [ 8.999264767271258, 52.045445353272257 ] } },
{ "type": "Feature", "properties": { "strassenschluessel": "05766000002402327", "bezeichnung": "Im Lala" }, "geometry": { "type": "Point", "coordinates": [ 8.998435747820245, 52.025807799605467 ] } },
{ "type": "Feature", "properties": { "strassenschluessel": "05766000002402328", "bezeichnung": "Inselweg" }, "geometry": { "type": "Point", "coordinates": [ 9.019787202530342, 52.020950537710306 ] } },
{ "type": "Feature", "properties": { "strassenschluessel": "05766000002402329", "bezeichnung": "Kampstraße" }, "geometry": { "type": "Point", "coordinates": [ 9.005758145747091, 52.04798980669154 ] } },
{ "type": "Feature", "properties": { "strassenschluessel": "05766000002402330", "bezeichnung": "Kehmeiersweg" }, "geometry": { "type": "Point", "coordinates": [ 8.995393251486499, 52.02664447772348 ] } },
{ "type": "Feature", "properties": { "strassenschluessel": "05766000002402331", "bezeichnung": "Königstraße" }, "geometry": { "type": "Point", "coordinates": [ 9.014289147980781, 52.023913743404222 ] } },
{ "type": "Feature", "properties": { "strassenschluessel": "05766000002402332", "bezeichnung": "Krubberg" }, "geometry": { "type": "Point", "coordinates": [ 9.012807331282881, 52.064401630354233 ] } },
{ "type": "Feature", "properties": { "strassenschluessel": "05766000002402333", "bezeichnung": "Krumme Straße" }, "geometry": { "type": "Point", "coordinates": [ 9.006432819905655, 52.040799720775134 ] } },
{ "type": "Feature", "properties": { "strassenschluessel": "05766000002402334", "bezeichnung": "Lemgoer Straße" }, "geometry": { "type": "Point", "coordinates": [ 8.988810518465771, 52.035688056516989 ] } },
{ "type": "Feature", "properties": { "strassenschluessel": "05766000002402335", "bezeichnung": "Markfeld" }, "geometry": { "type": "Point", "coordinates": [ 8.975804334010748, 52.048148049739623 ] } },
{ "type": "Feature", "properties": { "strassenschluessel": "05766000002402336", "bezeichnung": "Mittelstraße" }, "geometry": { "type": "Point", "coordinates": [ 9.007123484982531, 52.02616140528481 ] } },
{ "type": "Feature", "properties": { "strassenschluessel": "05766000002402337", "bezeichnung": "Mühlenstraße" }, "geometry": { "type": "Point", "coordinates": [ 9.007670132835761, 52.034066864396365 ] } },
{ "type": "Feature", "properties": { "strassenschluessel": "05766000002402338", "bezeichnung": "Im Grund" }, "geometry": { "type": "Point", "coordinates": [ 8.983947104302219, 52.032654079473318 ] } },
{ "type": "Feature", "properties": { "strassenschluessel": "05766000002402339", "bezeichnung": "Neue Straße" }, "geometry": { "type": "Point", "coordinates": [ 9.02182881409292, 52.023055393224446 ] } },
{ "type": "Feature", "properties": { "strassenschluessel": "05766000002402340", "bezeichnung": "Neustadt" }, "geometry": { "type": "Point", "coordinates": [ 8.999579223763977, 52.024104892983118 ] } },
{ "type": "Feature", "properties": { "strassenschluessel": "05766000002402341", "bezeichnung": "Noltenhöferweg" }, "geometry": { "type": "Point", "coordinates": [ 8.992142705618868, 52.027578893631009 ] } },
{ "type": "Feature", "properties": { "strassenschluessel": "05766000002402342", "bezeichnung": "Obere Straße" }, "geometry": { "type": "Point", "coordinates": [ 9.007988801495976, 52.024592020739455 ] } },
{ "type": "Feature", "properties": { "strassenschluessel": "05766000002402343", "bezeichnung": "Papenstraße" }, "geometry": { "type": "Point", "coordinates": [ 8.998772420322329, 52.049515999625278 ] } },
{ "type": "Feature", "properties": { "strassenschluessel": "05766000002402344", "bezeichnung": "Rawaule" }, "geometry": { "type": "Point", "coordinates": [ 8.996601678087902, 52.050315686977981 ] } },
{ "type": "Feature", "properties": { "strassenschluessel": "05766000002402345", "bezeichnung": "Riedeweg" }, "geometry": { "type": "Point", "coordinates": [ 8.996416293822293, 52.049852183554925 ] } },
{ "type": "Feature", "properties": { "strassenschluessel": "05766000002402346", "bezeichnung": "Gröchtenweg" }, "geometry": { "type": "Point", "coordinates": [ 8.987195861954094, 52.035784004890552 ] } },
{ "type": "Feature", "properties": { "strassenschluessel": "05766000002402347", "bezeichnung": "Schulstraße" }, "geometry": { "type": "Point", "coordinates": [ 9.010228639605996, 52.026370260441993 ] } },
{ "type": "Feature", "properties": { "strassenschluessel": "05766000002402348", "bezeichnung": "Schwelentruper Weg" }, "geometry": { "type": "Point", "coordinates": [ 9.003051409873226, 52.040469000860384 ] } },
{ "type": "Feature", "properties": { "strassenschluessel": "05766000002402349", "bezeichnung": "Steinkamp" }, "geometry": { "type": "Point", "coordinates": [ 8.995555530846751, 52.048262395252692 ] } },
{ "type": "Feature", "properties": { "strassenschluessel": "05766000002402350", "bezeichnung": "Stettiner Straße" }, "geometry": { "type": "Point", "coordinates": [ 9.012088395114649, 52.026380819473324 ] } },
{ "type": "Feature", "properties": { "strassenschluessel": "05766000002402351", "bezeichnung": "Untere Straße" }, "geometry": { "type": "Point", "coordinates": [ 9.00648017392686, 52.02304471275982 ] } },
{ "type": "Feature", "properties": { "strassenschluessel": "05766000002402352", "bezeichnung": "Waldstraße" }, "geometry": { "type": "Point", "coordinates": [ 8.998738997794945, 52.044305268047488 ] } },
{ "type": "Feature", "properties": { "strassenschluessel": "05766000002402353", "bezeichnung": "Wasserweg" }, "geometry": { "type": "Point", "coordinates": [ 8.994999631137865, 52.050191277012097 ] } },
{ "type": "Feature", "properties": { "strassenschluessel": "05766000002402354", "bezeichnung": "Steinberg" }, "geometry": { "type": "Point", "coordinates": [ 8.992729743741034, 52.049442829744116 ] } },
{ "type": "Feature", "properties": { "strassenschluessel": "05766000002402355", "bezeichnung": "Friedrichsfeld" }, "geometry": { "type": "Point", "coordinates": [ 8.980641638812783, 52.027687164647574 ] } },
{ "type": "Feature", "properties": { "strassenschluessel": "05766000002402356", "bezeichnung": "Neuenkamp" }, "geometry": { "type": "Point", "coordinates": [ 8.982457746936971, 52.033577197426673 ] } },
{ "type": "Feature", "properties": { "strassenschluessel": "05766000002402357", "bezeichnung": "In der Dickte" }, "geometry": { "type": "Point", "coordinates": [ 8.983669557577915, 52.034369299634555 ] } },
{ "type": "Feature", "properties": { "strassenschluessel": "05766000002402358", "bezeichnung": "Steiler Weg" }, "geometry": { "type": "Point", "coordinates": [ 8.981638644903816, 52.035737973825483 ] } },
{ "type": "Feature", "properties": { "strassenschluessel": "05766000002402359", "bezeichnung": "Kassenstraße" }, "geometry": null },
{ "type": "Feature", "properties": { "strassenschluessel": "05766000002402360", "bezeichnung": "Am Knapp" }, "geometry": { "type": "Point", "coordinates": [ 8.997549218414427, 52.047595518721081 ] } },
{ "type": "Feature", "properties": { "strassenschluessel": "05766000002402361", "bezeichnung": "Am Fetten Kampe" }, "geometry": { "type": "Point", "coordinates": [ 8.997433688145293, 52.047290500464001 ] } },
{ "type": "Feature", "properties": { "strassenschluessel": "05766000002402362", "bezeichnung": "Pohlkamp" }, "geometry": { "type": "Point", "coordinates": [ 9.000083002819212, 52.025110240482931 ] } },
{ "type": "Feature", "properties": { "strassenschluessel": "05766000002402363", "bezeichnung": "Bärenort" }, "geometry": { "type": "Point", "coordinates": [ 8.99081106314105, 52.032399850476516 ] } },
{ "type": "Feature", "properties": { "strassenschluessel": "05766000002402364", "bezeichnung": "Zum Netling" }, "geometry": { "type": "Point", "coordinates": [ 8.987703145714114, 52.036287117940226 ] } },
{ "type": "Feature", "properties": { "strassenschluessel": "05766000002402365", "bezeichnung": "Homeiener Straße" }, "geometry": { "type": "Point", "coordinates": [ 8.993493482891035, 52.053024589196234 ] } },
{ "type": "Feature", "properties": { "strassenschluessel": "05766000002402366", "bezeichnung": "Rosenhof" }, "geometry": { "type": "Point", "coordinates": [ 8.99643962361181, 52.057590631305878 ] } },
{ "type": "Feature", "properties": { "strassenschluessel": "05766000002402367", "bezeichnung": "Sollenhof" }, "geometry": { "type": "Point", "coordinates": [ 9.000233021255935, 52.058991740970221 ] } },
{ "type": "Feature", "properties": { "strassenschluessel": "05766000002402368", "bezeichnung": "Waldmühlenweg" }, "geometry": { "type": "Point", "coordinates": [ 8.998739722294649, 52.050687430239023 ] } },
{ "type": "Feature", "properties": { "strassenschluessel": "05766000002402369", "bezeichnung": "Drosselweg" }, "geometry": { "type": "Point", "coordinates": [ 9.003739791436589, 52.042415752530381 ] } },
{ "type": "Feature", "properties": { "strassenschluessel": "05766000002402370", "bezeichnung": "Fasanenweg" }, "geometry": { "type": "Point", "coordinates": [ 9.005841361136017, 52.043479289694261 ] } },
{ "type": "Feature", "properties": { "strassenschluessel": "05766000002402371", "bezeichnung": "Finkenweg" }, "geometry": { "type": "Point", "coordinates": [ 9.005440597666258, 52.042642553490637 ] } },
{ "type": "Feature", "properties": { "strassenschluessel": "05766000002402372", "bezeichnung": "Kiebitzweg" }, "geometry": { "type": "Point", "coordinates": [ 9.002517519205314, 52.0425904690468 ] } },
{ "type": "Feature", "properties": { "strassenschluessel": "05766000002402373", "bezeichnung": "Kuckucksweg" }, "geometry": { "type": "Point", "coordinates": [ 9.005837526228088, 52.042022819175799 ] } },
{ "type": "Feature", "properties": { "strassenschluessel": "05766000002402374", "bezeichnung": "Lerchenweg" }, "geometry": { "type": "Point", "coordinates": [ 9.006972390901975, 52.043906799038503 ] } },
{ "type": "Feature", "properties": { "strassenschluessel": "05766000002402375", "bezeichnung": "Meisenweg" }, "geometry": { "type": "Point", "coordinates": [ 9.004930792219364, 52.04142917385871 ] } },
{ "type": "Feature", "properties": { "strassenschluessel": "05766000002402376", "bezeichnung": "Sperlingsgasse" }, "geometry": { "type": "Point", "coordinates": [ 9.006558166552793, 52.043020374828998 ] } },
{ "type": "Feature", "properties": { "strassenschluessel": "05766000002402377", "bezeichnung": "Poststraße" }, "geometry": { "type": "Point", "coordinates": [ 9.005805882390741, 52.034445416211938 ] } },
{ "type": "Feature", "properties": { "strassenschluessel": "05766000002402378", "bezeichnung": "Plögerweg" }, "geometry": { "type": "Point", "coordinates": [ 9.002131367245534, 52.040022515177746 ] } },
{ "type": "Feature", "properties": { "strassenschluessel": "05766000002402379", "bezeichnung": "Eichenweg" }, "geometry": { "type": "Point", "coordinates": [ 9.020076532737995, 52.023925837335767 ] } },
{ "type": "Feature", "properties": { "strassenschluessel": "05766000002402380", "bezeichnung": "Kesselbreite" }, "geometry": { "type": "Point", "coordinates": [ 8.997665997454483, 52.046632732040969 ] } },
{ "type": "Feature", "properties": { "strassenschluessel": "05766000002402381", "bezeichnung": "Am Rathaus" }, "geometry": { "type": "Point", "coordinates": [ 9.006492510767767, 52.034568654686652 ] } },
{ "type": "Feature", "properties": { "strassenschluessel": "05766000002402382", "bezeichnung": "Lenzberg-Straße" }, "geometry": { "type": "Point", "coordinates": [ 9.008955986446402, 52.035272642896516 ] } },
{ "type": "Feature", "properties": { "strassenschluessel": "05766000002402383", "bezeichnung": "Am Thonwerk" }, "geometry": { "type": "Point", "coordinates": [ 8.998283562890705, 52.034019359817179 ] } },
{ "type": "Feature", "properties": { "strassenschluessel": "05766000002402384", "bezeichnung": "Sporker Berg" }, "geometry": { "type": "Point", "coordinates": [ 9.009039804418455, 52.025414667933234 ] } },
{ "type": "Feature", "properties": { "strassenschluessel": "05766000002402386", "bezeichnung": "Rümeland" }, "geometry": { "type": "Point", "coordinates": [ 8.99961230802278, 52.042590189609975 ] } },
{ "type": "Feature", "properties": { "strassenschluessel": "05766000002402387", "bezeichnung": "Birkenweg" }, "geometry": { "type": "Point", "coordinates": [ 9.018038886078054, 52.023419977994976 ] } },
{ "type": "Feature", "properties": { "strassenschluessel": "05766000002402388", "bezeichnung": "Buchenweg" }, "geometry": { "type": "Point", "coordinates": [ 9.017896222841584, 52.022770081876914 ] } },
{ "type": "Feature", "properties": { "strassenschluessel": "05766000002402401", "bezeichnung": "Bahnhofstraße" }, "geometry": { "type": "Point", "coordinates": [ 9.059820466611185, 52.00522835803806 ] } },
{ "type": "Feature", "properties": { "strassenschluessel": "05766000002402402", "bezeichnung": "Barntruper Straße" }, "geometry": { "type": "Point", "coordinates": [ 9.068434410920126, 52.003556620356655 ] } },
{ "type": "Feature", "properties": { "strassenschluessel": "05766000002402403", "bezeichnung": "Brede-Ring" }, "geometry": { "type": "Point", "coordinates": [ 9.064660100503028, 52.003143235512553 ] } },
{ "type": "Feature", "properties": { "strassenschluessel": "05766000002402404", "bezeichnung": "Katzhagen" }, "geometry": { "type": "Point", "coordinates": [ 9.064295867909065, 52.005573006213133 ] } },
{ "type": "Feature", "properties": { "strassenschluessel": "05766000002402405", "bezeichnung": "Sibbentruper Straße" }, "geometry": { "type": "Point", "coordinates": [ 9.06937747789771, 52.006156369124852 ] } },
{ "type": "Feature", "properties": { "strassenschluessel": "05766000002402406", "bezeichnung": "Unter Gehren" }, "geometry": { "type": "Point", "coordinates": [ 9.052580268980224, 52.007869531870909 ] } },
{ "type": "Feature", "properties": { "strassenschluessel": "05766000002402407", "bezeichnung": "Sibbentrup" }, "geometry": { "type": "Point", "coordinates": [ 9.088118010542878, 52.013789148767806 ] } },
{ "type": "Feature", "properties": { "strassenschluessel": "05766000002402408", "bezeichnung": "Teut" }, "geometry": { "type": "Point", "coordinates": [ 9.085892829308197, 52.023749912767087 ] } },
{ "type": "Feature", "properties": { "strassenschluessel": "05766000002402409", "bezeichnung": "Graben" }, "geometry": { "type": "Point", "coordinates": [ 9.066376121405918, 52.006634412010911 ] } },
{ "type": "Feature", "properties": { "strassenschluessel": "05766000002402410", "bezeichnung": "Im Morgen" }, "geometry": { "type": "Point", "coordinates": [ 9.074368320094143, 52.013240203218672 ] } },
{ "type": "Feature", "properties": { "strassenschluessel": "05766000002402411", "bezeichnung": "Laubhüttenweg" }, "geometry": { "type": "Point", "coordinates": [ 9.090665107749158, 52.014018597975031 ] } },
{ "type": "Feature", "properties": { "strassenschluessel": "05766000002402412", "bezeichnung": "Im Steinkersfeld" }, "geometry": { "type": "Point", "coordinates": [ 9.067602543937932, 52.003405908778184 ] } },
{ "type": "Feature", "properties": { "strassenschluessel": "05766000002402413", "bezeichnung": "Bergstraße" }, "geometry": { "type": "Point", "coordinates": [ 9.06353486599588, 52.002304281315389 ] } },
{ "type": "Feature", "properties": { "strassenschluessel": "05766000002402414", "bezeichnung": "Ligusterweg" }, "geometry": { "type": "Point", "coordinates": [ 9.056119973487085, 52.007613329137214 ] } },
{ "type": "Feature", "properties": { "strassenschluessel": "05766000002402415", "bezeichnung": "Waldenburger Weg" }, "geometry": { "type": "Point", "coordinates": [ 9.056608201412159, 52.007190970527006 ] } },
{ "type": "Feature", "properties": { "strassenschluessel": "05766000002402416", "bezeichnung": "Steinkuhlenweg" }, "geometry": { "type": "Point", "coordinates": [ 9.055145382982383, 52.007674837910955 ] } },
{ "type": "Feature", "properties": { "strassenschluessel": "05766000002402417", "bezeichnung": "Alter Schulweg" }, "geometry": { "type": "Point", "coordinates": [ 9.058639577951336, 52.007366460224176 ] } },
{ "type": "Feature", "properties": { "strassenschluessel": "05766000002402418", "bezeichnung": "Erlenweg" }, "geometry": { "type": "Point", "coordinates": [ 9.052528163457451, 52.008224868353665 ] } },
{ "type": "Feature", "properties": { "strassenschluessel": "05766000002402419", "bezeichnung": "Ahornweg" }, "geometry": { "type": "Point", "coordinates": [ 9.053993428905379, 52.008537504431651 ] } },
{ "type": "Feature", "properties": { "strassenschluessel": "05766000002402420", "bezeichnung": "Zum Bierholz" }, "geometry": { "type": "Point", "coordinates": [ 9.057143997925246, 52.008595925014021 ] } },
{ "type": "Feature", "properties": { "strassenschluessel": "05766000002402421", "bezeichnung": "Wülfentrup" }, "geometry": { "type": "Point", "coordinates": [ 9.05944223624817, 52.013676864172503 ] } },
{ "type": "Feature", "properties": { "strassenschluessel": "05766000002402422", "bezeichnung": "Feldstraße" }, "geometry": { "type": "Point", "coordinates": [ 9.059089311462689, 52.009671559171387 ] } },
{ "type": "Feature", "properties": { "strassenschluessel": "05766000002402423", "bezeichnung": "Sommerseller Straße" }, "geometry": { "type": "Point", "coordinates": [ 9.063065687220677, 52.004525362152961 ] } },
{ "type": "Feature", "properties": { "strassenschluessel": "05766000002402424", "bezeichnung": "Kornblumenweg" }, "geometry": { "type": "Point", "coordinates": [ 9.058128509328389, 52.009420056938389 ] } },
{ "type": "Feature", "properties": { "strassenschluessel": "05766000002402425", "bezeichnung": "Auf dem Hohen Felde " }, "geometry": null },
{ "type": "Feature", "properties": { "strassenschluessel": "05766000002402441", "bezeichnung": "An der Schule" }, "geometry": { "type": "Point", "coordinates": [ 9.051309866301263, 52.026918345000595 ] } },
{ "type": "Feature", "properties": { "strassenschluessel": "05766000002402442", "bezeichnung": "Industriestraße" }, "geometry": { "type": "Point", "coordinates": [ 9.044025641780616, 52.024202806331715 ] } },
{ "type": "Feature", "properties": { "strassenschluessel": "05766000002402443", "bezeichnung": "Bundesstraße" }, "geometry": { "type": "Point", "coordinates": [ 9.059129254150116, 52.023626376991899 ] } },
{ "type": "Feature", "properties": { "strassenschluessel": "05766000002402444", "bezeichnung": "Fermke" }, "geometry": { "type": "Point", "coordinates": [ 9.046333737777935, 52.027327839295047 ] } },
{ "type": "Feature", "properties": { "strassenschluessel": "05766000002402445", "bezeichnung": "Friedenstal" }, "geometry": { "type": "Point", "coordinates": [ 9.045472755619196, 52.029772400022203 ] } },
{ "type": "Feature", "properties": { "strassenschluessel": "05766000002402446", "bezeichnung": "An der Siekwiese" }, "geometry": { "type": "Point", "coordinates": [ 9.05156707551199, 52.025130963796066 ] } },
{ "type": "Feature", "properties": { "strassenschluessel": "05766000002402447", "bezeichnung": "Langen Grund" }, "geometry": { "type": "Point", "coordinates": [ 9.074223401806394, 52.039619940978021 ] } },
{ "type": "Feature", "properties": { "strassenschluessel": "05766000002402448", "bezeichnung": "Grotenberg" }, "geometry": { "type": "Point", "coordinates": [ 9.062395572565244, 52.038271778792904 ] } },
{ "type": "Feature", "properties": { "strassenschluessel": "05766000002402449", "bezeichnung": "Köllerkamp" }, "geometry": { "type": "Point", "coordinates": [ 9.058276534924879, 52.023707018858822 ] } },
{ "type": "Feature", "properties": { "strassenschluessel": "05766000002402450", "bezeichnung": "Alverdisser Straße" }, "geometry": { "type": "Point", "coordinates": [ 9.080476716873221, 52.031527527286102 ] } },
{ "type": "Feature", "properties": { "strassenschluessel": "05766000002402451", "bezeichnung": "Mulsterberg" }, "geometry": { "type": "Point", "coordinates": [ 9.082835147886891, 52.036960654199056 ] } },
{ "type": "Feature", "properties": { "strassenschluessel": "05766000002402452", "bezeichnung": "Obere Dorfstraße" }, "geometry": { "type": "Point", "coordinates": [ 9.054172885772164, 52.025264676319395 ] } },
{ "type": "Feature", "properties": { "strassenschluessel": "05766000002402453", "bezeichnung": "Plass" }, "geometry": { "type": "Point", "coordinates": [ 9.052130126995401, 52.028692818887151 ] } },
{ "type": "Feature", "properties": { "strassenschluessel": "05766000002402454", "bezeichnung": "Querental" }, "geometry": { "type": "Point", "coordinates": [ 9.080258720843698, 52.027244646553306 ] } },
{ "type": "Feature", "properties": { "strassenschluessel": "05766000002402455", "bezeichnung": "Auf dem Kamp" }, "geometry": { "type": "Point", "coordinates": [ 9.052297789197118, 52.026727806673343 ] } },
{ "type": "Feature", "properties": { "strassenschluessel": "05766000002402456", "bezeichnung": "Ziegenhirtenweg" }, "geometry": { "type": "Point", "coordinates": [ 9.056871983478549, 52.02693283836966 ] } },
{ "type": "Feature", "properties": { "strassenschluessel": "05766000002402457", "bezeichnung": "Im Schling" }, "geometry": { "type": "Point", "coordinates": [ 9.055240412450875, 52.027465229578922 ] } },
{ "type": "Feature", "properties": { "strassenschluessel": "05766000002402458", "bezeichnung": "Am Wiesenrain" }, "geometry": { "type": "Point", "coordinates": [ 9.055477155089745, 52.028308160649885 ] } },
{ "type": "Feature", "properties": { "strassenschluessel": "05766000002402459", "bezeichnung": "Untere Dorfstraße" }, "geometry": { "type": "Point", "coordinates": [ 9.056995522769483, 52.020625924833794 ] } },
{ "type": "Feature", "properties": { "strassenschluessel": "05766000002402460", "bezeichnung": "An der Weide" }, "geometry": { "type": "Point", "coordinates": [ 9.05664610733962, 52.028730042652093 ] } },
{ "type": "Feature", "properties": { "strassenschluessel": "05766000002402461", "bezeichnung": "Im Wildland" }, "geometry": { "type": "Point", "coordinates": [ 9.057918056431459, 52.028324734183428 ] } },
{ "type": "Feature", "properties": { "strassenschluessel": "05766000002402462", "bezeichnung": "Wildpfad" }, "geometry": { "type": "Point", "coordinates": [ 9.058272750811383, 52.029632144058567 ] } },
{ "type": "Feature", "properties": { "strassenschluessel": "05766000002402463", "bezeichnung": "Am Anger" }, "geometry": { "type": "Point", "coordinates": [ 9.059006724215529, 52.029503586328865 ] } },
{ "type": "Feature", "properties": { "strassenschluessel": "05766000002402464", "bezeichnung": "Im Reiher" }, "geometry": { "type": "Point", "coordinates": [ 9.05998822349309, 52.030507339817845 ] } },
{ "type": "Feature", "properties": { "strassenschluessel": "05766000002402465", "bezeichnung": "Wiemkenberg" }, "geometry": { "type": "Point", "coordinates": [ 9.059436954706158, 52.040366488510287 ] } },
{ "type": "Feature", "properties": { "strassenschluessel": "05766000002402466", "bezeichnung": "An der Bruchmühle" }, "geometry": { "type": "Point", "coordinates": [ 9.046984370113075, 52.022794332408985 ] } },
{ "type": "Feature", "properties": { "strassenschluessel": "05766000002402467", "bezeichnung": "Alter Kampweg" }, "geometry": { "type": "Point", "coordinates": [ 9.053803149406475, 52.024094893069275 ] } },
{ "type": "Feature", "properties": { "strassenschluessel": "05766000002402468", "bezeichnung": "Wiesenstraße" }, "geometry": { "type": "Point", "coordinates": [ 9.052005964478143, 52.024239896443547 ] } },
{ "type": "Feature", "properties": { "strassenschluessel": "05766000002402469", "bezeichnung": "Schakenberg" }, "geometry": { "type": "Point", "coordinates": [ 9.080221086277108, 52.020922551339574 ] } },
{ "type": "Feature", "properties": { "strassenschluessel": "05766000002402470", "bezeichnung": "Am Sportplatz" }, "geometry": { "type": "Point", "coordinates": [ 9.058453895557175, 52.021867549646842 ] } },
{ "type": "Feature", "properties": { "strassenschluessel": "05766000002402471", "bezeichnung": "Humeweg" }, "geometry": { "type": "Point", "coordinates": [ 9.057558703920401, 52.022521127167614 ] } },
{ "type": "Feature", "properties": { "strassenschluessel": "05766000002402472", "bezeichnung": "Am Humebach" }, "geometry": { "type": "Point", "coordinates": [ 9.057996148474658, 52.020230572943071 ] } },
{ "type": "Feature", "properties": { "strassenschluessel": "05766000002402473", "bezeichnung": "Teichtwete" }, "geometry": { "type": "Point", "coordinates": [ 9.054097882012913, 52.025975586874978 ] } },
{ "type": "Feature", "properties": { "strassenschluessel": "05766000002402474", "bezeichnung": "Rott" }, "geometry": { "type": "Point", "coordinates": [ 9.066852056722256, 52.037324220185397 ] } },
{ "type": "Feature", "properties": { "strassenschluessel": "05766000002402475", "bezeichnung": "Friedkuhle" }, "geometry": { "type": "Point", "coordinates": [ 9.06207884959594, 52.013516319797674 ] } },
{ "type": "Feature", "properties": { "strassenschluessel": "05766000002402476", "bezeichnung": "Hellweg" }, "geometry": { "type": "Point", "coordinates": [ 9.053836581896368, 52.027322833871011 ] } },
{ "type": "Feature", "properties": { "strassenschluessel": "05766000002402477", "bezeichnung": "Hasenbreite" }, "geometry": { "type": "Point", "coordinates": [ 9.0531950255694, 52.028669613904512 ] } },
{ "type": "Feature", "properties": { "strassenschluessel": "05766000002402478", "bezeichnung": "Marksberg" }, "geometry": { "type": "Point", "coordinates": [ 9.074992021356106, 52.032358075666018 ] } },
{ "type": "Feature", "properties": { "strassenschluessel": "05766000002402479", "bezeichnung": "Am Siekbach" }, "geometry": null },
{ "type": "Feature", "properties": { "strassenschluessel": "05766000002402480", "bezeichnung": "Apenbruch" }, "geometry": { "type": "Point", "coordinates": [ 9.044091626620792, 52.025098789905449 ] } },
{ "type": "Feature", "properties": { "strassenschluessel": "05766000002402481", "bezeichnung": "Meierhofstraße" }, "geometry": { "type": "Point", "coordinates": [ 9.051002746538984, 52.024749266108422 ] } },
{ "type": "Feature", "properties": { "strassenschluessel": "05766000002402482", "bezeichnung": "Tramsmeiers Berg" }, "geometry": { "type": "Point", "coordinates": [ 9.048935451642864, 52.026810762751488 ] } },
{ "type": "Feature", "properties": { "strassenschluessel": "05766000002402491", "bezeichnung": "Fahrenplatz" }, "geometry": { "type": "Point", "coordinates": [ 9.021790959418354, 52.049879560683301 ] } },
{ "type": "Feature", "properties": { "strassenschluessel": "05766000002402492", "bezeichnung": "Farmbecker Straße" }, "geometry": { "type": "Point", "coordinates": [ 9.028141331607287, 52.025472702420387 ] } },
{ "type": "Feature", "properties": { "strassenschluessel": "05766000002402493", "bezeichnung": "Großes Feld" }, "geometry": { "type": "Point", "coordinates": [ 9.016522008424554, 52.046787840606981 ] } },
{ "type": "Feature", "properties": { "strassenschluessel": "05766000002402494", "bezeichnung": "Alte Dorfstraße" }, "geometry": { "type": "Point", "coordinates": [ 9.029937132152952, 52.064202172870246 ] } },
{ "type": "Feature", "properties": { "strassenschluessel": "05766000002402495", "bezeichnung": "Oelentrup" }, "geometry": { "type": "Point", "coordinates": [ 9.048152194986599, 52.043150563901179 ] } },
{ "type": "Feature", "properties": { "strassenschluessel": "05766000002402496", "bezeichnung": "Am Wald" }, "geometry": { "type": "Point", "coordinates": [ 9.012851783921983, 52.039155057143418 ] } },
{ "type": "Feature", "properties": { "strassenschluessel": "05766000002402497", "bezeichnung": "Domänenweg" }, "geometry": { "type": "Point", "coordinates": [ 9.01162219594702, 52.044258452545918 ] } },
{ "type": "Feature", "properties": { "strassenschluessel": "05766000002402498", "bezeichnung": "Vogtskamp" }, "geometry": { "type": "Point", "coordinates": [ 9.031343078394938, 52.034038867861398 ] } },
{ "type": "Feature", "properties": { "strassenschluessel": "05766000002402499", "bezeichnung": "Sudetenstraße" }, "geometry": { "type": "Point", "coordinates": [ 9.016429737723469, 52.045363184382886 ] } },
{ "type": "Feature", "properties": { "strassenschluessel": "05766000002402500", "bezeichnung": "Kolmarer Straße" }, "geometry": { "type": "Point", "coordinates": [ 9.014911708612139, 52.044743095790452 ] } },
{ "type": "Feature", "properties": { "strassenschluessel": "05766000002402501", "bezeichnung": "Königsberger Straße" }, "geometry": { "type": "Point", "coordinates": [ 9.015514942172659, 52.045333143937739 ] } },
{ "type": "Feature", "properties": { "strassenschluessel": "05766000002402502", "bezeichnung": "Breslauer Straße" }, "geometry": { "type": "Point", "coordinates": [ 9.013380568393792, 52.045730299400113 ] } },
{ "type": "Feature", "properties": { "strassenschluessel": "05766000002402503", "bezeichnung": "Hofweg" }, "geometry": { "type": "Point", "coordinates": [ 9.014960585478425, 52.046798910162899 ] } },
{ "type": "Feature", "properties": { "strassenschluessel": "05766000002402504", "bezeichnung": "Wilkerott" }, "geometry": { "type": "Point", "coordinates": [ 9.016767656809318, 52.047657017811304 ] } },
{ "type": "Feature", "properties": { "strassenschluessel": "05766000002402505", "bezeichnung": "Krusfeld" }, "geometry": { "type": "Point", "coordinates": [ 9.01927746697308, 52.057545430884502 ] } },
{ "type": "Feature", "properties": { "strassenschluessel": "05766000002402506", "bezeichnung": "Meinde" }, "geometry": null },
{ "type": "Feature", "properties": { "strassenschluessel": "05766000002402507", "bezeichnung": "Zum Alten Sternberg" }, "geometry": { "type": "Point", "coordinates": [ 9.034097990773603, 52.062964439528542 ] } },
{ "type": "Feature", "properties": { "strassenschluessel": "05766000002402508", "bezeichnung": "Duxenberg" }, "geometry": { "type": "Point", "coordinates": [ 9.030814004597952, 52.056372062146771 ] } },
{ "type": "Feature", "properties": { "strassenschluessel": "05766000002402509", "bezeichnung": "Drecken" }, "geometry": { "type": "Point", "coordinates": [ 9.043562560772969, 52.053035967222286 ] } },
{ "type": "Feature", "properties": { "strassenschluessel": "05766000002402510", "bezeichnung": "Altarstein" }, "geometry": { "type": "Point", "coordinates": [ 9.029974581184389, 52.052526476687994 ] } },
{ "type": "Feature", "properties": { "strassenschluessel": "05766000002402511", "bezeichnung": "Försterweg" }, "geometry": { "type": "Point", "coordinates": [ 9.022255014277784, 52.046274740498042 ] } },
{ "type": "Feature", "properties": { "strassenschluessel": "05766000002402512", "bezeichnung": "Am Holzplatz" }, "geometry": { "type": "Point", "coordinates": [ 9.022951267296778, 52.048433714289509 ] } },
{ "type": "Feature", "properties": { "strassenschluessel": "05766000002402513", "bezeichnung": "Am Eckerngarten" }, "geometry": { "type": "Point", "coordinates": [ 9.024381183915967, 52.048717125495855 ] } },
{ "type": "Feature", "properties": { "strassenschluessel": "05766000002402514", "bezeichnung": "Nachtigallenweg" }, "geometry": { "type": "Point", "coordinates": [ 9.023724518533648, 52.049364702027923 ] } },
{ "type": "Feature", "properties": { "strassenschluessel": "05766000002402515", "bezeichnung": "Am Huppigsberg" }, "geometry": { "type": "Point", "coordinates": [ 9.020859850907746, 52.051256349941902 ] } },
{ "type": "Feature", "properties": { "strassenschluessel": "05766000002402516", "bezeichnung": "Sternberger Straße" }, "geometry": { "type": "Point", "coordinates": [ 9.020853971168352, 52.045987612012368 ] } },
{ "type": "Feature", "properties": { "strassenschluessel": "05766000002402517", "bezeichnung": "Waldwinkel" }, "geometry": { "type": "Point", "coordinates": [ 9.026287346001368, 52.036512962597619 ] } },
{ "type": "Feature", "properties": { "strassenschluessel": "05766000002402518", "bezeichnung": "Zum Hudewald" }, "geometry": { "type": "Point", "coordinates": [ 9.011520222003295, 52.036451091592838 ] } },
{ "type": "Feature", "properties": { "strassenschluessel": "05766000002402519", "bezeichnung": "Zur Faulen Wiese" }, "geometry": { "type": "Point", "coordinates": [ 9.011059667128235, 52.038007433783299 ] } },
{ "type": "Feature", "properties": { "strassenschluessel": "05766000002402520", "bezeichnung": "Am Mühlingsbach" }, "geometry": { "type": "Point", "coordinates": [ 9.012528673979158, 52.039660101694615 ] } },
{ "type": "Feature", "properties": { "strassenschluessel": "05766000002402521", "bezeichnung": "Röhenberg" }, "geometry": { "type": "Point", "coordinates": [ 9.015623465312585, 52.042056525048686 ] } },
{ "type": "Feature", "properties": { "strassenschluessel": "05766000002402522", "bezeichnung": "Unter den Eichen" }, "geometry": { "type": "Point", "coordinates": [ 9.024369470444146, 52.063667195639155 ] } },
{ "type": "Feature", "properties": { "strassenschluessel": "05766000002402527", "bezeichnung": "Stumpenhagen" }, "geometry": { "type": "Point", "coordinates": [ 9.002463304623967, 52.016506365539023 ] } },
{ "type": "Feature", "properties": { "strassenschluessel": "05766000002402528", "bezeichnung": "Hufering" }, "geometry": { "type": "Point", "coordinates": [ 9.013896233225884, 52.017544168323525 ] } },
{ "type": "Feature", "properties": { "strassenschluessel": "05766000002402529", "bezeichnung": "Zum Schneiderkamp" }, "geometry": { "type": "Point", "coordinates": [ 9.020344953887665, 52.01202165468554 ] } },
{ "type": "Feature", "properties": { "strassenschluessel": "05766000002402530", "bezeichnung": "Am Schloß" }, "geometry": { "type": "Point", "coordinates": [ 9.019667460164589, 52.013455572776259 ] } },
{ "type": "Feature", "properties": { "strassenschluessel": "05766000002402531", "bezeichnung": "Betzener Straße" }, "geometry": { "type": "Point", "coordinates": [ 9.021780246813877, 52.012659161400215 ] } },
{ "type": "Feature", "properties": { "strassenschluessel": "05766000002402532", "bezeichnung": "Betzen" }, "geometry": { "type": "Point", "coordinates": [ 9.045054180473178, 52.015943953092304 ] } },
{ "type": "Feature", "properties": { "strassenschluessel": "05766000002402533", "bezeichnung": "Blomenstein" }, "geometry": { "type": "Point", "coordinates": [ 9.039048250482884, 52.005417720906728 ] } },
{ "type": "Feature", "properties": { "strassenschluessel": "05766000002402534", "bezeichnung": "Fuchsloch" }, "geometry": { "type": "Point", "coordinates": [ 9.019438872975314, 52.019240979762571 ] } },
{ "type": "Feature", "properties": { "strassenschluessel": "05766000002402535", "bezeichnung": "Auf der Hufe" }, "geometry": { "type": "Point", "coordinates": [ 9.013512769999631, 52.018189042511551 ] } },
{ "type": "Feature", "properties": { "strassenschluessel": "05766000002402536", "bezeichnung": "Voßheider Straße" }, "geometry": { "type": "Point", "coordinates": [ 9.015521196696954, 52.016534076950322 ] } },
{ "type": "Feature", "properties": { "strassenschluessel": "05766000002402537", "bezeichnung": "Donoper Straße" }, "geometry": { "type": "Point", "coordinates": [ 9.014482225258943, 52.011764885855662 ] } },
{ "type": "Feature", "properties": { "strassenschluessel": "05766000002402538", "bezeichnung": "Pferdekamp" }, "geometry": { "type": "Point", "coordinates": [ 9.016000673035935, 52.014540039258392 ] } },
{ "type": "Feature", "properties": { "strassenschluessel": "05766000002402539", "bezeichnung": "Sievertsberg" }, "geometry": { "type": "Point", "coordinates": [ 9.015473449797911, 52.006326685817605 ] } },
{ "type": "Feature", "properties": { "strassenschluessel": "05766000002402540", "bezeichnung": "Blomensteiner Weg" }, "geometry": { "type": "Point", "coordinates": [ 9.019410858130248, 52.005859166886715 ] } },
{ "type": "Feature", "properties": { "strassenschluessel": "05766000002402541", "bezeichnung": "Im Busch" }, "geometry": { "type": "Point", "coordinates": [ 9.006795763658875, 52.01797471120684 ] } },
{ "type": "Feature", "properties": { "strassenschluessel": "05766000002402542", "bezeichnung": "Am Löhlberg" }, "geometry": { "type": "Point", "coordinates": [ 9.022689589305882, 52.0119460711866 ] } },
{ "type": "Feature", "properties": { "strassenschluessel": "05766000002402543", "bezeichnung": "Im Brüggensiek" }, "geometry": { "type": "Point", "coordinates": [ 9.03343543343013, 52.017451736758453 ] } },
{ "type": "Feature", "properties": { "strassenschluessel": "05766000002402544", "bezeichnung": "Am Steinbrink" }, "geometry": { "type": "Point", "coordinates": [ 9.015938885046761, 52.015138538268964 ] } },
{ "type": "Feature", "properties": { "strassenschluessel": "05766000002402545", "bezeichnung": "Nordstraße" }, "geometry": { "type": "Point", "coordinates": [ 9.01108470447751, 52.017690578018595 ] } },
{ "type": "Feature", "properties": { "strassenschluessel": "05766000002402546", "bezeichnung": "Südstraße" }, "geometry": { "type": "Point", "coordinates": [ 9.011466144482899, 52.016763792193061 ] } },
{ "type": "Feature", "properties": { "strassenschluessel": "05766000002402547", "bezeichnung": "Sanderhof" }, "geometry": { "type": "Point", "coordinates": [ 9.027744903790863, 52.030264909715164 ] } },
{ "type": "Feature", "properties": { "strassenschluessel": "05766000002402558", "bezeichnung": "Energiepark" }, "geometry": { "type": "Point", "coordinates": [ 9.017328943530137, 52.015858093317291 ] } },
{ "type": "Feature", "properties": { "strassenschluessel": "057660000024=2983", "bezeichnung": "Bahnlinie Lage-Hameln" }, "geometry": null }
]
}
