{
"type": "FeatureCollection",
"features": [
{ "type": "Feature", "properties": { "strassenschluessel": "05966000000812000", "bezeichnung": "Alte Landstraße" }, "geometry": { "type": "Point", "coordinates": [ 7.778109243678666, 51.019566304173154 ] } },
{ "type": "Feature", "properties": { "strassenschluessel": "05966000000812001", "bezeichnung": "Am Buscheid" }, "geometry": { "type": "Point", "coordinates": [ 7.78283177175443, 51.021028262480243 ] } },
{ "type": "Feature", "properties": { "strassenschluessel": "05966000000812002", "bezeichnung": "Am Hüsterberg" }, "geometry": { "type": "Point", "coordinates": [ 7.772203196953658, 51.01922945919604 ] } },
{ "type": "Feature", "properties": { "strassenschluessel": "05966000000812003", "bezeichnung": "Am Papenberg" }, "geometry": { "type": "Point", "coordinates": [ 7.778298511863353, 51.024354084095393 ] } },
{ "type": "Feature", "properties": { "strassenschluessel": "05966000000812004", "bezeichnung": "Am Wall" }, "geometry": { "type": "Point", "coordinates": [ 7.783797437875058, 51.022389634394955 ] } },
{ "type": "Feature", "properties": { "strassenschluessel": "05966000000812005", "bezeichnung": "An der Kreuzkapelle" }, "geometry": { "type": "Point", "coordinates": [ 7.779133195666864, 51.024201017439857 ] } },
{ "type": "Feature", "properties": { "strassenschluessel": "05966000000812006", "bezeichnung": "Annostraße" }, "geometry": { "type": "Point", "coordinates": [ 7.778216887619281, 51.02404886632943 ] } },
{ "type": "Feature", "properties": { "strassenschluessel": "05966000000812007", "bezeichnung": "Auf dem Graben" }, "geometry": { "type": "Point", "coordinates": [ 7.778139398586519, 51.024421629579244 ] } },
{ "type": "Feature", "properties": { "strassenschluessel": "05966000000812008", "bezeichnung": "Auf dem Rhode" }, "geometry": { "type": "Point", "coordinates": [ 7.774565117521388, 51.023173143148824 ] } },
{ "type": "Feature", "properties": { "strassenschluessel": "05966000000812009", "bezeichnung": "Bahnhofstraße" }, "geometry": { "type": "Point", "coordinates": [ 7.77192802475289, 51.025949286423646 ] } },
{ "type": "Feature", "properties": { "strassenschluessel": "05966000000812010", "bezeichnung": "Benolper Straße" }, "geometry": { "type": "Point", "coordinates": [ 7.773615058483512, 51.022556523563445 ] } },
{ "type": "Feature", "properties": { "strassenschluessel": "05966000000812011", "bezeichnung": "Börschstraße" }, "geometry": { "type": "Point", "coordinates": [ 7.783057107328658, 51.022941957990362 ] } },
{ "type": "Feature", "properties": { "strassenschluessel": "05966000000812012", "bezeichnung": "Brückstraße" }, "geometry": { "type": "Point", "coordinates": [ 7.775020380409062, 51.023670745446758 ] } },
{ "type": "Feature", "properties": { "strassenschluessel": "05966000000812013", "bezeichnung": "Brunnenstraße" }, "geometry": { "type": "Point", "coordinates": [ 7.777654677697203, 51.024235245125226 ] } },
{ "type": "Feature", "properties": { "strassenschluessel": "05966000000812014", "bezeichnung": "Clemensstraße" }, "geometry": { "type": "Point", "coordinates": [ 7.778445704092833, 51.023035538971008 ] } },
{ "type": "Feature", "properties": { "strassenschluessel": "05966000000812015", "bezeichnung": "Dechant-Fischer-Straße" }, "geometry": { "type": "Point", "coordinates": [ 7.778956009495571, 51.023080855343586 ] } },
{ "type": "Feature", "properties": { "strassenschluessel": "05966000000812016", "bezeichnung": "Engelbertstraße" }, "geometry": { "type": "Point", "coordinates": [ 7.769561547831458, 51.024208186484572 ] } },
{ "type": "Feature", "properties": { "strassenschluessel": "05966000000812017", "bezeichnung": "Ennert" }, "geometry": { "type": "Point", "coordinates": [ 7.771285114692811, 51.025471677729868 ] } },
{ "type": "Feature", "properties": { "strassenschluessel": "05966000000812018", "bezeichnung": "Finkestraße" }, "geometry": { "type": "Point", "coordinates": [ 7.778592657201425, 51.021368192621608 ] } },
{ "type": "Feature", "properties": { "strassenschluessel": "05966000000812019", "bezeichnung": "Franz-Hitze-Straße" }, "geometry": { "type": "Point", "coordinates": [ 7.773127512646287, 51.023447052385841 ] } },
{ "type": "Feature", "properties": { "strassenschluessel": "05966000000812020", "bezeichnung": "Gartenstraße" }, "geometry": { "type": "Point", "coordinates": [ 7.773873467774467, 51.024770389751851 ] } },
{ "type": "Feature", "properties": { "strassenschluessel": "05966000000812021", "bezeichnung": "Gerberstraße" }, "geometry": { "type": "Point", "coordinates": [ 7.775277390341418, 51.023185791155555 ] } },
{ "type": "Feature", "properties": { "strassenschluessel": "05966000000812022", "bezeichnung": "Gerhardusstraße" }, "geometry": { "type": "Point", "coordinates": [ 7.772053908035564, 51.021974725820478 ] } },
{ "type": "Feature", "properties": { "strassenschluessel": "05966000000812023", "bezeichnung": "Gördesweg" }, "geometry": { "type": "Point", "coordinates": [ 7.772560020081116, 51.019719391394794 ] } },
{ "type": "Feature", "properties": { "strassenschluessel": "05966000000812024", "bezeichnung": "Goethestraße" }, "geometry": { "type": "Point", "coordinates": [ 7.768026570743932, 51.024831343865124 ] } },
{ "type": "Feature", "properties": { "strassenschluessel": "05966000000812025", "bezeichnung": "Gräfin-Sayn-Straße" }, "geometry": { "type": "Point", "coordinates": [ 7.780742618319709, 51.022999592399572 ] } },
{ "type": "Feature", "properties": { "strassenschluessel": "05966000000812026", "bezeichnung": "Hagener Straße" }, "geometry": { "type": "Point", "coordinates": [ 7.774289308493554, 51.026619131156565 ] } },
{ "type": "Feature", "properties": { "strassenschluessel": "05966000000812027", "bezeichnung": "Heinrich-Bone-Straße" }, "geometry": { "type": "Point", "coordinates": [ 7.772696062956488, 51.024157060508053 ] } },
{ "type": "Feature", "properties": { "strassenschluessel": "05966000000812028", "bezeichnung": "Herrnscheider Weg" }, "geometry": { "type": "Point", "coordinates": [ 7.772632028660227, 51.025067745440865 ] } },
{ "type": "Feature", "properties": { "strassenschluessel": "05966000000812029", "bezeichnung": "Im Höfchen" }, "geometry": { "type": "Point", "coordinates": [ 7.775657976386248, 51.022650485074834 ] } },
{ "type": "Feature", "properties": { "strassenschluessel": "05966000000812030", "bezeichnung": "Im Kreuzseifen" }, "geometry": { "type": "Point", "coordinates": [ 7.77150982642504, 51.018838398864972 ] } },
{ "type": "Feature", "properties": { "strassenschluessel": "05966000000812031", "bezeichnung": "Im Wiesengrund" }, "geometry": { "type": "Point", "coordinates": [ 7.767976627723772, 51.030807113930777 ] } },
{ "type": "Feature", "properties": { "strassenschluessel": "05966000000812032", "bezeichnung": "In der Sengenau" }, "geometry": { "type": "Point", "coordinates": [ 7.773766948303662, 51.031307000481632 ] } },
{ "type": "Feature", "properties": { "strassenschluessel": "05966000000812033", "bezeichnung": "In der Trift" }, "geometry": { "type": "Point", "coordinates": [ 7.770109347549073, 51.02089600702493 ] } },
{ "type": "Feature", "properties": { "strassenschluessel": "05966000000812034", "bezeichnung": "Kampstraße" }, "geometry": { "type": "Point", "coordinates": [ 7.771308834672769, 51.022290412489632 ] } },
{ "type": "Feature", "properties": { "strassenschluessel": "05966000000812035", "bezeichnung": "Kirchplatz" }, "geometry": { "type": "Point", "coordinates": [ 7.778899457309982, 51.023371247237847 ] } },
{ "type": "Feature", "properties": { "strassenschluessel": "05966000000812036", "bezeichnung": "Klosterhof" }, "geometry": { "type": "Point", "coordinates": [ 7.778529310807361, 51.022785718249168 ] } },
{ "type": "Feature", "properties": { "strassenschluessel": "05966000000812037", "bezeichnung": "Kolpingstraße" }, "geometry": { "type": "Point", "coordinates": [ 7.780201868232544, 51.023752939100284 ] } },
{ "type": "Feature", "properties": { "strassenschluessel": "05966000000812038", "bezeichnung": "Kurkölner Straße" }, "geometry": { "type": "Point", "coordinates": [ 7.771974415047312, 51.02256082963094 ] } },
{ "type": "Feature", "properties": { "strassenschluessel": "05966000000812039", "bezeichnung": "Lindenstraße" }, "geometry": { "type": "Point", "coordinates": [ 7.773116736293192, 51.024198789950759 ] } },
{ "type": "Feature", "properties": { "strassenschluessel": "05966000000812040", "bezeichnung": "Märkische Straße" }, "geometry": { "type": "Point", "coordinates": [ 7.76821379604582, 51.028694523399793 ] } },
{ "type": "Feature", "properties": { "strassenschluessel": "05966000000812041", "bezeichnung": "Marktplatz" }, "geometry": { "type": "Point", "coordinates": [ 7.777523617153948, 51.023751837166017 ] } },
{ "type": "Feature", "properties": { "strassenschluessel": "05966000000812042", "bezeichnung": "Raiffeisenstraße" }, "geometry": { "type": "Point", "coordinates": [ 7.772672550003806, 51.02661641385582 ] } },
{ "type": "Feature", "properties": { "strassenschluessel": "05966000000812043", "bezeichnung": "Rosestraße" }, "geometry": { "type": "Point", "coordinates": [ 7.774595347252709, 51.023701468814821 ] } },
{ "type": "Feature", "properties": { "strassenschluessel": "05966000000812044", "bezeichnung": "Schillerstraße" }, "geometry": { "type": "Point", "coordinates": [ 7.767352935256387, 51.025019088294819 ] } },
{ "type": "Feature", "properties": { "strassenschluessel": "05966000000812045", "bezeichnung": "Sendschotter Weg" }, "geometry": { "type": "Point", "coordinates": [ 7.773007445531501, 51.030946039126057 ] } },
{ "type": "Feature", "properties": { "strassenschluessel": "05966000000812046", "bezeichnung": "Südstraße" }, "geometry": { "type": "Point", "coordinates": [ 7.774930350409824, 51.020064685454891 ] } },
{ "type": "Feature", "properties": { "strassenschluessel": "05966000000812047", "bezeichnung": "Theimicker Weg" }, "geometry": { "type": "Point", "coordinates": [ 7.760169846015789, 51.021737803189403 ] } },
{ "type": "Feature", "properties": { "strassenschluessel": "05966000000812048", "bezeichnung": "Unterm Gallenlöh" }, "geometry": { "type": "Point", "coordinates": [ 7.766887398617071, 51.019863304868281 ] } },
{ "type": "Feature", "properties": { "strassenschluessel": "05966000000812049", "bezeichnung": "Vor der Scheibe" }, "geometry": { "type": "Point", "coordinates": [ 7.777207686462136, 51.019608203760775 ] } },
{ "type": "Feature", "properties": { "strassenschluessel": "05966000000812050", "bezeichnung": "Hansaweg" }, "geometry": { "type": "Point", "coordinates": [ 7.775692408027747, 51.0219675119558 ] } },
{ "type": "Feature", "properties": { "strassenschluessel": "05966000000812051", "bezeichnung": "Grabweg" }, "geometry": { "type": "Point", "coordinates": [ 7.775550109888833, 51.029460261445145 ] } },
{ "type": "Feature", "properties": { "strassenschluessel": "05966000000812052", "bezeichnung": "Amselweg" }, "geometry": { "type": "Point", "coordinates": [ 7.762942734227154, 51.025442088533808 ] } },
{ "type": "Feature", "properties": { "strassenschluessel": "05966000000812053", "bezeichnung": "Drosselweg" }, "geometry": { "type": "Point", "coordinates": [ 7.762372024070044, 51.025833306094427 ] } },
{ "type": "Feature", "properties": { "strassenschluessel": "05966000000812054", "bezeichnung": "Humboldtstraße" }, "geometry": { "type": "Point", "coordinates": [ 7.762406833396581, 51.024059843714831 ] } },
{ "type": "Feature", "properties": { "strassenschluessel": "05966000000812055", "bezeichnung": "Lessingstraße" }, "geometry": { "type": "Point", "coordinates": [ 7.762717968965147, 51.025087690710421 ] } },
{ "type": "Feature", "properties": { "strassenschluessel": "05966000000812056", "bezeichnung": "Lönsstraße" }, "geometry": { "type": "Point", "coordinates": [ 7.762069926516149, 51.025736022167514 ] } },
{ "type": "Feature", "properties": { "strassenschluessel": "05966000000812057", "bezeichnung": "Meisenweg" }, "geometry": { "type": "Point", "coordinates": [ 7.765170951173793, 51.024961246487806 ] } },
{ "type": "Feature", "properties": { "strassenschluessel": "05966000000812058", "bezeichnung": "Schwalbenweg" }, "geometry": { "type": "Point", "coordinates": [ 7.764672991259941, 51.025371193865766 ] } },
{ "type": "Feature", "properties": { "strassenschluessel": "05966000000812059", "bezeichnung": "Buchfinkenweg" }, "geometry": { "type": "Point", "coordinates": [ 7.763402888092141, 51.027240700197858 ] } },
{ "type": "Feature", "properties": { "strassenschluessel": "05966000000812060", "bezeichnung": "Dohlenweg" }, "geometry": { "type": "Point", "coordinates": [ 7.763618756988681, 51.026763249665173 ] } },
{ "type": "Feature", "properties": { "strassenschluessel": "05966000000812061", "bezeichnung": "Starenweg" }, "geometry": { "type": "Point", "coordinates": [ 7.762194869284764, 51.024384823019574 ] } },
{ "type": "Feature", "properties": { "strassenschluessel": "05966000000812062", "bezeichnung": "Steinstraße" }, "geometry": { "type": "Point", "coordinates": [ 7.771131184734526, 51.03796919302733 ] } },
{ "type": "Feature", "properties": { "strassenschluessel": "05966000000812063", "bezeichnung": "Kupferstraße" }, "geometry": { "type": "Point", "coordinates": [ 7.768914361869358, 51.035615202936619 ] } },
{ "type": "Feature", "properties": { "strassenschluessel": "05966000000812064", "bezeichnung": "Siemensstraße" }, "geometry": { "type": "Point", "coordinates": [ 7.766269563692267, 51.035702409051893 ] } },
{ "type": "Feature", "properties": { "strassenschluessel": "05966000000812065", "bezeichnung": "Industriestraße" }, "geometry": { "type": "Point", "coordinates": [ 7.767127862826167, 51.036304656002677 ] } },
{ "type": "Feature", "properties": { "strassenschluessel": "05966000000812066", "bezeichnung": "Auf dem Beul" }, "geometry": { "type": "Point", "coordinates": [ 7.763607216559174, 51.0219262075898 ] } },
{ "type": "Feature", "properties": { "strassenschluessel": "05966000000812067", "bezeichnung": "Am Weinberg" }, "geometry": { "type": "Point", "coordinates": [ 7.762619800907411, 51.021932391599464 ] } },
{ "type": "Feature", "properties": { "strassenschluessel": "05966000000812068", "bezeichnung": "Elsternweg" }, "geometry": { "type": "Point", "coordinates": [ 7.761853252884646, 51.02757858292005 ] } },
{ "type": "Feature", "properties": { "strassenschluessel": "05966000000812069", "bezeichnung": "Fasanenweg" }, "geometry": { "type": "Point", "coordinates": [ 7.761142063979883, 51.026236984601944 ] } },
{ "type": "Feature", "properties": { "strassenschluessel": "05966000000812070", "bezeichnung": "Nachtigallenweg" }, "geometry": { "type": "Point", "coordinates": [ 7.761633628170264, 51.025850779606863 ] } },
{ "type": "Feature", "properties": { "strassenschluessel": "05966000000812071", "bezeichnung": "Breite Wiese" }, "geometry": { "type": "Point", "coordinates": [ 7.776307821400994, 51.021575492792842 ] } },
{ "type": "Feature", "properties": { "strassenschluessel": "05966000000812072", "bezeichnung": "Postweg" }, "geometry": { "type": "Point", "coordinates": [ 7.775815066365378, 51.021529341450801 ] } },
{ "type": "Feature", "properties": { "strassenschluessel": "05966000000812073", "bezeichnung": "Zipperlingssiepen" }, "geometry": { "type": "Point", "coordinates": [ 7.766096896824328, 51.023191505093457 ] } },
{ "type": "Feature", "properties": { "strassenschluessel": "05966000000812074", "bezeichnung": "Schwester-Huberta-Weg" }, "geometry": null },
{ "type": "Feature", "properties": { "strassenschluessel": "05966000000812075", "bezeichnung": "Springerwiese" }, "geometry": { "type": "Point", "coordinates": [ 7.7703224838862, 51.038856681632986 ] } },
{ "type": "Feature", "properties": { "strassenschluessel": "05966000000812076", "bezeichnung": "Eichendorffstraße" }, "geometry": { "type": "Point", "coordinates": [ 7.75938580083594, 51.024539349172599 ] } },
{ "type": "Feature", "properties": { "strassenschluessel": "05966000000812077", "bezeichnung": "Hauptmannstraße" }, "geometry": { "type": "Point", "coordinates": [ 7.759376091822081, 51.023679839496104 ] } },
{ "type": "Feature", "properties": { "strassenschluessel": "05966000000812078", "bezeichnung": "Fontanestraße" }, "geometry": { "type": "Point", "coordinates": [ 7.760039105917199, 51.022478150477397 ] } },
{ "type": "Feature", "properties": { "strassenschluessel": "05966000000812079", "bezeichnung": "Am Mühlenteich" }, "geometry": { "type": "Point", "coordinates": [ 7.777124161417285, 51.021966777072421 ] } },
{ "type": "Feature", "properties": { "strassenschluessel": "05966000000812080", "bezeichnung": "In der Wünne" }, "geometry": { "type": "Point", "coordinates": [ 7.782603709642827, 51.024116417994449 ] } },
{ "type": "Feature", "properties": { "strassenschluessel": "05966000000812081", "bezeichnung": "Weißdornstraße" }, "geometry": { "type": "Point", "coordinates": [ 7.766364047055799, 51.03248708455547 ] } },
{ "type": "Feature", "properties": { "strassenschluessel": "05966000000812082", "bezeichnung": "Talerweg" }, "geometry": { "type": "Point", "coordinates": [ 7.772210499988186, 51.029991589724936 ] } },
{ "type": "Feature", "properties": { "strassenschluessel": "05966000000812083", "bezeichnung": "Christine-Koch-Straße" }, "geometry": { "type": "Point", "coordinates": [ 7.765948306239948, 51.026591102760598 ] } },
{ "type": "Feature", "properties": { "strassenschluessel": "05966000000812084", "bezeichnung": "Kirchhoffstraße" }, "geometry": { "type": "Point", "coordinates": [ 7.765163559621156, 51.027329626852833 ] } },
{ "type": "Feature", "properties": { "strassenschluessel": "05966000000812085", "bezeichnung": "Hatzfeldstraße" }, "geometry": { "type": "Point", "coordinates": [ 7.764548842235049, 51.027649858610829 ] } },
{ "type": "Feature", "properties": { "strassenschluessel": "05966000000812086", "bezeichnung": "Norbert-Scheele-Straße" }, "geometry": { "type": "Point", "coordinates": [ 7.763879042339469, 51.028098750285928 ] } },
{ "type": "Feature", "properties": { "strassenschluessel": "05966000000812087", "bezeichnung": "Grimmestraße" }, "geometry": { "type": "Point", "coordinates": [ 7.763664057063384, 51.029571903414194 ] } },
{ "type": "Feature", "properties": { "strassenschluessel": "05966000000812088", "bezeichnung": "Hellinghausstraße" }, "geometry": { "type": "Point", "coordinates": [ 7.763410338645322, 51.030497923293446 ] } },
{ "type": "Feature", "properties": { "strassenschluessel": "05966000000812089", "bezeichnung": "Voßhölzchen" }, "geometry": { "type": "Point", "coordinates": [ 7.766506685508185, 51.027901390628394 ] } },
{ "type": "Feature", "properties": { "strassenschluessel": "05966000000812090", "bezeichnung": "Zum Bauhof" }, "geometry": { "type": "Point", "coordinates": [ 7.763244564349858, 51.03243585369907 ] } },
{ "type": "Feature", "properties": { "strassenschluessel": "05966000000812091", "bezeichnung": "Florianstraße" }, "geometry": { "type": "Point", "coordinates": [ 7.765759996544293, 51.030671076427787 ] } },
{ "type": "Feature", "properties": { "strassenschluessel": "05966000000812092", "bezeichnung": "Am Eiskeller" }, "geometry": { "type": "Point", "coordinates": [ 7.789252696766863, 51.024700913743743 ] } },
{ "type": "Feature", "properties": { "strassenschluessel": "05966000000812093", "bezeichnung": "Essinghauser Weg" }, "geometry": { "type": "Point", "coordinates": [ 7.771873322944907, 51.0391422643468 ] } },
{ "type": "Feature", "properties": { "strassenschluessel": "05966000000812094", "bezeichnung": "Wilhelm-Busch-Weg" }, "geometry": { "type": "Point", "coordinates": [ 7.764736730858407, 51.028776594963787 ] } },
{ "type": "Feature", "properties": { "strassenschluessel": "05966000000812095", "bezeichnung": "In der Hützenau" }, "geometry": { "type": "Point", "coordinates": [ 7.763242700119664, 51.034522443961691 ] } },
{ "type": "Feature", "properties": { "strassenschluessel": "05966000000812096", "bezeichnung": "Ober der Sengenau" }, "geometry": { "type": "Point", "coordinates": [ 7.771709587532244, 51.030561528085379 ] } },
{ "type": "Feature", "properties": { "strassenschluessel": "05966000000812097", "bezeichnung": "Am Eichenbaum" }, "geometry": { "type": "Point", "coordinates": [ 7.770771101884177, 51.030616911506868 ] } },
{ "type": "Feature", "properties": { "strassenschluessel": "05966000000812098", "bezeichnung": "Am Gielenstein" }, "geometry": { "type": "Point", "coordinates": [ 7.770102088454141, 51.030468350670084 ] } },
{ "type": "Feature", "properties": { "strassenschluessel": "05966000000812101", "bezeichnung": "Am Hofgarten" }, "geometry": { "type": "Point", "coordinates": [ 7.737991429506777, 51.016706111163906 ] } },
{ "type": "Feature", "properties": { "strassenschluessel": "05966000000812102", "bezeichnung": "Am Lußnacken" }, "geometry": { "type": "Point", "coordinates": [ 7.736972410585085, 51.016442101652977 ] } },
{ "type": "Feature", "properties": { "strassenschluessel": "05966000000812103", "bezeichnung": "Am Windhagen" }, "geometry": { "type": "Point", "coordinates": [ 7.738650706230177, 51.017763136652455 ] } },
{ "type": "Feature", "properties": { "strassenschluessel": "05966000000812104", "bezeichnung": "Gelslinger Weg" }, "geometry": { "type": "Point", "coordinates": [ 7.740426828011173, 51.011188502705082 ] } },
{ "type": "Feature", "properties": { "strassenschluessel": "05966000000812105", "bezeichnung": "Rheinlandstraße" }, "geometry": { "type": "Point", "coordinates": [ 7.73677885435786, 51.018998298849922 ] } },
{ "type": "Feature", "properties": { "strassenschluessel": "05966000000812106", "bezeichnung": "Am Hang" }, "geometry": { "type": "Point", "coordinates": [ 7.739847944114234, 51.016751051117325 ] } },
{ "type": "Feature", "properties": { "strassenschluessel": "05966000000812107", "bezeichnung": "Brombeerweg" }, "geometry": { "type": "Point", "coordinates": [ 7.735811253237017, 51.019153483036192 ] } },
{ "type": "Feature", "properties": { "strassenschluessel": "05966000000812108", "bezeichnung": "Holunderweg" }, "geometry": { "type": "Point", "coordinates": [ 7.736435939094456, 51.018294527547994 ] } },
{ "type": "Feature", "properties": { "strassenschluessel": "05966000000812109", "bezeichnung": "Im Brauck" }, "geometry": { "type": "Point", "coordinates": [ 7.736258198392918, 51.019849658199384 ] } },
{ "type": "Feature", "properties": { "strassenschluessel": "05966000000812110", "bezeichnung": "Vorm Heiensiepen" }, "geometry": { "type": "Point", "coordinates": [ 7.744284655750276, 51.017904994153326 ] } },
{ "type": "Feature", "properties": { "strassenschluessel": "05966000000812111", "bezeichnung": "Am Bremerhof" }, "geometry": { "type": "Point", "coordinates": [ 7.803624278992277, 51.016786593566948 ] } },
{ "type": "Feature", "properties": { "strassenschluessel": "05966000000812112", "bezeichnung": "Am Hütteberg" }, "geometry": { "type": "Point", "coordinates": [ 7.806272403475616, 51.01496030966382 ] } },
{ "type": "Feature", "properties": { "strassenschluessel": "05966000000812113", "bezeichnung": "Am Sonnenhang" }, "geometry": { "type": "Point", "coordinates": [ 7.802813453096096, 51.013749637730314 ] } },
{ "type": "Feature", "properties": { "strassenschluessel": "05966000000812114", "bezeichnung": "Eichener Straße" }, "geometry": { "type": "Point", "coordinates": [ 7.804696505696418, 51.016546972265502 ] } },
{ "type": "Feature", "properties": { "strassenschluessel": "05966000000812115", "bezeichnung": "Im Öhlchen" }, "geometry": { "type": "Point", "coordinates": [ 7.808982867698285, 51.015962250931345 ] } },
{ "type": "Feature", "properties": { "strassenschluessel": "05966000000812116", "bezeichnung": "In der Bleiche" }, "geometry": { "type": "Point", "coordinates": [ 7.804344473218349, 51.015512120540791 ] } },
{ "type": "Feature", "properties": { "strassenschluessel": "05966000000812117", "bezeichnung": "In der Schmalemicke" }, "geometry": { "type": "Point", "coordinates": [ 7.805518736084166, 51.017413391835746 ] } },
{ "type": "Feature", "properties": { "strassenschluessel": "05966000000812118", "bezeichnung": "Rosenweg" }, "geometry": { "type": "Point", "coordinates": [ 7.80188025559516, 51.015766951138808 ] } },
{ "type": "Feature", "properties": { "strassenschluessel": "05966000000812119", "bezeichnung": "Napoleonstraße" }, "geometry": { "type": "Point", "coordinates": [ 7.797602278146998, 51.017081855593062 ] } },
{ "type": "Feature", "properties": { "strassenschluessel": "05966000000812120", "bezeichnung": "Am Rummelsberg" }, "geometry": { "type": "Point", "coordinates": [ 7.801845929824418, 51.015123464015971 ] } },
{ "type": "Feature", "properties": { "strassenschluessel": "05966000000812121", "bezeichnung": "Pater-Kruse-Weg" }, "geometry": { "type": "Point", "coordinates": [ 7.801528847951793, 51.01469889522815 ] } },
{ "type": "Feature", "properties": { "strassenschluessel": "05966000000812122", "bezeichnung": "Zur Rehpicke" }, "geometry": { "type": "Point", "coordinates": [ 7.801926553421771, 51.014010297078528 ] } },
{ "type": "Feature", "properties": { "strassenschluessel": "05966000000812131", "bezeichnung": "Am Flachsberg" }, "geometry": { "type": "Point", "coordinates": [ 7.730726738933051, 51.055911754434234 ] } },
{ "type": "Feature", "properties": { "strassenschluessel": "05966000000812132", "bezeichnung": "In den Helden" }, "geometry": { "type": "Point", "coordinates": [ 7.727844576649099, 51.060120026385263 ] } },
{ "type": "Feature", "properties": { "strassenschluessel": "05966000000812133", "bezeichnung": "In der Lumicke" }, "geometry": { "type": "Point", "coordinates": [ 7.728540623911758, 51.055650498681644 ] } },
{ "type": "Feature", "properties": { "strassenschluessel": "05966000000812134", "bezeichnung": "Kirchweg" }, "geometry": { "type": "Point", "coordinates": [ 7.725421621710306, 51.056748035431426 ] } },
{ "type": "Feature", "properties": { "strassenschluessel": "05966000000812135", "bezeichnung": "Lohwiese" }, "geometry": { "type": "Point", "coordinates": [ 7.728928482227728, 51.059773516611969 ] } },
{ "type": "Feature", "properties": { "strassenschluessel": "05966000000812136", "bezeichnung": "Oberm Garten" }, "geometry": { "type": "Point", "coordinates": [ 7.726658312782648, 51.060466840862965 ] } },
{ "type": "Feature", "properties": { "strassenschluessel": "05966000000812137", "bezeichnung": "Prof.-Rüsche-Straße" }, "geometry": { "type": "Point", "coordinates": [ 7.728594009564312, 51.060264998988949 ] } },
{ "type": "Feature", "properties": { "strassenschluessel": "05966000000812138", "bezeichnung": "Simonspike" }, "geometry": { "type": "Point", "coordinates": [ 7.725466712693882, 51.063250149196456 ] } },
{ "type": "Feature", "properties": { "strassenschluessel": "05966000000812139", "bezeichnung": "Vorm Löh" }, "geometry": { "type": "Point", "coordinates": [ 7.731210242697223, 51.059671096783212 ] } },
{ "type": "Feature", "properties": { "strassenschluessel": "05966000000812140", "bezeichnung": "Zum Laufhagen" }, "geometry": { "type": "Point", "coordinates": [ 7.726764252637657, 51.061110472671011 ] } },
{ "type": "Feature", "properties": { "strassenschluessel": "05966000000812141", "bezeichnung": "Zur Burg" }, "geometry": { "type": "Point", "coordinates": [ 7.727175264150101, 51.056775159959436 ] } },
{ "type": "Feature", "properties": { "strassenschluessel": "05966000000812142", "bezeichnung": "Vikar-Wächter-Weg" }, "geometry": { "type": "Point", "coordinates": [ 7.725870835053681, 51.061246735580539 ] } },
{ "type": "Feature", "properties": { "strassenschluessel": "05966000000812151", "bezeichnung": "Im Strautsiepen" }, "geometry": { "type": "Point", "coordinates": [ 7.803476139285229, 51.006768977009003 ] } },
{ "type": "Feature", "properties": { "strassenschluessel": "05966000000812152", "bezeichnung": "Im Wiesenkamp" }, "geometry": { "type": "Point", "coordinates": [ 7.808051133772669, 51.009171664769262 ] } },
{ "type": "Feature", "properties": { "strassenschluessel": "05966000000812153", "bezeichnung": "Weststraße" }, "geometry": { "type": "Point", "coordinates": [ 7.801877422068216, 51.007018458495061 ] } },
{ "type": "Feature", "properties": { "strassenschluessel": "05966000000812161", "bezeichnung": "An der Ekert" }, "geometry": { "type": "Point", "coordinates": [ 7.820284943339639, 51.060692659639429 ] } },
{ "type": "Feature", "properties": { "strassenschluessel": "05966000000812162", "bezeichnung": "An der Schlade" }, "geometry": { "type": "Point", "coordinates": [ 7.81949202385592, 51.058442620797315 ] } },
{ "type": "Feature", "properties": { "strassenschluessel": "05966000000812163", "bezeichnung": "Dumicker Straße" }, "geometry": { "type": "Point", "coordinates": [ 7.821476839991814, 51.059681006209175 ] } },
{ "type": "Feature", "properties": { "strassenschluessel": "05966000000812164", "bezeichnung": "Lüttemicke" }, "geometry": { "type": "Point", "coordinates": [ 7.818307672560073, 51.059803170523182 ] } },
{ "type": "Feature", "properties": { "strassenschluessel": "05966000000812165", "bezeichnung": "Zum Listersee" }, "geometry": { "type": "Point", "coordinates": [ 7.822000916800915, 51.06187525486839 ] } },
{ "type": "Feature", "properties": { "strassenschluessel": "05966000000812166", "bezeichnung": "Lüttjenhan" }, "geometry": { "type": "Point", "coordinates": [ 7.819869293681346, 51.06042528902789 ] } },
{ "type": "Feature", "properties": { "strassenschluessel": "05966000000812167", "bezeichnung": "Kückelburg" }, "geometry": { "type": "Point", "coordinates": [ 7.821263144328628, 51.061413949863784 ] } },
{ "type": "Feature", "properties": { "strassenschluessel": "05966000000812168", "bezeichnung": "Zur Bitze" }, "geometry": { "type": "Point", "coordinates": [ 7.819308593778863, 51.058197728240415 ] } },
{ "type": "Feature", "properties": { "strassenschluessel": "05966000000812171", "bezeichnung": "Am Bahnhof" }, "geometry": { "type": "Point", "coordinates": [ 7.808398973907845, 51.022197307314663 ] } },
{ "type": "Feature", "properties": { "strassenschluessel": "05966000000812172", "bezeichnung": "In der Schlade" }, "geometry": { "type": "Point", "coordinates": [ 7.801624369289899, 51.022882451176585 ] } },
{ "type": "Feature", "properties": { "strassenschluessel": "05966000000812173", "bezeichnung": "Mittelweg" }, "geometry": { "type": "Point", "coordinates": [ 7.804337822956, 51.021294140490049 ] } },
{ "type": "Feature", "properties": { "strassenschluessel": "05966000000812174", "bezeichnung": "Unterdorf" }, "geometry": { "type": "Point", "coordinates": [ 7.812072142614407, 51.022273604003743 ] } },
{ "type": "Feature", "properties": { "strassenschluessel": "05966000000812175", "bezeichnung": "Zum Oberdorf" }, "geometry": { "type": "Point", "coordinates": [ 7.807760602044519, 51.021859300027955 ] } },
{ "type": "Feature", "properties": { "strassenschluessel": "05966000000812181", "bezeichnung": "Im Weiler" }, "geometry": { "type": "Point", "coordinates": [ 7.781204208105884, 51.044257729474225 ] } },
{ "type": "Feature", "properties": { "strassenschluessel": "05966000000812182", "bezeichnung": "Im Wohld" }, "geometry": { "type": "Point", "coordinates": [ 7.783457207582946, 51.043642262919128 ] } },
{ "type": "Feature", "properties": { "strassenschluessel": "05966000000812183", "bezeichnung": "In der Höh" }, "geometry": { "type": "Point", "coordinates": [ 7.779732162490293, 51.043719531860368 ] } },
{ "type": "Feature", "properties": { "strassenschluessel": "05966000000812184", "bezeichnung": "Höherhaus" }, "geometry": { "type": "Point", "coordinates": [ 7.780147226576014, 51.045617014341694 ] } },
{ "type": "Feature", "properties": { "strassenschluessel": "05966000000812186", "bezeichnung": "Buchhagener Weg" }, "geometry": { "type": "Point", "coordinates": [ 7.788364128826354, 51.005643044773535 ] } },
{ "type": "Feature", "properties": { "strassenschluessel": "05966000000812187", "bezeichnung": "Dreieckweg" }, "geometry": { "type": "Point", "coordinates": [ 7.795210482313053, 51.0030387023142 ] } },
{ "type": "Feature", "properties": { "strassenschluessel": "05966000000812188", "bezeichnung": "Zur Stuwicke" }, "geometry": { "type": "Point", "coordinates": [ 7.797566530482847, 51.007246204369437 ] } },
{ "type": "Feature", "properties": { "strassenschluessel": "05966000000812191", "bezeichnung": "Agathaweg" }, "geometry": { "type": "Point", "coordinates": [ 7.815968631499929, 51.038771665932067 ] } },
{ "type": "Feature", "properties": { "strassenschluessel": "05966000000812192", "bezeichnung": "Alperscheider Weg" }, "geometry": { "type": "Point", "coordinates": [ 7.81203634725058, 51.041757883596055 ] } },
{ "type": "Feature", "properties": { "strassenschluessel": "05966000000812193", "bezeichnung": "Am Hebberg" }, "geometry": { "type": "Point", "coordinates": [ 7.817174566240948, 51.03865030793574 ] } },
{ "type": "Feature", "properties": { "strassenschluessel": "05966000000812194", "bezeichnung": "Auf der Heide" }, "geometry": { "type": "Point", "coordinates": [ 7.817854824647919, 51.038987327619125 ] } },
{ "type": "Feature", "properties": { "strassenschluessel": "05966000000812195", "bezeichnung": "Biggeseestraße" }, "geometry": { "type": "Point", "coordinates": [ 7.815348870638276, 51.038068754252841 ] } },
{ "type": "Feature", "properties": { "strassenschluessel": "05966000000812196", "bezeichnung": "Franziskusstraße" }, "geometry": { "type": "Point", "coordinates": [ 7.809697281126565, 51.03919504289663 ] } },
{ "type": "Feature", "properties": { "strassenschluessel": "05966000000812197", "bezeichnung": "Sonnenstraße" }, "geometry": { "type": "Point", "coordinates": [ 7.817378940963304, 51.03811340856074 ] } },
{ "type": "Feature", "properties": { "strassenschluessel": "05966000000812198", "bezeichnung": "Vorm Hofe" }, "geometry": { "type": "Point", "coordinates": [ 7.808814589209341, 51.039733532867011 ] } },
{ "type": "Feature", "properties": { "strassenschluessel": "05966000000812199", "bezeichnung": "Zur Hofwiese" }, "geometry": { "type": "Point", "coordinates": [ 7.811052624098061, 51.038117612838512 ] } },
{ "type": "Feature", "properties": { "strassenschluessel": "05966000000812200", "bezeichnung": "An der Tränke" }, "geometry": { "type": "Point", "coordinates": [ 7.810656068098599, 51.039008437375259 ] } },
{ "type": "Feature", "properties": { "strassenschluessel": "05966000000812201", "bezeichnung": "Am Markhagen" }, "geometry": { "type": "Point", "coordinates": [ 7.810073830957699, 51.040957329190775 ] } },
{ "type": "Feature", "properties": { "strassenschluessel": "05966000000812211", "bezeichnung": "Landwehrweg" }, "geometry": { "type": "Point", "coordinates": [ 7.730069553375418, 51.002615634970041 ] } },
{ "type": "Feature", "properties": { "strassenschluessel": "05966000000812212", "bezeichnung": "Höhenweg" }, "geometry": { "type": "Point", "coordinates": [ 7.735394507507658, 51.004801975691883 ] } },
{ "type": "Feature", "properties": { "strassenschluessel": "05966000000812213", "bezeichnung": "Im Wäldchen" }, "geometry": { "type": "Point", "coordinates": [ 7.732112249011421, 51.003604915363482 ] } },
{ "type": "Feature", "properties": { "strassenschluessel": "05966000000812221", "bezeichnung": "Alte Dorfstraße" }, "geometry": { "type": "Point", "coordinates": [ 7.754799337409192, 51.052994626876817 ] } },
{ "type": "Feature", "properties": { "strassenschluessel": "05966000000812222", "bezeichnung": "Auf der Glate" }, "geometry": { "type": "Point", "coordinates": [ 7.759506137317845, 51.051516174504272 ] } },
{ "type": "Feature", "properties": { "strassenschluessel": "05966000000812223", "bezeichnung": "Birkenweg" }, "geometry": { "type": "Point", "coordinates": [ 7.761075904515362, 51.053730473976408 ] } },
{ "type": "Feature", "properties": { "strassenschluessel": "05966000000812224", "bezeichnung": "Buchenweg" }, "geometry": { "type": "Point", "coordinates": [ 7.761178514139485, 51.053295543050737 ] } },
{ "type": "Feature", "properties": { "strassenschluessel": "05966000000812225", "bezeichnung": "Unterm Auwer" }, "geometry": { "type": "Point", "coordinates": [ 7.757784437908464, 51.053174164896134 ] } },
{ "type": "Feature", "properties": { "strassenschluessel": "05966000000812226", "bezeichnung": "Unterm Hölzchen" }, "geometry": { "type": "Point", "coordinates": [ 7.760382597832204, 51.052058697086899 ] } },
{ "type": "Feature", "properties": { "strassenschluessel": "05966000000812227", "bezeichnung": "Zum Schlagbaum" }, "geometry": { "type": "Point", "coordinates": [ 7.749384479548347, 51.056080703458967 ] } },
{ "type": "Feature", "properties": { "strassenschluessel": "05966000000812228", "bezeichnung": "Im Ohle" }, "geometry": { "type": "Point", "coordinates": [ 7.762169062036179, 51.054433598930366 ] } },
{ "type": "Feature", "properties": { "strassenschluessel": "05966000000812229", "bezeichnung": "Alfons-Lütticke-Weg" }, "geometry": { "type": "Point", "coordinates": [ 7.753100347210236, 51.053045478475276 ] } },
{ "type": "Feature", "properties": { "strassenschluessel": "05966000000812230", "bezeichnung": "Am Sassenhof" }, "geometry": null },
{ "type": "Feature", "properties": { "strassenschluessel": "05966000000812231", "bezeichnung": "Buchholz" }, "geometry": { "type": "Point", "coordinates": [ 7.756087685943313, 51.054688851449662 ] } },
{ "type": "Feature", "properties": { "strassenschluessel": "05966000000812232", "bezeichnung": "Langenheid" }, "geometry": { "type": "Point", "coordinates": [ 7.753457637757496, 51.05410342422897 ] } },
{ "type": "Feature", "properties": { "strassenschluessel": "05966000000812233", "bezeichnung": "An der Wahre" }, "geometry": { "type": "Point", "coordinates": [ 7.749467043041036, 51.050321216127365 ] } },
{ "type": "Feature", "properties": { "strassenschluessel": "05966000000812234", "bezeichnung": "Am Schlotstück" }, "geometry": { "type": "Point", "coordinates": [ 7.759829850653238, 51.051513737799091 ] } },
{ "type": "Feature", "properties": { "strassenschluessel": "05966000000812241", "bezeichnung": "Brandenburger Straße" }, "geometry": { "type": "Point", "coordinates": [ 7.763247784732294, 50.990601009261411 ] } },
{ "type": "Feature", "properties": { "strassenschluessel": "05966000000812242", "bezeichnung": "Grüner Weg" }, "geometry": { "type": "Point", "coordinates": [ 7.760855781546402, 50.991152485335192 ] } },
{ "type": "Feature", "properties": { "strassenschluessel": "05966000000812243", "bezeichnung": "Lärchenweg" }, "geometry": { "type": "Point", "coordinates": [ 7.764709551244865, 50.988754495550005 ] } },
{ "type": "Feature", "properties": { "strassenschluessel": "05966000000812244", "bezeichnung": "Rother Weg" }, "geometry": { "type": "Point", "coordinates": [ 7.760936351312214, 50.990518230940509 ] } },
{ "type": "Feature", "properties": { "strassenschluessel": "05966000000812245", "bezeichnung": "Zur Schlade" }, "geometry": { "type": "Point", "coordinates": [ 7.762129131182443, 50.989243554187311 ] } },
{ "type": "Feature", "properties": { "strassenschluessel": "05966000000812246", "bezeichnung": "An der Heilde" }, "geometry": { "type": "Point", "coordinates": [ 7.761904586843085, 50.990400815333714 ] } },
{ "type": "Feature", "properties": { "strassenschluessel": "05966000000812247", "bezeichnung": "Ahornweg" }, "geometry": { "type": "Point", "coordinates": [ 7.764015443022708, 50.989909267100956 ] } },
{ "type": "Feature", "properties": { "strassenschluessel": "05966000000812248", "bezeichnung": "Iseringhauser Weg" }, "geometry": { "type": "Point", "coordinates": [ 7.764619748439009, 50.99127079780218 ] } },
{ "type": "Feature", "properties": { "strassenschluessel": "05966000000812251", "bezeichnung": "Am Hain" }, "geometry": { "type": "Point", "coordinates": [ 7.767804837773321, 51.064233365869171 ] } },
{ "type": "Feature", "properties": { "strassenschluessel": "05966000000812252", "bezeichnung": "Finkenweg" }, "geometry": { "type": "Point", "coordinates": [ 7.767520977805815, 51.065402606978253 ] } },
{ "type": "Feature", "properties": { "strassenschluessel": "05966000000812253", "bezeichnung": "Piewickweg" }, "geometry": { "type": "Point", "coordinates": [ 7.765640872724268, 51.065741850318162 ] } },
{ "type": "Feature", "properties": { "strassenschluessel": "05966000000812254", "bezeichnung": "Spechtweg" }, "geometry": { "type": "Point", "coordinates": [ 7.767048047566633, 51.066015525669194 ] } },
{ "type": "Feature", "properties": { "strassenschluessel": "05966000000812255", "bezeichnung": "Unter den Fichten" }, "geometry": { "type": "Point", "coordinates": [ 7.774518889341521, 51.059722754371414 ] } },
{ "type": "Feature", "properties": { "strassenschluessel": "05966000000812261", "bezeichnung": "Am Heile" }, "geometry": { "type": "Point", "coordinates": [ 7.792656084035808, 51.069575843141706 ] } },
{ "type": "Feature", "properties": { "strassenschluessel": "05966000000812262", "bezeichnung": "Am Herpelbach" }, "geometry": { "type": "Point", "coordinates": [ 7.795360283234276, 51.070465417535644 ] } },
{ "type": "Feature", "properties": { "strassenschluessel": "05966000000812263", "bezeichnung": "Am Lindenberg" }, "geometry": { "type": "Point", "coordinates": [ 7.792933001503788, 51.066898827136114 ] } },
{ "type": "Feature", "properties": { "strassenschluessel": "05966000000812264", "bezeichnung": "An der Heidnocke" }, "geometry": { "type": "Point", "coordinates": [ 7.79306524795173, 51.070654826493524 ] } },
{ "type": "Feature", "properties": { "strassenschluessel": "05966000000812265", "bezeichnung": "Breite Wende" }, "geometry": { "type": "Point", "coordinates": [ 7.794703647152755, 51.07147086064716 ] } },
{ "type": "Feature", "properties": { "strassenschluessel": "05966000000812266", "bezeichnung": "Seestraße" }, "geometry": { "type": "Point", "coordinates": [ 7.790867499340112, 51.068115437793374 ] } },
{ "type": "Feature", "properties": { "strassenschluessel": "05966000000812267", "bezeichnung": "Stengemicke" }, "geometry": { "type": "Point", "coordinates": [ 7.791265247288552, 51.068607106124198 ] } },
{ "type": "Feature", "properties": { "strassenschluessel": "05966000000812281", "bezeichnung": "Am Köpfchen" }, "geometry": { "type": "Point", "coordinates": [ 7.759824544505782, 50.994997591124623 ] } },
{ "type": "Feature", "properties": { "strassenschluessel": "05966000000812282", "bezeichnung": "Im Ellseifen" }, "geometry": { "type": "Point", "coordinates": [ 7.75317894216369, 50.99260040045975 ] } },
{ "type": "Feature", "properties": { "strassenschluessel": "05966000000812283", "bezeichnung": "Im Tiergarten" }, "geometry": { "type": "Point", "coordinates": [ 7.752605243975045, 50.991071076212407 ] } },
{ "type": "Feature", "properties": { "strassenschluessel": "05966000000812284", "bezeichnung": "Vorm Bruch" }, "geometry": { "type": "Point", "coordinates": [ 7.75455442442626, 50.988439824877986 ] } },
{ "type": "Feature", "properties": { "strassenschluessel": "05966000000812285", "bezeichnung": "Zur Silberkuhle" }, "geometry": { "type": "Point", "coordinates": [ 7.754355253639069, 50.991455871728164 ] } },
{ "type": "Feature", "properties": { "strassenschluessel": "05966000000812286", "bezeichnung": "Otzemicker Weg" }, "geometry": { "type": "Point", "coordinates": [ 7.757492158077659, 50.994152568692883 ] } },
{ "type": "Feature", "properties": { "strassenschluessel": "05966000000812287", "bezeichnung": "Am Hepper" }, "geometry": { "type": "Point", "coordinates": [ 7.752943137572821, 50.991978457785891 ] } },
{ "type": "Feature", "properties": { "strassenschluessel": "05966000000812288", "bezeichnung": "Am Eckerberg" }, "geometry": { "type": "Point", "coordinates": [ 7.755279504978158, 50.993292345011078 ] } },
{ "type": "Feature", "properties": { "strassenschluessel": "05966000000812291", "bezeichnung": "An der Kapelle" }, "geometry": { "type": "Point", "coordinates": [ 7.753914709194123, 51.034810416336605 ] } },
{ "type": "Feature", "properties": { "strassenschluessel": "05966000000812292", "bezeichnung": "Belmicker Weg" }, "geometry": { "type": "Point", "coordinates": [ 7.751505498609002, 51.036223382684291 ] } },
{ "type": "Feature", "properties": { "strassenschluessel": "05966000000812293", "bezeichnung": "Germinghauser Weg" }, "geometry": { "type": "Point", "coordinates": [ 7.751441712483387, 51.040391164487097 ] } },
{ "type": "Feature", "properties": { "strassenschluessel": "05966000000812294", "bezeichnung": "Hauptstraße" }, "geometry": { "type": "Point", "coordinates": [ 7.754990343130982, 51.034713238634716 ] } },
{ "type": "Feature", "properties": { "strassenschluessel": "05966000000812295", "bezeichnung": "Hühnerseifen" }, "geometry": { "type": "Point", "coordinates": [ 7.751766298148591, 51.035780139550432 ] } },
{ "type": "Feature", "properties": { "strassenschluessel": "05966000000812296", "bezeichnung": "Im Herrnscheid" }, "geometry": { "type": "Point", "coordinates": [ 7.755830294013831, 51.033400958707958 ] } },
{ "type": "Feature", "properties": { "strassenschluessel": "05966000000812297", "bezeichnung": "Kapellenweg" }, "geometry": { "type": "Point", "coordinates": [ 7.754058605830145, 51.034397153711403 ] } },
{ "type": "Feature", "properties": { "strassenschluessel": "05966000000812298", "bezeichnung": "Krummer Weg" }, "geometry": { "type": "Point", "coordinates": [ 7.751711597864029, 51.035075340010174 ] } },
{ "type": "Feature", "properties": { "strassenschluessel": "05966000000812299", "bezeichnung": "Schulweg" }, "geometry": { "type": "Point", "coordinates": [ 7.747048506622981, 51.03825197434508 ] } },
{ "type": "Feature", "properties": { "strassenschluessel": "05966000000812300", "bezeichnung": "Stuckenfeld" }, "geometry": { "type": "Point", "coordinates": [ 7.758558378100529, 51.035673681266637 ] } },
{ "type": "Feature", "properties": { "strassenschluessel": "05966000000812301", "bezeichnung": "Talstraße" }, "geometry": { "type": "Point", "coordinates": [ 7.753684503428262, 51.036876064636694 ] } },
{ "type": "Feature", "properties": { "strassenschluessel": "05966000000812302", "bezeichnung": "Unter der Löwe" }, "geometry": { "type": "Point", "coordinates": [ 7.750800670624842, 51.036224725945004 ] } },
{ "type": "Feature", "properties": { "strassenschluessel": "05966000000812303", "bezeichnung": "Vorm Bahnhof" }, "geometry": { "type": "Point", "coordinates": [ 7.750409899046043, 51.038854366747515 ] } },
{ "type": "Feature", "properties": { "strassenschluessel": "05966000000812304", "bezeichnung": "Auf'm Kalper" }, "geometry": { "type": "Point", "coordinates": [ 7.755977558796675, 51.03618779479843 ] } },
{ "type": "Feature", "properties": { "strassenschluessel": "05966000000812305", "bezeichnung": "Breites Stück" }, "geometry": { "type": "Point", "coordinates": [ 7.749482767295719, 51.03740101844464 ] } },
{ "type": "Feature", "properties": { "strassenschluessel": "05966000000812306", "bezeichnung": "Aufm Dreisch" }, "geometry": { "type": "Point", "coordinates": [ 7.75002676136599, 51.034210945343091 ] } },
{ "type": "Feature", "properties": { "strassenschluessel": "05966000000812307", "bezeichnung": "Häckelchen" }, "geometry": { "type": "Point", "coordinates": [ 7.748920616835311, 51.036660228204191 ] } },
{ "type": "Feature", "properties": { "strassenschluessel": "05966000000812308", "bezeichnung": "Stockhagen" }, "geometry": { "type": "Point", "coordinates": [ 7.750002979905738, 51.034908206651593 ] } },
{ "type": "Feature", "properties": { "strassenschluessel": "05966000000812309", "bezeichnung": "Feldstraße" }, "geometry": { "type": "Point", "coordinates": [ 7.757428482229902, 51.037553621732791 ] } },
{ "type": "Feature", "properties": { "strassenschluessel": "05966000000812310", "bezeichnung": "Am Höhwege" }, "geometry": { "type": "Point", "coordinates": [ 7.755294420102134, 51.037695227685305 ] } },
{ "type": "Feature", "properties": { "strassenschluessel": "05966000000812311", "bezeichnung": "Am Sportplatz" }, "geometry": { "type": "Point", "coordinates": [ 7.753569721063317, 51.038317892684823 ] } },
{ "type": "Feature", "properties": { "strassenschluessel": "05966000000812312", "bezeichnung": "Ginsterweg" }, "geometry": { "type": "Point", "coordinates": [ 7.754738882182471, 51.037324575502488 ] } },
{ "type": "Feature", "properties": { "strassenschluessel": "05966000000812313", "bezeichnung": "Talblick" }, "geometry": { "type": "Point", "coordinates": [ 7.755320740819232, 51.036971113219245 ] } },
{ "type": "Feature", "properties": { "strassenschluessel": "05966000000812314", "bezeichnung": "Tiggesweg" }, "geometry": { "type": "Point", "coordinates": [ 7.752866950947948, 51.038182974315838 ] } },
{ "type": "Feature", "properties": { "strassenschluessel": "05966000000812315", "bezeichnung": "Zur Eulenbuche" }, "geometry": { "type": "Point", "coordinates": [ 7.753339071824012, 51.038000843156915 ] } },
{ "type": "Feature", "properties": { "strassenschluessel": "05966000000812320", "bezeichnung": "Am Spritzenhaus" }, "geometry": { "type": "Point", "coordinates": [ 7.778171613837283, 50.999082960645488 ] } },
{ "type": "Feature", "properties": { "strassenschluessel": "05966000000812321", "bezeichnung": "Am Dorfe" }, "geometry": { "type": "Point", "coordinates": [ 7.780141454195184, 50.996299876089083 ] } },
{ "type": "Feature", "properties": { "strassenschluessel": "05966000000812322", "bezeichnung": "Am Nocken" }, "geometry": { "type": "Point", "coordinates": [ 7.774732138686787, 50.999704049806112 ] } },
{ "type": "Feature", "properties": { "strassenschluessel": "05966000000812323", "bezeichnung": "Auf dem Wigger" }, "geometry": { "type": "Point", "coordinates": [ 7.780531936432204, 50.997034934035064 ] } },
{ "type": "Feature", "properties": { "strassenschluessel": "05966000000812324", "bezeichnung": "Auf der Hütte" }, "geometry": { "type": "Point", "coordinates": [ 7.775408291715258, 50.997072335797569 ] } },
{ "type": "Feature", "properties": { "strassenschluessel": "05966000000812325", "bezeichnung": "Brachtpetalstraße" }, "geometry": { "type": "Point", "coordinates": [ 7.780362798093435, 50.997615757012049 ] } },
{ "type": "Feature", "properties": { "strassenschluessel": "05966000000812326", "bezeichnung": "Schützenstraße" }, "geometry": { "type": "Point", "coordinates": [ 7.778563775839078, 50.997203924914317 ] } },
{ "type": "Feature", "properties": { "strassenschluessel": "05966000000812327", "bezeichnung": "Zur Vogelstange" }, "geometry": { "type": "Point", "coordinates": [ 7.777557953496268, 50.995846559945576 ] } },
{ "type": "Feature", "properties": { "strassenschluessel": "05966000000812328", "bezeichnung": "Am Bogen" }, "geometry": { "type": "Point", "coordinates": [ 7.775926492839036, 50.998619874170089 ] } },
{ "type": "Feature", "properties": { "strassenschluessel": "05966000000812329", "bezeichnung": "Zur Klauert" }, "geometry": { "type": "Point", "coordinates": [ 7.774802523914095, 50.999267569906259 ] } },
{ "type": "Feature", "properties": { "strassenschluessel": "05966000000812330", "bezeichnung": "Am Kreuzberg" }, "geometry": { "type": "Point", "coordinates": [ 7.773749280399654, 50.998499008635783 ] } },
{ "type": "Feature", "properties": { "strassenschluessel": "05966000000812331", "bezeichnung": "Homborgstraße" }, "geometry": { "type": "Point", "coordinates": [ 7.77754141612388, 50.999633110715934 ] } },
{ "type": "Feature", "properties": { "strassenschluessel": "05966000000812332", "bezeichnung": "Weinfeld" }, "geometry": { "type": "Point", "coordinates": [ 7.78192432871379, 50.998059609028374 ] } },
{ "type": "Feature", "properties": { "strassenschluessel": "05966000000812333", "bezeichnung": "Wiggerhof" }, "geometry": { "type": "Point", "coordinates": [ 7.778970397704523, 50.995392206733712 ] } },
{ "type": "Feature", "properties": { "strassenschluessel": "05966000000812334", "bezeichnung": "Antoniusstraße" }, "geometry": { "type": "Point", "coordinates": [ 7.779377874875239, 51.000314948076223 ] } },
{ "type": "Feature", "properties": { "strassenschluessel": "05966000000812335", "bezeichnung": "Kastanienweg" }, "geometry": { "type": "Point", "coordinates": [ 7.780505620491761, 50.999630448945716 ] } },
{ "type": "Feature", "properties": { "strassenschluessel": "05966000000812336", "bezeichnung": "Tannenweg" }, "geometry": { "type": "Point", "coordinates": [ 7.780874004700487, 51.000183797394307 ] } },
{ "type": "Feature", "properties": { "strassenschluessel": "05966000000812337", "bezeichnung": "Waldweg" }, "geometry": { "type": "Point", "coordinates": [ 7.780075495785481, 51.000845767017893 ] } },
{ "type": "Feature", "properties": { "strassenschluessel": "05966000000812341", "bezeichnung": "Alte Dorfstraße" }, "geometry": { "type": "Point", "coordinates": [ 7.761962098607552, 51.054886148338234 ] } },
{ "type": "Feature", "properties": { "strassenschluessel": "05966000000812342", "bezeichnung": "Am Frohnen Wenden" }, "geometry": { "type": "Point", "coordinates": [ 7.761370196529439, 51.055938839100833 ] } },
{ "type": "Feature", "properties": { "strassenschluessel": "05966000000812343", "bezeichnung": "Heidnocken" }, "geometry": { "type": "Point", "coordinates": [ 7.761590962719534, 51.051888908016217 ] } },
{ "type": "Feature", "properties": { "strassenschluessel": "05966000000812344", "bezeichnung": "Sengenauer Weg" }, "geometry": { "type": "Point", "coordinates": [ 7.762919760902835, 51.055007054175199 ] } },
{ "type": "Feature", "properties": { "strassenschluessel": "05966000000812351", "bezeichnung": "Am Garten" }, "geometry": { "type": "Point", "coordinates": [ 7.708898620562019, 51.067214393906077 ] } },
{ "type": "Feature", "properties": { "strassenschluessel": "05966000000812352", "bezeichnung": "Am Kleefeld" }, "geometry": { "type": "Point", "coordinates": [ 7.70928919334064, 51.068071133148344 ] } },
{ "type": "Feature", "properties": { "strassenschluessel": "05966000000812353", "bezeichnung": "Aufm Kampe" }, "geometry": { "type": "Point", "coordinates": [ 7.706705114715712, 51.068622465018834 ] } },
{ "type": "Feature", "properties": { "strassenschluessel": "05966000000812354", "bezeichnung": "Graf-Von-Löh-Straße" }, "geometry": { "type": "Point", "coordinates": [ 7.705804169109572, 51.06857760014401 ] } },
{ "type": "Feature", "properties": { "strassenschluessel": "05966000000812355", "bezeichnung": "Zur Deitmicke" }, "geometry": { "type": "Point", "coordinates": [ 7.708420103206606, 51.06676985903659 ] } },
{ "type": "Feature", "properties": { "strassenschluessel": "05966000000812361", "bezeichnung": "Am Heliken" }, "geometry": { "type": "Point", "coordinates": [ 7.805456423870155, 51.03455978569329 ] } },
{ "type": "Feature", "properties": { "strassenschluessel": "05966000000812362", "bezeichnung": "Bergstraße" }, "geometry": { "type": "Point", "coordinates": [ 7.805989333398037, 51.03786896276938 ] } },
{ "type": "Feature", "properties": { "strassenschluessel": "05966000000812363", "bezeichnung": "Rosenthaler Weg" }, "geometry": { "type": "Point", "coordinates": [ 7.80516969711658, 51.036336323929582 ] } },
{ "type": "Feature", "properties": { "strassenschluessel": "05966000000812371", "bezeichnung": "Auf der Hofwiese" }, "geometry": { "type": "Point", "coordinates": [ 7.766298345374958, 51.041686095081872 ] } },
{ "type": "Feature", "properties": { "strassenschluessel": "05966000000812372", "bezeichnung": "Im Neuen Garten" }, "geometry": { "type": "Point", "coordinates": [ 7.764596244586892, 51.042656690494638 ] } },
{ "type": "Feature", "properties": { "strassenschluessel": "05966000000812373", "bezeichnung": "Dorfstraße" }, "geometry": { "type": "Point", "coordinates": [ 7.766285932001676, 51.042475609927898 ] } },
{ "type": "Feature", "properties": { "strassenschluessel": "05966000000812374", "bezeichnung": "Unterm Stucken" }, "geometry": { "type": "Point", "coordinates": [ 7.765133300056948, 51.040711543347804 ] } },
{ "type": "Feature", "properties": { "strassenschluessel": "05966000000812381", "bezeichnung": "Im Hahn" }, "geometry": { "type": "Point", "coordinates": [ 7.743582234006896, 51.059879510952548 ] } },
{ "type": "Feature", "properties": { "strassenschluessel": "05966000000812382", "bezeichnung": "Heerstraße" }, "geometry": { "type": "Point", "coordinates": [ 7.741013174821235, 51.060629000873384 ] } },
{ "type": "Feature", "properties": { "strassenschluessel": "05966000000812383", "bezeichnung": "Zum Höchsten" }, "geometry": { "type": "Point", "coordinates": [ 7.741526021079037, 51.061746068556673 ] } },
{ "type": "Feature", "properties": { "strassenschluessel": "05966000000812384", "bezeichnung": "An der Sange" }, "geometry": { "type": "Point", "coordinates": [ 7.744290568008251, 51.062168125834567 ] } },
{ "type": "Feature", "properties": { "strassenschluessel": "05966000000812385", "bezeichnung": "In der Fuhr" }, "geometry": { "type": "Point", "coordinates": [ 7.740168495587939, 51.062565521970683 ] } },
{ "type": "Feature", "properties": { "strassenschluessel": "05966000000812386", "bezeichnung": "An der Weide" }, "geometry": { "type": "Point", "coordinates": [ 7.74415133215759, 51.061588299225825 ] } },
{ "type": "Feature", "properties": { "strassenschluessel": "05966000000812387", "bezeichnung": "In der Kuhle" }, "geometry": { "type": "Point", "coordinates": [ 7.744120189111561, 51.060658678676852 ] } },
{ "type": "Feature", "properties": { "strassenschluessel": "05966000000812388", "bezeichnung": "Gewerbeparkstraße" }, "geometry": { "type": "Point", "coordinates": [ 7.739545587603453, 51.056079609724513 ] } },
{ "type": "Feature", "properties": { "strassenschluessel": "05966000000812389", "bezeichnung": "Am langen Stück" }, "geometry": { "type": "Point", "coordinates": [ 7.741901262148573, 51.059157889561341 ] } },
{ "type": "Feature", "properties": { "strassenschluessel": "05966000000812390", "bezeichnung": "Eisenstraße" }, "geometry": { "type": "Point", "coordinates": [ 7.739277789340195, 51.058273453700146 ] } },
{ "type": "Feature", "properties": { "strassenschluessel": "05966000000812391", "bezeichnung": "Am Bubengarten" }, "geometry": { "type": "Point", "coordinates": [ 7.720723605299936, 51.056827020731461 ] } },
{ "type": "Feature", "properties": { "strassenschluessel": "05966000000812392", "bezeichnung": "An der Eie" }, "geometry": { "type": "Point", "coordinates": [ 7.719049961195937, 51.056502445260136 ] } },
{ "type": "Feature", "properties": { "strassenschluessel": "05966000000812393", "bezeichnung": "Zum Springer" }, "geometry": { "type": "Point", "coordinates": [ 7.718571452824792, 51.056870575099012 ] } },
{ "type": "Feature", "properties": { "strassenschluessel": "05966000000812401", "bezeichnung": "Am Eickenhahn" }, "geometry": { "type": "Point", "coordinates": [ 7.779207864307402, 51.066778166434709 ] } },
{ "type": "Feature", "properties": { "strassenschluessel": "05966000000812402", "bezeichnung": "Am Pädchen" }, "geometry": { "type": "Point", "coordinates": [ 7.781253359584571, 51.066067569316665 ] } },
{ "type": "Feature", "properties": { "strassenschluessel": "05966000000812403", "bezeichnung": "Am Steinfeld" }, "geometry": { "type": "Point", "coordinates": [ 7.777742211042032, 51.065735490468214 ] } },
{ "type": "Feature", "properties": { "strassenschluessel": "05966000000812404", "bezeichnung": "Im Buchhagen" }, "geometry": { "type": "Point", "coordinates": [ 7.774468145124558, 51.063834933411627 ] } },
{ "type": "Feature", "properties": { "strassenschluessel": "05966000000812405", "bezeichnung": "Listerstraße" }, "geometry": { "type": "Point", "coordinates": [ 7.776734626327681, 51.063827264732254 ] } },
{ "type": "Feature", "properties": { "strassenschluessel": "05966000000812406", "bezeichnung": "Oberm Brinke" }, "geometry": { "type": "Point", "coordinates": [ 7.781771103994565, 51.066970243705633 ] } },
{ "type": "Feature", "properties": { "strassenschluessel": "05966000000812407", "bezeichnung": "Unterm Feuerteich" }, "geometry": { "type": "Point", "coordinates": [ 7.778378443757919, 51.065477995760119 ] } },
{ "type": "Feature", "properties": { "strassenschluessel": "05966000000812408", "bezeichnung": "Unterm Timmerberg" }, "geometry": { "type": "Point", "coordinates": [ 7.778285497049787, 51.063481164966483 ] } },
{ "type": "Feature", "properties": { "strassenschluessel": "05966000000812409", "bezeichnung": "Zum Eckkamp" }, "geometry": { "type": "Point", "coordinates": [ 7.776396124071178, 51.067337255237746 ] } },
{ "type": "Feature", "properties": { "strassenschluessel": "05966000000812410", "bezeichnung": "Zur alten Kapelle" }, "geometry": { "type": "Point", "coordinates": [ 7.77874700120134, 51.063041985130475 ] } },
{ "type": "Feature", "properties": { "strassenschluessel": "05966000000812411", "bezeichnung": "Zur Delle" }, "geometry": { "type": "Point", "coordinates": [ 7.782823557008812, 51.066684391386218 ] } },
{ "type": "Feature", "properties": { "strassenschluessel": "05966000000812412", "bezeichnung": "Seeblick" }, "geometry": { "type": "Point", "coordinates": [ 7.779847082258731, 51.067029949542842 ] } },
{ "type": "Feature", "properties": { "strassenschluessel": "05966000000812413", "bezeichnung": "Zur Beichel" }, "geometry": { "type": "Point", "coordinates": [ 7.779213336033539, 51.067546138771561 ] } },
{ "type": "Feature", "properties": { "strassenschluessel": "05966000000812414", "bezeichnung": "Laurentiusweg" }, "geometry": { "type": "Point", "coordinates": [ 7.776861636822158, 51.066591136793662 ] } },
{ "type": "Feature", "properties": { "strassenschluessel": "05966000000812431", "bezeichnung": "Am Bauckhahn" }, "geometry": { "type": "Point", "coordinates": [ 7.743809222575698, 51.048012830789844 ] } },
{ "type": "Feature", "properties": { "strassenschluessel": "05966000000812432", "bezeichnung": "Am Hovestadt" }, "geometry": { "type": "Point", "coordinates": [ 7.742495920441829, 51.048692461951894 ] } },
{ "type": "Feature", "properties": { "strassenschluessel": "05966000000812433", "bezeichnung": "Am Sessenhahn" }, "geometry": { "type": "Point", "coordinates": [ 7.740075367492739, 51.043971755569828 ] } },
{ "type": "Feature", "properties": { "strassenschluessel": "05966000000812434", "bezeichnung": "Blumenweg" }, "geometry": { "type": "Point", "coordinates": [ 7.740976070566578, 51.045284576883269 ] } },
{ "type": "Feature", "properties": { "strassenschluessel": "05966000000812435", "bezeichnung": "Kölner Straße" }, "geometry": { "type": "Point", "coordinates": [ 7.741969907870339, 51.043214614431335 ] } },
{ "type": "Feature", "properties": { "strassenschluessel": "05966000000812436", "bezeichnung": "Kurzer Weg" }, "geometry": { "type": "Point", "coordinates": [ 7.741105158337923, 51.045091046825668 ] } },
{ "type": "Feature", "properties": { "strassenschluessel": "05966000000812437", "bezeichnung": "Landstraße" }, "geometry": { "type": "Point", "coordinates": [ 7.741690673230933, 51.045236122052437 ] } },
{ "type": "Feature", "properties": { "strassenschluessel": "05966000000812438", "bezeichnung": "Rohlandweg" }, "geometry": { "type": "Point", "coordinates": [ 7.74362773671324, 51.048418832676383 ] } },
{ "type": "Feature", "properties": { "strassenschluessel": "05966000000812439", "bezeichnung": "Unter der Schule" }, "geometry": { "type": "Point", "coordinates": [ 7.744924476606541, 51.045351932384094 ] } },
{ "type": "Feature", "properties": { "strassenschluessel": "05966000000812440", "bezeichnung": "Zum Wiesental" }, "geometry": { "type": "Point", "coordinates": [ 7.743557331915764, 51.045604302976045 ] } },
{ "type": "Feature", "properties": { "strassenschluessel": "05966000000812441", "bezeichnung": "Zur Wahlert" }, "geometry": { "type": "Point", "coordinates": [ 7.740416241807292, 51.046048110060724 ] } },
{ "type": "Feature", "properties": { "strassenschluessel": "05966000000812442", "bezeichnung": "Aloisiusweg" }, "geometry": { "type": "Point", "coordinates": [ 7.743577556935655, 51.046113265645431 ] } },
{ "type": "Feature", "properties": { "strassenschluessel": "05966000000812451", "bezeichnung": "Am Schmand" }, "geometry": { "type": "Point", "coordinates": [ 7.797800119200472, 51.027886863373794 ] } },
{ "type": "Feature", "properties": { "strassenschluessel": "05966000000812452", "bezeichnung": "Olper Straße" }, "geometry": { "type": "Point", "coordinates": [ 7.798435508335162, 51.027532128436825 ] } },
{ "type": "Feature", "properties": { "strassenschluessel": "05966000000812453", "bezeichnung": "Unterm Espen" }, "geometry": { "type": "Point", "coordinates": [ 7.797287986336001, 51.027360123571555 ] } },
{ "type": "Feature", "properties": { "strassenschluessel": "05966000000812454", "bezeichnung": "Unterm Schmierhagen" }, "geometry": { "type": "Point", "coordinates": [ 7.796811027774663, 51.025825597757752 ] } },
{ "type": "Feature", "properties": { "strassenschluessel": "05966000000812455", "bezeichnung": "Wintersohler Straße" }, "geometry": { "type": "Point", "coordinates": [ 7.801938636111609, 51.03104183586148 ] } },
{ "type": "Feature", "properties": { "strassenschluessel": "05966000000812461", "bezeichnung": "Alperscheid" }, "geometry": { "type": "Point", "coordinates": [ 7.819587162119022, 51.042449715581192 ] } },
{ "type": "Feature", "properties": { "strassenschluessel": "05966000000812465", "bezeichnung": "Heerstraße" }, "geometry": { "type": "Point", "coordinates": [ 7.733029527593648, 51.065197576911913 ] } },
{ "type": "Feature", "properties": { "strassenschluessel": "05966000000812466", "bezeichnung": "Zur alten Schmiede" }, "geometry": { "type": "Point", "coordinates": [ 7.735783781690173, 51.064898406074221 ] } },
{ "type": "Feature", "properties": { "strassenschluessel": "05966000000812471", "bezeichnung": "Breitehardt" }, "geometry": { "type": "Point", "coordinates": [ 7.731257770756276, 51.050101061544325 ] } },
{ "type": "Feature", "properties": { "strassenschluessel": "05966000000812472", "bezeichnung": "Brink" }, "geometry": { "type": "Point", "coordinates": [ 7.785751900447551, 51.066692934358095 ] } },
{ "type": "Feature", "properties": { "strassenschluessel": "05966000000812474", "bezeichnung": "Bruch" }, "geometry": { "type": "Point", "coordinates": [ 7.787611067750063, 51.065574840177305 ] } },
{ "type": "Feature", "properties": { "strassenschluessel": "05966000000812478", "bezeichnung": "Buchhagen" }, "geometry": { "type": "Point", "coordinates": [ 7.780837185923751, 51.007958553111521 ] } },
{ "type": "Feature", "properties": { "strassenschluessel": "05966000000812480", "bezeichnung": "Bühren" }, "geometry": { "type": "Point", "coordinates": [ 7.802150038082519, 51.057561266679905 ] } },
{ "type": "Feature", "properties": { "strassenschluessel": "05966000000812483", "bezeichnung": "Dirkingen" }, "geometry": { "type": "Point", "coordinates": [ 7.769865660654173, 51.011538652839619 ] } },
{ "type": "Feature", "properties": { "strassenschluessel": "05966000000812486", "bezeichnung": "Eichenermühle" }, "geometry": { "type": "Point", "coordinates": [ 7.810523051357329, 51.020476365767117 ] } },
{ "type": "Feature", "properties": { "strassenschluessel": "05966000000812488", "bezeichnung": "Eltge" }, "geometry": { "type": "Point", "coordinates": [ 7.791558148834079, 50.999313588655227 ] } },
{ "type": "Feature", "properties": { "strassenschluessel": "05966000000812491", "bezeichnung": "Fahrenschotten" }, "geometry": { "type": "Point", "coordinates": [ 7.796786039254489, 51.051236024376117 ] } },
{ "type": "Feature", "properties": { "strassenschluessel": "05966000000812497", "bezeichnung": "Frenkhauserhöh" }, "geometry": { "type": "Point", "coordinates": [ 7.805644030227821, 51.041005915799921 ] } },
{ "type": "Feature", "properties": { "strassenschluessel": "05966000000812500", "bezeichnung": "Gipperich" }, "geometry": { "type": "Point", "coordinates": [ 7.747236497733196, 51.025616342095347 ] } },
{ "type": "Feature", "properties": { "strassenschluessel": "05966000000812505", "bezeichnung": "Grünenthal" }, "geometry": { "type": "Point", "coordinates": [ 7.728958601762121, 51.045757846191108 ] } },
{ "type": "Feature", "properties": { "strassenschluessel": "05966000000812506", "bezeichnung": "Hammerteich" }, "geometry": { "type": "Point", "coordinates": [ 7.728801582615438, 51.064308768092395 ] } },
{ "type": "Feature", "properties": { "strassenschluessel": "05966000000812508", "bezeichnung": "Heiderhof" }, "geometry": { "type": "Point", "coordinates": [ 7.784860141320739, 51.002232582694042 ] } },
{ "type": "Feature", "properties": { "strassenschluessel": "05966000000812511", "bezeichnung": "Hespecke" }, "geometry": { "type": "Point", "coordinates": [ 7.719871133060123, 51.068628106922695 ] } },
{ "type": "Feature", "properties": { "strassenschluessel": "05966000000812515", "bezeichnung": "Hustert" }, "geometry": { "type": "Point", "coordinates": [ 7.74598045476635, 51.039516482519126 ] } },
{ "type": "Feature", "properties": { "strassenschluessel": "05966000000812520", "bezeichnung": "Kalberschnacke" }, "geometry": { "type": "Point", "coordinates": [ 7.807479910880947, 51.071012025146111 ] } },
{ "type": "Feature", "properties": { "strassenschluessel": "05966000000812524", "bezeichnung": "Köbbinghausen" }, "geometry": { "type": "Point", "coordinates": [ 7.767247250893715, 51.054305663836743 ] } },
{ "type": "Feature", "properties": { "strassenschluessel": "05966000000812526", "bezeichnung": "Kram" }, "geometry": { "type": "Point", "coordinates": [ 7.760826442377682, 51.070883989613286 ] } },
{ "type": "Feature", "properties": { "strassenschluessel": "05966000000812528", "bezeichnung": "Neuenhaus" }, "geometry": { "type": "Point", "coordinates": [ 7.731104199529449, 51.066378280311 ] } },
{ "type": "Feature", "properties": { "strassenschluessel": "05966000000812530", "bezeichnung": "Potzenhof" }, "geometry": { "type": "Point", "coordinates": [ 7.795427377871087, 51.008100903897869 ] } },
{ "type": "Feature", "properties": { "strassenschluessel": "05966000000812533", "bezeichnung": "Siebringhausen" }, "geometry": { "type": "Point", "coordinates": [ 7.78521258414815, 51.03190744545207 ] } },
{ "type": "Feature", "properties": { "strassenschluessel": "05966000000812536", "bezeichnung": "Schlenke" }, "geometry": { "type": "Point", "coordinates": [ 7.741831649551546, 51.052950515551821 ] } },
{ "type": "Feature", "properties": { "strassenschluessel": "05966000000812540", "bezeichnung": "Schürholz" }, "geometry": null },
{ "type": "Feature", "properties": { "strassenschluessel": "05966000000812541", "bezeichnung": "Zum Knapp" }, "geometry": { "type": "Point", "coordinates": [ 7.775861931686765, 51.071110167065733 ] } },
{ "type": "Feature", "properties": { "strassenschluessel": "05966000000812542", "bezeichnung": "Schürholzer Straße" }, "geometry": { "type": "Point", "coordinates": [ 7.773981413315279, 51.071316563725127 ] } },
{ "type": "Feature", "properties": { "strassenschluessel": "05966000000812543", "bezeichnung": "Zum Bildstock" }, "geometry": { "type": "Point", "coordinates": [ 7.774695522962253, 51.070268303679107 ] } },
{ "type": "Feature", "properties": { "strassenschluessel": "05966000000812545", "bezeichnung": "Schützenbruch" }, "geometry": { "type": "Point", "coordinates": [ 7.751174370665733, 51.059049158630529 ] } },
{ "type": "Feature", "properties": { "strassenschluessel": "05966000000812550", "bezeichnung": "Stupperhof" }, "geometry": { "type": "Point", "coordinates": [ 7.754358421834016, 51.020941801811929 ] } },
{ "type": "Feature", "properties": { "strassenschluessel": "05966000000812551", "bezeichnung": "Wintersohl" }, "geometry": { "type": "Point", "coordinates": [ 7.794197218013765, 51.042907707507432 ] } },
{ "type": "Feature", "properties": { "strassenschluessel": "05966000000812555", "bezeichnung": "Wormberg" }, "geometry": { "type": "Point", "coordinates": [ 7.753673066291692, 51.016551761029298 ] } },
{ "type": "Feature", "properties": { "strassenschluessel": "05966000000812560", "bezeichnung": "Am Apfelhof" }, "geometry": { "type": "Point", "coordinates": [ 7.742161556057054, 51.028823457872527 ] } },
{ "type": "Feature", "properties": { "strassenschluessel": "05966000000812561", "bezeichnung": "Am Lingemert" }, "geometry": { "type": "Point", "coordinates": [ 7.739856513934155, 51.033434670763121 ] } },
{ "type": "Feature", "properties": { "strassenschluessel": "05966000000812562", "bezeichnung": "Vor der Birke" }, "geometry": { "type": "Point", "coordinates": [ 7.742281461999504, 51.030491394681761 ] } },
{ "type": "Feature", "properties": { "strassenschluessel": "05966000000812563", "bezeichnung": "Wiesenstraße" }, "geometry": { "type": "Point", "coordinates": [ 7.746009391603021, 51.029240764349495 ] } },
{ "type": "Feature", "properties": { "strassenschluessel": "05966000000812564", "bezeichnung": "Zum Buchenwald" }, "geometry": { "type": "Point", "coordinates": [ 7.740975473078423, 51.026886210338994 ] } },
{ "type": "Feature", "properties": { "strassenschluessel": "05966000000891550", "bezeichnung": "Benolpe" }, "geometry": null },
{ "type": "Feature", "properties": { "strassenschluessel": "05966000000891551", "bezeichnung": "Bleche" }, "geometry": null },
{ "type": "Feature", "properties": { "strassenschluessel": "05966000000891552", "bezeichnung": "Brachtpe" }, "geometry": null },
{ "type": "Feature", "properties": { "strassenschluessel": "05966000000891553", "bezeichnung": "Drolshagen" }, "geometry": null },
{ "type": "Feature", "properties": { "strassenschluessel": "05966000000891554", "bezeichnung": "Dumicke" }, "geometry": null },
{ "type": "Feature", "properties": { "strassenschluessel": "05966000000891555", "bezeichnung": "Husten" }, "geometry": null },
{ "type": "Feature", "properties": { "strassenschluessel": "059660000008A0004", "bezeichnung": "Köln - Olpe-Süd" }, "geometry": null },
{ "type": "Feature", "properties": { "strassenschluessel": "059660000008A0045", "bezeichnung": "Dortmund - Frankfurt" }, "geometry": null },
{ "type": "Feature", "properties": { "strassenschluessel": "059660000008B0054", "bezeichnung": "Olpe - Meinerzhagen" }, "geometry": null },
{ "type": "Feature", "properties": { "strassenschluessel": "059660000008B0055", "bezeichnung": "Olpe - Meinerzhagen" }, "geometry": null },
{ "type": "Feature", "properties": { "strassenschluessel": "059660000008K0008", "bezeichnung": "Hützemert - Bergneustadt" }, "geometry": null },
{ "type": "Feature", "properties": { "strassenschluessel": "059660000008K0009", "bezeichnung": "Drolshagen - Hützemert" }, "geometry": null },
{ "type": "Feature", "properties": { "strassenschluessel": "059660000008K0013", "bezeichnung": "Dumicke - Eichen" }, "geometry": null },
{ "type": "Feature", "properties": { "strassenschluessel": "059660000008K0015", "bezeichnung": "Drolshagen - Germinghausen" }, "geometry": null },
{ "type": "Feature", "properties": { "strassenschluessel": "059660000008K0016", "bezeichnung": "Dumicke - Germinghausen" }, "geometry": null },
{ "type": "Feature", "properties": { "strassenschluessel": "059660000008K0036", "bezeichnung": "Olpe - Bergneustadt" }, "geometry": null },
{ "type": "Feature", "properties": { "strassenschluessel": "059660000008K0037", "bezeichnung": "Husten - Benolpe" }, "geometry": null },
{ "type": "Feature", "properties": { "strassenschluessel": "059660000008L0351", "bezeichnung": "Olpe - Wildbergerhütte" }, "geometry": null },
{ "type": "Feature", "properties": { "strassenschluessel": "059660000008L0708", "bezeichnung": "Attendorn - Wegeringhausen" }, "geometry": null },
{ "type": "Feature", "properties": { "strassenschluessel": "059660000008L0869", "bezeichnung": "Bleche - Krummenerl" }, "geometry": null }
]
}
