{
"type": "FeatureCollection",
"features": [
{ "type": "Feature", "properties": { "strassenschluessel": "05112000000001001", "bezeichnung": "Aachener Str." }, "geometry": { "type": "Point", "coordinates": [ 6.775471824810041, 51.509438388996813 ] } },
{ "type": "Feature", "properties": { "strassenschluessel": "05112000000001002", "bezeichnung": "Aakerfährstr." }, "geometry": { "type": "Point", "coordinates": [ 6.779286100461259, 51.444230805067598 ] } },
{ "type": "Feature", "properties": { "strassenschluessel": "05112000000001003", "bezeichnung": "Abteistr." }, "geometry": { "type": "Point", "coordinates": [ 6.756231452033012, 51.433415355396377 ] } },
{ "type": "Feature", "properties": { "strassenschluessel": "05112000000001004", "bezeichnung": "Weißer Sandweg" }, "geometry": null },
{ "type": "Feature", "properties": { "strassenschluessel": "05112000000001005", "bezeichnung": "Ackerstr." }, "geometry": { "type": "Point", "coordinates": [ 6.776108852994399, 51.359409527046942 ] } },
{ "type": "Feature", "properties": { "strassenschluessel": "05112000000001006", "bezeichnung": "Adamstr." }, "geometry": { "type": "Point", "coordinates": [ 6.795850807805651, 51.510033474628472 ] } },
{ "type": "Feature", "properties": { "strassenschluessel": "05112000000001007", "bezeichnung": "Adelenstr." }, "geometry": { "type": "Point", "coordinates": [ 6.743862655973954, 51.419860832787649 ] } },
{ "type": "Feature", "properties": { "strassenschluessel": "05112000000001008", "bezeichnung": "Adlerstr." }, "geometry": { "type": "Point", "coordinates": [ 6.766560862799218, 51.399482324966037 ] } },
{ "type": "Feature", "properties": { "strassenschluessel": "05112000000001009", "bezeichnung": "Adolf-Engler-Str." }, "geometry": { "type": "Point", "coordinates": [ 6.769842280845968, 51.487419939152403 ] } },
{ "type": "Feature", "properties": { "strassenschluessel": "05112000000001011", "bezeichnung": "Adolf-Wagner-Str." }, "geometry": { "type": "Point", "coordinates": [ 6.770920847658946, 51.406937100819711 ] } },
{ "type": "Feature", "properties": { "strassenschluessel": "05112000000001012", "bezeichnung": "Agnesstr." }, "geometry": { "type": "Point", "coordinates": [ 6.751798694221828, 51.506331402304845 ] } },
{ "type": "Feature", "properties": { "strassenschluessel": "05112000000001013", "bezeichnung": "Ahornstr." }, "geometry": { "type": "Point", "coordinates": [ 6.768811976333154, 51.403707569779996 ] } },
{ "type": "Feature", "properties": { "strassenschluessel": "05112000000001014", "bezeichnung": "Ahrstr." }, "geometry": { "type": "Point", "coordinates": [ 6.714735243352423, 51.472959580284552 ] } },
{ "type": "Feature", "properties": { "strassenschluessel": "05112000000001015", "bezeichnung": "Ahrweilerstr." }, "geometry": { "type": "Point", "coordinates": [ 6.695644219404982, 51.478884831031785 ] } },
{ "type": "Feature", "properties": { "strassenschluessel": "05112000000001016", "bezeichnung": "Akazienhof" }, "geometry": { "type": "Point", "coordinates": [ 6.769150254969064, 51.419515152463347 ] } },
{ "type": "Feature", "properties": { "strassenschluessel": "05112000000001017", "bezeichnung": "Akazienstr." }, "geometry": { "type": "Point", "coordinates": [ 6.780925797217003, 51.41991840529699 ] } },
{ "type": "Feature", "properties": { "strassenschluessel": "05112000000001018", "bezeichnung": "Aktienstr." }, "geometry": { "type": "Point", "coordinates": [ 6.793527827026675, 51.428003999285409 ] } },
{ "type": "Feature", "properties": { "strassenschluessel": "05112000000001019", "bezeichnung": "Aktienweg" }, "geometry": { "type": "Point", "coordinates": [ 6.807488024361374, 51.423073416089039 ] } },
{ "type": "Feature", "properties": { "strassenschluessel": "05112000000001020", "bezeichnung": "Albert-Schweitzer-Str." }, "geometry": { "type": "Point", "coordinates": [ 6.740948958419545, 51.365641153773289 ] } },
{ "type": "Feature", "properties": { "strassenschluessel": "05112000000001021", "bezeichnung": "Albertstr." }, "geometry": { "type": "Point", "coordinates": [ 6.747180791391123, 51.4417093673812 ] } },
{ "type": "Feature", "properties": { "strassenschluessel": "05112000000001022", "bezeichnung": "Albertus-Magnus-Str." }, "geometry": { "type": "Point", "coordinates": [ 6.750620150640695, 51.364907944005196 ] } },
{ "type": "Feature", "properties": { "strassenschluessel": "05112000000001023", "bezeichnung": "Albrechtstr." }, "geometry": { "type": "Point", "coordinates": [ 6.805809588051354, 51.470602709318435 ] } },
{ "type": "Feature", "properties": { "strassenschluessel": "05112000000001024", "bezeichnung": "Aldenrader Str." }, "geometry": { "type": "Point", "coordinates": [ 6.749675362222586, 51.514597688568529 ] } },
{ "type": "Feature", "properties": { "strassenschluessel": "05112000000001025", "bezeichnung": "Alexanderstr." }, "geometry": { "type": "Point", "coordinates": [ 6.803137522022138, 51.477983201445483 ] } },
{ "type": "Feature", "properties": { "strassenschluessel": "05112000000001026", "bezeichnung": "Alexstr." }, "geometry": { "type": "Point", "coordinates": [ 6.807785841914719, 51.498161752843153 ] } },
{ "type": "Feature", "properties": { "strassenschluessel": "05112000000001027", "bezeichnung": "Alfrediplatz" }, "geometry": { "type": "Point", "coordinates": [ 6.776069456620089, 51.409734463930945 ] } },
{ "type": "Feature", "properties": { "strassenschluessel": "05112000000001029", "bezeichnung": "Alleestr." }, "geometry": { "type": "Point", "coordinates": [ 6.77934042240072, 51.490173353472805 ] } },
{ "type": "Feature", "properties": { "strassenschluessel": "05112000000001030", "bezeichnung": "Allensteiner Ring" }, "geometry": { "type": "Point", "coordinates": [ 6.79221633854701, 51.394022241271138 ] } },
{ "type": "Feature", "properties": { "strassenschluessel": "05112000000001031", "bezeichnung": "Allgäuer Str." }, "geometry": { "type": "Point", "coordinates": [ 6.769998918093726, 51.378892580111682 ] } },
{ "type": "Feature", "properties": { "strassenschluessel": "05112000000001032", "bezeichnung": "Almastr." }, "geometry": { "type": "Point", "coordinates": [ 6.811306580099646, 51.501141185319234 ] } },
{ "type": "Feature", "properties": { "strassenschluessel": "05112000000001033", "bezeichnung": "Alsenstr." }, "geometry": { "type": "Point", "coordinates": [ 6.750938310363495, 51.469842725683762 ] } },
{ "type": "Feature", "properties": { "strassenschluessel": "05112000000001034", "bezeichnung": "Alsumer Steig" }, "geometry": { "type": "Point", "coordinates": [ 6.725030286858199, 51.499761939712393 ] } },
{ "type": "Feature", "properties": { "strassenschluessel": "05112000000001035", "bezeichnung": "Alsumer Str." }, "geometry": { "type": "Point", "coordinates": [ 6.722629384867592, 51.493057350652641 ] } },
{ "type": "Feature", "properties": { "strassenschluessel": "05112000000001036", "bezeichnung": "Alte Duisburger Str." }, "geometry": { "type": "Point", "coordinates": [ 6.740494870196528, 51.453315507908691 ] } },
{ "type": "Feature", "properties": { "strassenschluessel": "05112000000001037", "bezeichnung": "Alte Rheinstr." }, "geometry": { "type": "Point", "coordinates": [ 6.755447736906238, 51.43324390606881 ] } },
{ "type": "Feature", "properties": { "strassenschluessel": "05112000000001038", "bezeichnung": "Alte Ruhrorter Str." }, "geometry": { "type": "Point", "coordinates": [ 6.743817082245385, 51.448722150923601 ] } },
{ "type": "Feature", "properties": { "strassenschluessel": "05112000000001039", "bezeichnung": "Alte Schanze" }, "geometry": { "type": "Point", "coordinates": [ 6.77931688751781, 51.424894876655557 ] } },
{ "type": "Feature", "properties": { "strassenschluessel": "05112000000001040", "bezeichnung": "Altenahrer Str." }, "geometry": { "type": "Point", "coordinates": [ 6.695554855522414, 51.477573915674959 ] } },
{ "type": "Feature", "properties": { "strassenschluessel": "05112000000001041", "bezeichnung": "Altenbrucher Damm" }, "geometry": { "type": "Point", "coordinates": [ 6.763057403460446, 51.372581807063092 ] } },
{ "type": "Feature", "properties": { "strassenschluessel": "05112000000001042", "bezeichnung": "Altenkamp" }, "geometry": { "type": "Point", "coordinates": [ 6.756889075112553, 51.463960905781519 ] } },
{ "type": "Feature", "properties": { "strassenschluessel": "05112000000001043", "bezeichnung": "Alter Kalkweg" }, "geometry": { "type": "Point", "coordinates": [ 6.773547803285543, 51.409510181535403 ] } },
{ "type": "Feature", "properties": { "strassenschluessel": "05112000000001044", "bezeichnung": "Alter Markt" }, "geometry": { "type": "Point", "coordinates": [ 6.760160008275961, 51.436373542989386 ] } },
{ "type": "Feature", "properties": { "strassenschluessel": "05112000000001046", "bezeichnung": "Am Alten Flugplatz" }, "geometry": { "type": "Point", "coordinates": [ 6.73594564345167, 51.436179769290646 ] } },
{ "type": "Feature", "properties": { "strassenschluessel": "05112000000001047", "bezeichnung": "Am Atropshof" }, "geometry": { "type": "Point", "coordinates": [ 6.815005617531879, 51.505820152607136 ] } },
{ "type": "Feature", "properties": { "strassenschluessel": "05112000000001048", "bezeichnung": "Am Außenhafen" }, "geometry": { "type": "Point", "coordinates": [ 6.740546441194502, 51.428971916992516 ] } },
{ "type": "Feature", "properties": { "strassenschluessel": "05112000000001049", "bezeichnung": "Am Bahndamm" }, "geometry": { "type": "Point", "coordinates": [ 6.773255965113505, 51.407814897401103 ] } },
{ "type": "Feature", "properties": { "strassenschluessel": "05112000000001050", "bezeichnung": "Am Bahnhof" }, "geometry": { "type": "Point", "coordinates": [ 6.779883736339523, 51.468190198169545 ] } },
{ "type": "Feature", "properties": { "strassenschluessel": "05112000000001051", "bezeichnung": "Am Beeckbach" }, "geometry": { "type": "Point", "coordinates": [ 6.74086580657828, 51.481206020660935 ] } },
{ "type": "Feature", "properties": { "strassenschluessel": "05112000000001052", "bezeichnung": "Am Bischofskamp" }, "geometry": { "type": "Point", "coordinates": [ 6.781696969655139, 51.511898157878868 ] } },
{ "type": "Feature", "properties": { "strassenschluessel": "05112000000001053", "bezeichnung": "Am Blumenkampshof" }, "geometry": { "type": "Point", "coordinates": [ 6.729207332442155, 51.442562484356927 ] } },
{ "type": "Feature", "properties": { "strassenschluessel": "05112000000001054", "bezeichnung": "Am Böllert" }, "geometry": { "type": "Point", "coordinates": [ 6.777938303842474, 51.349956341587131 ] } },
{ "type": "Feature", "properties": { "strassenschluessel": "05112000000001055", "bezeichnung": "Am Bollheister" }, "geometry": { "type": "Point", "coordinates": [ 6.779959185051465, 51.380037190201925 ] } },
{ "type": "Feature", "properties": { "strassenschluessel": "05112000000001056", "bezeichnung": "Am Bört" }, "geometry": null },
{ "type": "Feature", "properties": { "strassenschluessel": "05112000000001057", "bezeichnung": "Am Botanischen Garten" }, "geometry": { "type": "Point", "coordinates": [ 6.797711243745206, 51.435024582837805 ] } },
{ "type": "Feature", "properties": { "strassenschluessel": "05112000000001058", "bezeichnung": "Am Brink" }, "geometry": null },
{ "type": "Feature", "properties": { "strassenschluessel": "05112000000001059", "bezeichnung": "Am Bruchgraben" }, "geometry": { "type": "Point", "coordinates": [ 6.747143759077644, 51.36433741446227 ] } },
{ "type": "Feature", "properties": { "strassenschluessel": "05112000000001060", "bezeichnung": "Am Brunnen" }, "geometry": { "type": "Point", "coordinates": [ 6.810345340900898, 51.392216843015852 ] } },
{ "type": "Feature", "properties": { "strassenschluessel": "05112000000001061", "bezeichnung": "Am Buchenbaum" }, "geometry": { "type": "Point", "coordinates": [ 6.772129864181172, 51.431599150139391 ] } },
{ "type": "Feature", "properties": { "strassenschluessel": "05112000000001062", "bezeichnung": "Am Buchenhain" }, "geometry": { "type": "Point", "coordinates": [ 6.781238850315281, 51.399333300738796 ] } },
{ "type": "Feature", "properties": { "strassenschluessel": "05112000000001063", "bezeichnung": "Am Burgacker" }, "geometry": { "type": "Point", "coordinates": [ 6.766375883246182, 51.434724442637425 ] } },
{ "type": "Feature", "properties": { "strassenschluessel": "05112000000001064", "bezeichnung": "Am Churkamp" }, "geometry": { "type": "Point", "coordinates": [ 6.758939777048063, 51.440606270956565 ] } },
{ "type": "Feature", "properties": { "strassenschluessel": "05112000000001065", "bezeichnung": "Am Dehnenhof" }, "geometry": { "type": "Point", "coordinates": [ 6.805823007352393, 51.461929985584014 ] } },
{ "type": "Feature", "properties": { "strassenschluessel": "05112000000001066", "bezeichnung": "Am Dickelsbach" }, "geometry": { "type": "Point", "coordinates": [ 6.784583181153287, 51.373534596795039 ] } },
{ "type": "Feature", "properties": { "strassenschluessel": "05112000000001067", "bezeichnung": "Am Dickerhorst" }, "geometry": { "type": "Point", "coordinates": [ 6.779352591843826, 51.378734256693861 ] } },
{ "type": "Feature", "properties": { "strassenschluessel": "05112000000001068", "bezeichnung": "Am Eisenbahnbassin" }, "geometry": { "type": "Point", "coordinates": [ 6.728950543749462, 51.458562625666588 ] } },
{ "type": "Feature", "properties": { "strassenschluessel": "05112000000001069", "bezeichnung": "Am Eschenbruch" }, "geometry": { "type": "Point", "coordinates": [ 6.817665441709939, 51.362956208588912 ] } },
{ "type": "Feature", "properties": { "strassenschluessel": "05112000000001070", "bezeichnung": "Am Finkenacker" }, "geometry": { "type": "Point", "coordinates": [ 6.735335598438315, 51.356225200691888 ] } },
{ "type": "Feature", "properties": { "strassenschluessel": "05112000000001071", "bezeichnung": "Am Fliederbusch" }, "geometry": { "type": "Point", "coordinates": [ 6.79568419237001, 51.390781562576116 ] } },
{ "type": "Feature", "properties": { "strassenschluessel": "05112000000001072", "bezeichnung": "Am Förkelsgraben" }, "geometry": { "type": "Point", "coordinates": [ 6.73841457173976, 51.366350532274787 ] } },
{ "type": "Feature", "properties": { "strassenschluessel": "05112000000001073", "bezeichnung": "Am Freischütz" }, "geometry": { "type": "Point", "coordinates": [ 6.798814105819202, 51.433730088378539 ] } },
{ "type": "Feature", "properties": { "strassenschluessel": "05112000000001074", "bezeichnung": "Am Giesenhof" }, "geometry": { "type": "Point", "coordinates": [ 6.794363553361841, 51.465624926118295 ] } },
{ "type": "Feature", "properties": { "strassenschluessel": "05112000000001075", "bezeichnung": "Am Glockenturm" }, "geometry": { "type": "Point", "coordinates": [ 6.7801223474988, 51.366431412024738 ] } },
{ "type": "Feature", "properties": { "strassenschluessel": "05112000000001076", "bezeichnung": "Am Golfplatz" }, "geometry": { "type": "Point", "coordinates": [ 6.786603098748126, 51.373199039696679 ] } },
{ "type": "Feature", "properties": { "strassenschluessel": "05112000000001077", "bezeichnung": "Am Gottesacker" }, "geometry": { "type": "Point", "coordinates": [ 6.781813946750638, 51.491841413718291 ] } },
{ "type": "Feature", "properties": { "strassenschluessel": "05112000000001078", "bezeichnung": "Am Grillopark" }, "geometry": { "type": "Point", "coordinates": [ 6.756504707435237, 51.500293990953779 ] } },
{ "type": "Feature", "properties": { "strassenschluessel": "05112000000001079", "bezeichnung": "Am Grünen Hang" }, "geometry": { "type": "Point", "coordinates": [ 6.731781644794575, 51.360970219078638 ] } },
{ "type": "Feature", "properties": { "strassenschluessel": "05112000000001080", "bezeichnung": "Am Hafen" }, "geometry": null },
{ "type": "Feature", "properties": { "strassenschluessel": "05112000000001082", "bezeichnung": "Am Hagenbeckshof" }, "geometry": { "type": "Point", "coordinates": [ 6.728729462085075, 51.462202012081178 ] } },
{ "type": "Feature", "properties": { "strassenschluessel": "05112000000001083", "bezeichnung": "Am Hasselberg" }, "geometry": { "type": "Point", "coordinates": [ 6.688139714034846, 51.351879976911313 ] } },
{ "type": "Feature", "properties": { "strassenschluessel": "05112000000001084", "bezeichnung": "Am Hauweg" }, "geometry": { "type": "Point", "coordinates": [ 6.777343261989332, 51.378418031363765 ] } },
{ "type": "Feature", "properties": { "strassenschluessel": "05112000000001085", "bezeichnung": "Am Heckmannshof" }, "geometry": { "type": "Point", "coordinates": [ 6.731953508993799, 51.465290225591247 ] } },
{ "type": "Feature", "properties": { "strassenschluessel": "05112000000001086", "bezeichnung": "Am Heidberg" }, "geometry": { "type": "Point", "coordinates": [ 6.7319799109564, 51.352471824547422 ] } },
{ "type": "Feature", "properties": { "strassenschluessel": "05112000000001087", "bezeichnung": "Am Himgesberg" }, "geometry": { "type": "Point", "coordinates": [ 6.722083459934499, 51.364367206133522 ] } },
{ "type": "Feature", "properties": { "strassenschluessel": "05112000000001088", "bezeichnung": "Am Holderstrauch" }, "geometry": { "type": "Point", "coordinates": [ 6.809657354408567, 51.396643849346901 ] } },
{ "type": "Feature", "properties": { "strassenschluessel": "05112000000001089", "bezeichnung": "Am Ingenhammshof" }, "geometry": { "type": "Point", "coordinates": [ 6.791639207801224, 51.480140742530139 ] } },
{ "type": "Feature", "properties": { "strassenschluessel": "05112000000001090", "bezeichnung": "Am Inzerfeld" }, "geometry": { "type": "Point", "coordinates": [ 6.796590875574325, 51.491683061385388 ] } },
{ "type": "Feature", "properties": { "strassenschluessel": "05112000000001091", "bezeichnung": "Am Jägerloch" }, "geometry": { "type": "Point", "coordinates": [ 6.725203253036051, 51.43641823835177 ] } },
{ "type": "Feature", "properties": { "strassenschluessel": "05112000000001092", "bezeichnung": "Am Junkersknappen" }, "geometry": { "type": "Point", "coordinates": [ 6.791426434621613, 51.353604103052412 ] } },
{ "type": "Feature", "properties": { "strassenschluessel": "05112000000001093", "bezeichnung": "Am Kaiserberg" }, "geometry": { "type": "Point", "coordinates": [ 6.798285783453872, 51.433972550791367 ] } },
{ "type": "Feature", "properties": { "strassenschluessel": "05112000000001094", "bezeichnung": "Am Kamannshof" }, "geometry": { "type": "Point", "coordinates": [ 6.732292707171182, 51.477255123676692 ] } },
{ "type": "Feature", "properties": { "strassenschluessel": "05112000000001095", "bezeichnung": "Am Kanal" }, "geometry": { "type": "Point", "coordinates": [ 6.798794211142879, 51.464141151613198 ] } },
{ "type": "Feature", "properties": { "strassenschluessel": "05112000000001096", "bezeichnung": "Am Kiebitzberg" }, "geometry": { "type": "Point", "coordinates": [ 6.746506868098124, 51.506751762747292 ] } },
{ "type": "Feature", "properties": { "strassenschluessel": "05112000000001097", "bezeichnung": "Am Kiekenbusch" }, "geometry": { "type": "Point", "coordinates": [ 6.771871069464194, 51.366987214593657 ] } },
{ "type": "Feature", "properties": { "strassenschluessel": "05112000000001098", "bezeichnung": "Am Kirchmannshof" }, "geometry": { "type": "Point", "coordinates": [ 6.778275951924738, 51.389734760921428 ] } },
{ "type": "Feature", "properties": { "strassenschluessel": "05112000000001099", "bezeichnung": "Am Klapptor" }, "geometry": { "type": "Point", "coordinates": [ 6.716893705203339, 51.351492556227754 ] } },
{ "type": "Feature", "properties": { "strassenschluessel": "05112000000001100", "bezeichnung": "Am Knappert" }, "geometry": { "type": "Point", "coordinates": [ 6.786988828888284, 51.350883119351785 ] } },
{ "type": "Feature", "properties": { "strassenschluessel": "05112000000001101", "bezeichnung": "Am Krähenhorst" }, "geometry": { "type": "Point", "coordinates": [ 6.781064084622764, 51.373792549923245 ] } },
{ "type": "Feature", "properties": { "strassenschluessel": "05112000000001102", "bezeichnung": "Am Kreuzacker" }, "geometry": { "type": "Point", "coordinates": [ 6.742682374557993, 51.381758245482004 ] } },
{ "type": "Feature", "properties": { "strassenschluessel": "05112000000001103", "bezeichnung": "Am Kreyenbergshof" }, "geometry": { "type": "Point", "coordinates": [ 6.799324396660217, 51.508566189707693 ] } },
{ "type": "Feature", "properties": { "strassenschluessel": "05112000000001105", "bezeichnung": "Am Küllenacker" }, "geometry": { "type": "Point", "coordinates": [ 6.751331011723044, 51.513542445434041 ] } },
{ "type": "Feature", "properties": { "strassenschluessel": "05112000000001106", "bezeichnung": "Am Langen Bongert" }, "geometry": { "type": "Point", "coordinates": [ 6.684228891487695, 51.356467885356437 ] } },
{ "type": "Feature", "properties": { "strassenschluessel": "05112000000001107", "bezeichnung": "Am Lindentor" }, "geometry": { "type": "Point", "coordinates": [ 6.705667683280361, 51.348697926213106 ] } },
{ "type": "Feature", "properties": { "strassenschluessel": "05112000000001108", "bezeichnung": "Am Lipkamp" }, "geometry": { "type": "Point", "coordinates": [ 6.779770721838736, 51.363464013747524 ] } },
{ "type": "Feature", "properties": { "strassenschluessel": "05112000000001109", "bezeichnung": "Am Luftschacht" }, "geometry": null },
{ "type": "Feature", "properties": { "strassenschluessel": "05112000000001110", "bezeichnung": "Am Maashof" }, "geometry": { "type": "Point", "coordinates": [ 6.782826650398833, 51.373443503122282 ] } },
{ "type": "Feature", "properties": { "strassenschluessel": "05112000000001111", "bezeichnung": "Am Mismahlshof" }, "geometry": { "type": "Point", "coordinates": [ 6.786492732260155, 51.477606896325035 ] } },
{ "type": "Feature", "properties": { "strassenschluessel": "05112000000001112", "bezeichnung": "Am Mühlenberg" }, "geometry": { "type": "Point", "coordinates": [ 6.767544260966156, 51.434076695052653 ] } },
{ "type": "Feature", "properties": { "strassenschluessel": "05112000000001113", "bezeichnung": "Am Mühlstein" }, "geometry": { "type": "Point", "coordinates": [ 6.734997665967379, 51.373322538253113 ] } },
{ "type": "Feature", "properties": { "strassenschluessel": "05112000000001114", "bezeichnung": "Am Neuen Angerbach" }, "geometry": { "type": "Point", "coordinates": [ 6.739236706141517, 51.365872385447446 ] } },
{ "type": "Feature", "properties": { "strassenschluessel": "05112000000001115", "bezeichnung": "Am Nordgraben" }, "geometry": { "type": "Point", "coordinates": [ 6.812058976889885, 51.397027275035512 ] } },
{ "type": "Feature", "properties": { "strassenschluessel": "05112000000001116", "bezeichnung": "Am Nordhafen" }, "geometry": { "type": "Point", "coordinates": [ 6.751999625740727, 51.459952520696874 ] } },
{ "type": "Feature", "properties": { "strassenschluessel": "05112000000001117", "bezeichnung": "Am Palmbleck" }, "geometry": { "type": "Point", "coordinates": [ 6.688065316767529, 51.354043950598331 ] } },
{ "type": "Feature", "properties": { "strassenschluessel": "05112000000001118", "bezeichnung": "Am Parallelhafen" }, "geometry": { "type": "Point", "coordinates": [ 6.733636949192598, 51.430105095536788 ] } },
{ "type": "Feature", "properties": { "strassenschluessel": "05112000000001119", "bezeichnung": "Am Postenhof" }, "geometry": { "type": "Point", "coordinates": [ 6.727520847897898, 51.345964942472577 ] } },
{ "type": "Feature", "properties": { "strassenschluessel": "05112000000001120", "bezeichnung": "Am Rahmer Bach" }, "geometry": { "type": "Point", "coordinates": [ 6.78186387801974, 51.349802136301236 ] } },
{ "type": "Feature", "properties": { "strassenschluessel": "05112000000001121", "bezeichnung": "Am Rosenhügel" }, "geometry": { "type": "Point", "coordinates": [ 6.741555196607504, 51.447987235567219 ] } },
{ "type": "Feature", "properties": { "strassenschluessel": "05112000000001122", "bezeichnung": "Am Rübenkamp" }, "geometry": { "type": "Point", "coordinates": [ 6.710752467978569, 51.351138364885777 ] } },
{ "type": "Feature", "properties": { "strassenschluessel": "05112000000001123", "bezeichnung": "Am Ruhrufer" }, "geometry": null },
{ "type": "Feature", "properties": { "strassenschluessel": "05112000000001124", "bezeichnung": "Am Sandberg" }, "geometry": { "type": "Point", "coordinates": [ 6.822784381604834, 51.497038853415319 ] } },
{ "type": "Feature", "properties": { "strassenschluessel": "05112000000001125", "bezeichnung": "Am Schellberg" }, "geometry": { "type": "Point", "coordinates": [ 6.780083149223349, 51.377345701297799 ] } },
{ "type": "Feature", "properties": { "strassenschluessel": "05112000000001126", "bezeichnung": "Am Schlütershof" }, "geometry": { "type": "Point", "coordinates": [ 6.739057518443413, 51.435930149225769 ] } },
{ "type": "Feature", "properties": { "strassenschluessel": "05112000000001128", "bezeichnung": "Am Schnabelhuck" }, "geometry": { "type": "Point", "coordinates": [ 6.796094673069831, 51.442052348250627 ] } },
{ "type": "Feature", "properties": { "strassenschluessel": "05112000000001129", "bezeichnung": "Im Kornfeld" }, "geometry": { "type": "Point", "coordinates": [ 6.773847472916983, 51.345475682865192 ] } },
{ "type": "Feature", "properties": { "strassenschluessel": "05112000000001130", "bezeichnung": "Am Schürmannshof" }, "geometry": null },
{ "type": "Feature", "properties": { "strassenschluessel": "05112000000001131", "bezeichnung": "Am Schützenhaus" }, "geometry": { "type": "Point", "coordinates": [ 6.776984300711818, 51.403665150735357 ] } },
{ "type": "Feature", "properties": { "strassenschluessel": "05112000000001132", "bezeichnung": "Am See" }, "geometry": { "type": "Point", "coordinates": [ 6.800533436033811, 51.39078897877674 ] } },
{ "type": "Feature", "properties": { "strassenschluessel": "05112000000001133", "bezeichnung": "Am Seltenreich" }, "geometry": { "type": "Point", "coordinates": [ 6.683513017364733, 51.360461625008753 ] } },
{ "type": "Feature", "properties": { "strassenschluessel": "05112000000001134", "bezeichnung": "Am Siepenkothen" }, "geometry": { "type": "Point", "coordinates": [ 6.784202223289867, 51.36424775715934 ] } },
{ "type": "Feature", "properties": { "strassenschluessel": "05112000000001136", "bezeichnung": "Am Sittert" }, "geometry": { "type": "Point", "coordinates": [ 6.728811839955842, 51.368148488364163 ] } },
{ "type": "Feature", "properties": { "strassenschluessel": "05112000000001137", "bezeichnung": "Am Stadion" }, "geometry": { "type": "Point", "coordinates": [ 6.744547676905334, 51.506198064468826 ] } },
{ "type": "Feature", "properties": { "strassenschluessel": "05112000000001139", "bezeichnung": "Am Südgraben" }, "geometry": { "type": "Point", "coordinates": [ 6.814752491468338, 51.387793028271112 ] } },
{ "type": "Feature", "properties": { "strassenschluessel": "05112000000001140", "bezeichnung": "Am Tannenhof" }, "geometry": { "type": "Point", "coordinates": [ 6.780682398863022, 51.398746671506721 ] } },
{ "type": "Feature", "properties": { "strassenschluessel": "05112000000001141", "bezeichnung": "Am Tellmannshof" }, "geometry": { "type": "Point", "coordinates": [ 6.784057465421777, 51.507314609627663 ] } },
{ "type": "Feature", "properties": { "strassenschluessel": "05112000000001142", "bezeichnung": "Am Thelenbusch" }, "geometry": { "type": "Point", "coordinates": [ 6.781943455495218, 51.347409302579102 ] } },
{ "type": "Feature", "properties": { "strassenschluessel": "05112000000001144", "bezeichnung": "Am Ungelsheimer Graben" }, "geometry": { "type": "Point", "coordinates": [ 6.723785190068604, 51.36377877197107 ] } },
{ "type": "Feature", "properties": { "strassenschluessel": "05112000000001145", "bezeichnung": "Am Venn" }, "geometry": { "type": "Point", "coordinates": [ 6.760939871461627, 51.517207059488612 ] } },
{ "type": "Feature", "properties": { "strassenschluessel": "05112000000001146", "bezeichnung": "Am Waldessaum" }, "geometry": { "type": "Point", "coordinates": [ 6.802576958410886, 51.43181888619349 ] } },
{ "type": "Feature", "properties": { "strassenschluessel": "05112000000001147", "bezeichnung": "Am Weidengraben" }, "geometry": { "type": "Point", "coordinates": [ 6.780835346598092, 51.353865767551987 ] } },
{ "type": "Feature", "properties": { "strassenschluessel": "05112000000001148", "bezeichnung": "Am Welschenhof" }, "geometry": { "type": "Point", "coordinates": [ 6.793538305171611, 51.468093307110195 ] } },
{ "type": "Feature", "properties": { "strassenschluessel": "05112000000001149", "bezeichnung": "Am Wesselshof" }, "geometry": { "type": "Point", "coordinates": [ 6.767086387573858, 51.521385937339993 ] } },
{ "type": "Feature", "properties": { "strassenschluessel": "05112000000001150", "bezeichnung": "Am Windhövel" }, "geometry": { "type": "Point", "coordinates": [ 6.739800907789973, 51.380290497967323 ] } },
{ "type": "Feature", "properties": { "strassenschluessel": "05112000000001152", "bezeichnung": "Am Ziegelkamp" }, "geometry": { "type": "Point", "coordinates": [ 6.748083365088025, 51.373711478425413 ] } },
{ "type": "Feature", "properties": { "strassenschluessel": "05112000000001153", "bezeichnung": "Am Zinkhüttenplatz" }, "geometry": { "type": "Point", "coordinates": [ 6.768681282015093, 51.50073183749295 ] } },
{ "type": "Feature", "properties": { "strassenschluessel": "05112000000001155", "bezeichnung": "Amselstr." }, "geometry": { "type": "Point", "coordinates": [ 6.763408528088346, 51.398071642493321 ] } },
{ "type": "Feature", "properties": { "strassenschluessel": "05112000000001156", "bezeichnung": "Amtsgerichtsstr." }, "geometry": { "type": "Point", "coordinates": [ 6.740524054425199, 51.454435653572524 ] } },
{ "type": "Feature", "properties": { "strassenschluessel": "05112000000001157", "bezeichnung": "An den Linden" }, "geometry": { "type": "Point", "coordinates": [ 6.798008635252179, 51.390774999347052 ] } },
{ "type": "Feature", "properties": { "strassenschluessel": "05112000000001158", "bezeichnung": "An den Platanen" }, "geometry": { "type": "Point", "coordinates": [ 6.798078620251193, 51.392431848665296 ] } },
{ "type": "Feature", "properties": { "strassenschluessel": "05112000000001159", "bezeichnung": "An der Abtei" }, "geometry": { "type": "Point", "coordinates": [ 6.75777171891156, 51.494518169032368 ] } },
{ "type": "Feature", "properties": { "strassenschluessel": "05112000000001160", "bezeichnung": "An der Bastei" }, "geometry": { "type": "Point", "coordinates": [ 6.717082951942622, 51.349629253377621 ] } },
{ "type": "Feature", "properties": { "strassenschluessel": "05112000000001161", "bezeichnung": "An der Batterie" }, "geometry": { "type": "Point", "coordinates": [ 6.723045033418064, 51.366381445891811 ] } },
{ "type": "Feature", "properties": { "strassenschluessel": "05112000000001162", "bezeichnung": "An der Bleek" }, "geometry": { "type": "Point", "coordinates": [ 6.76017534140618, 51.431088467637487 ] } },
{ "type": "Feature", "properties": { "strassenschluessel": "05112000000001163", "bezeichnung": "An der Evershecke" }, "geometry": { "type": "Point", "coordinates": [ 6.746025082261558, 51.36389293533108 ] } },
{ "type": "Feature", "properties": { "strassenschluessel": "05112000000001164", "bezeichnung": "An der Fliesch" }, "geometry": { "type": "Point", "coordinates": [ 6.744511845468738, 51.366702264839468 ] } },
{ "type": "Feature", "properties": { "strassenschluessel": "05112000000001165", "bezeichnung": "An der Hofstatt" }, "geometry": { "type": "Point", "coordinates": [ 6.744345979524968, 51.363809064544874 ] } },
{ "type": "Feature", "properties": { "strassenschluessel": "05112000000001166", "bezeichnung": "An der Huf" }, "geometry": { "type": "Point", "coordinates": [ 6.779756827599043, 51.355193313714587 ] } },
{ "type": "Feature", "properties": { "strassenschluessel": "05112000000001167", "bezeichnung": "An der Paulskirche" }, "geometry": { "type": "Point", "coordinates": [ 6.750177508066773, 51.50285905388543 ] } },
{ "type": "Feature", "properties": { "strassenschluessel": "05112000000001168", "bezeichnung": "An der Pützkate" }, "geometry": { "type": "Point", "coordinates": [ 6.754237866651567, 51.383725822936718 ] } },
{ "type": "Feature", "properties": { "strassenschluessel": "05112000000001169", "bezeichnung": "An der Schanzenbrücke" }, "geometry": { "type": "Point", "coordinates": [ 6.745369800403624, 51.364803716727856 ] } },
{ "type": "Feature", "properties": { "strassenschluessel": "05112000000001170", "bezeichnung": "An der Steinkaul" }, "geometry": { "type": "Point", "coordinates": [ 6.724089840430398, 51.366503354620356 ] } },
{ "type": "Feature", "properties": { "strassenschluessel": "05112000000001172", "bezeichnung": "An der Vogelwiese" }, "geometry": { "type": "Point", "coordinates": [ 6.722078121737585, 51.471984342745955 ] } },
{ "type": "Feature", "properties": { "strassenschluessel": "05112000000001173", "bezeichnung": "An der Walsumer Grenze" }, "geometry": null },
{ "type": "Feature", "properties": { "strassenschluessel": "05112000000001174", "bezeichnung": "Andernacher Str." }, "geometry": { "type": "Point", "coordinates": [ 6.694752158106898, 51.476391347299668 ] } },
{ "type": "Feature", "properties": { "strassenschluessel": "05112000000001175", "bezeichnung": "Andersenstr." }, "geometry": { "type": "Point", "coordinates": [ 6.794821883294924, 51.425066662735944 ] } },
{ "type": "Feature", "properties": { "strassenschluessel": "05112000000001176", "bezeichnung": "Andreas-Hofer-Str." }, "geometry": { "type": "Point", "coordinates": [ 6.738708391565103, 51.473692152959742 ] } },
{ "type": "Feature", "properties": { "strassenschluessel": "05112000000001177", "bezeichnung": "Andreasstr." }, "geometry": { "type": "Point", "coordinates": [ 6.752078204193991, 51.440154196557579 ] } },
{ "type": "Feature", "properties": { "strassenschluessel": "05112000000001178", "bezeichnung": "Angerhauser Str." }, "geometry": { "type": "Point", "coordinates": [ 6.748259404045901, 51.369700428277504 ] } },
{ "type": "Feature", "properties": { "strassenschluessel": "05112000000001179", "bezeichnung": "Angermunder Str." }, "geometry": { "type": "Point", "coordinates": [ 6.781449754284681, 51.35555525083992 ] } },
{ "type": "Feature", "properties": { "strassenschluessel": "05112000000001180", "bezeichnung": "Angerorter Str." }, "geometry": { "type": "Point", "coordinates": [ 6.737232301764611, 51.372947546407239 ] } },
{ "type": "Feature", "properties": { "strassenschluessel": "05112000000001181", "bezeichnung": "Angerstr." }, "geometry": { "type": "Point", "coordinates": [ 6.770670197814796, 51.438697539884089 ] } },
{ "type": "Feature", "properties": { "strassenschluessel": "05112000000001182", "bezeichnung": "Angertaler Str." }, "geometry": { "type": "Point", "coordinates": [ 6.755248236508899, 51.382610876614947 ] } },
{ "type": "Feature", "properties": { "strassenschluessel": "05112000000001183", "bezeichnung": "Anhalter Str." }, "geometry": { "type": "Point", "coordinates": [ 6.782677896305753, 51.512901245030356 ] } },
{ "type": "Feature", "properties": { "strassenschluessel": "05112000000001185", "bezeichnung": "Ankerstr." }, "geometry": { "type": "Point", "coordinates": [ 6.785687137794495, 51.431671346022426 ] } },
{ "type": "Feature", "properties": { "strassenschluessel": "05112000000001186", "bezeichnung": "Antonienstr." }, "geometry": { "type": "Point", "coordinates": [ 6.753149313553179, 51.424724898081344 ] } },
{ "type": "Feature", "properties": { "strassenschluessel": "05112000000001187", "bezeichnung": "Apenrader Str." }, "geometry": { "type": "Point", "coordinates": [ 6.775964420665509, 51.510900015254691 ] } },
{ "type": "Feature", "properties": { "strassenschluessel": "05112000000001188", "bezeichnung": "Apostelstr." }, "geometry": { "type": "Point", "coordinates": [ 6.730693379355036, 51.462853743516511 ] } },
{ "type": "Feature", "properties": { "strassenschluessel": "05112000000001190", "bezeichnung": "Ardesstr." }, "geometry": { "type": "Point", "coordinates": [ 6.798085669427833, 51.511809058272981 ] } },
{ "type": "Feature", "properties": { "strassenschluessel": "05112000000001191", "bezeichnung": "Arlberger Str." }, "geometry": { "type": "Point", "coordinates": [ 6.769682232688787, 51.381383391537931 ] } },
{ "type": "Feature", "properties": { "strassenschluessel": "05112000000001192", "bezeichnung": "Arndtstr." }, "geometry": { "type": "Point", "coordinates": [ 6.728447349723682, 51.467825497085443 ] } },
{ "type": "Feature", "properties": { "strassenschluessel": "05112000000001193", "bezeichnung": "Arnimstr." }, "geometry": { "type": "Point", "coordinates": [ 6.753898360171298, 51.500266857890011 ] } },
{ "type": "Feature", "properties": { "strassenschluessel": "05112000000001195", "bezeichnung": "Asternweg" }, "geometry": { "type": "Point", "coordinates": [ 6.754742601728447, 51.385801892236337 ] } },
{ "type": "Feature", "properties": { "strassenschluessel": "05112000000001196", "bezeichnung": "Atroper Str." }, "geometry": { "type": "Point", "coordinates": [ 6.74584450616808, 51.385733567102513 ] } },
{ "type": "Feature", "properties": { "strassenschluessel": "05112000000001197", "bezeichnung": "Auf dem Bögel" }, "geometry": { "type": "Point", "coordinates": [ 6.770335730030912, 51.525259716630565 ] } },
{ "type": "Feature", "properties": { "strassenschluessel": "05112000000001198", "bezeichnung": "Auf dem Damm" }, "geometry": { "type": "Point", "coordinates": [ 6.773871134197577, 51.463943000453966 ] } },
{ "type": "Feature", "properties": { "strassenschluessel": "05112000000001199", "bezeichnung": "Auf dem Hunsrück" }, "geometry": { "type": "Point", "coordinates": [ 6.682288428967363, 51.354130757043791 ] } },
{ "type": "Feature", "properties": { "strassenschluessel": "05112000000001201", "bezeichnung": "Auf der Höhe" }, "geometry": { "type": "Point", "coordinates": [ 6.752069686430898, 51.441450353770655 ] } },
{ "type": "Feature", "properties": { "strassenschluessel": "05112000000001203", "bezeichnung": "Augsburger Str." }, "geometry": { "type": "Point", "coordinates": [ 6.738623800849497, 51.386258009298793 ] } },
{ "type": "Feature", "properties": { "strassenschluessel": "05112000000001204", "bezeichnung": "Augustastr." }, "geometry": { "type": "Point", "coordinates": [ 6.777694061325196, 51.469730594380763 ] } },
{ "type": "Feature", "properties": { "strassenschluessel": "05112000000001205", "bezeichnung": "August-Bebel-Platz" }, "geometry": { "type": "Point", "coordinates": [ 6.759821996965254, 51.501916946261495 ] } },
{ "type": "Feature", "properties": { "strassenschluessel": "05112000000001207", "bezeichnung": "August-Hirsch-Str." }, "geometry": { "type": "Point", "coordinates": [ 6.740575300460349, 51.448585876409766 ] } },
{ "type": "Feature", "properties": { "strassenschluessel": "05112000000001208", "bezeichnung": "August-Nieten-Str." }, "geometry": { "type": "Point", "coordinates": [ 6.767206036702236, 51.418611174931407 ] } },
{ "type": "Feature", "properties": { "strassenschluessel": "05112000000001209", "bezeichnung": "Auguststr." }, "geometry": { "type": "Point", "coordinates": [ 6.754685278215215, 51.486038949410485 ] } },
{ "type": "Feature", "properties": { "strassenschluessel": "05112000000001210", "bezeichnung": "August-Thyssen-Str." }, "geometry": { "type": "Point", "coordinates": [ 6.772206555469908, 51.49594859897077 ] } },
{ "type": "Feature", "properties": { "strassenschluessel": "05112000000001212", "bezeichnung": "Austr." }, "geometry": { "type": "Point", "coordinates": [ 6.730816092697218, 51.466169155061806 ] } },
{ "type": "Feature", "properties": { "strassenschluessel": "05112000000001213", "bezeichnung": "Averdunkstr." }, "geometry": { "type": "Point", "coordinates": [ 6.77308615809136, 51.432989325473656 ] } },
{ "type": "Feature", "properties": { "strassenschluessel": "05112000000001214", "bezeichnung": "Bachstr." }, "geometry": { "type": "Point", "coordinates": [ 6.752351591797364, 51.422695431550629 ] } },
{ "type": "Feature", "properties": { "strassenschluessel": "05112000000001215", "bezeichnung": "Baerler Str." }, "geometry": { "type": "Point", "coordinates": [ 6.727124645118544, 51.43209236575855 ] } },
{ "type": "Feature", "properties": { "strassenschluessel": "05112000000001216", "bezeichnung": "Bahnhofstr." }, "geometry": { "type": "Point", "coordinates": [ 6.777051390474842, 51.464717140611263 ] } },
{ "type": "Feature", "properties": { "strassenschluessel": "05112000000001217", "bezeichnung": "Bahnstr." }, "geometry": { "type": "Point", "coordinates": [ 6.775175497130272, 51.491480992910994 ] } },
{ "type": "Feature", "properties": { "strassenschluessel": "05112000000001218", "bezeichnung": "Baldhausstr." }, "geometry": null },
{ "type": "Feature", "properties": { "strassenschluessel": "05112000000001219", "bezeichnung": "Baldusstr." }, "geometry": { "type": "Point", "coordinates": [ 6.778200381195452, 51.452699714511596 ] } },
{ "type": "Feature", "properties": { "strassenschluessel": "05112000000001220", "bezeichnung": "Barbarastr." }, "geometry": { "type": "Point", "coordinates": [ 6.793188957422028, 51.49713144710811 ] } },
{ "type": "Feature", "properties": { "strassenschluessel": "05112000000001221", "bezeichnung": "Barberstr." }, "geometry": { "type": "Point", "coordinates": [ 6.685486561879473, 51.356327547713988 ] } },
{ "type": "Feature", "properties": { "strassenschluessel": "05112000000001222", "bezeichnung": "Barlenstr." }, "geometry": { "type": "Point", "coordinates": [ 6.766823180605082, 51.523161494804775 ] } },
{ "type": "Feature", "properties": { "strassenschluessel": "05112000000001223", "bezeichnung": "Bartenkamp" }, "geometry": { "type": "Point", "coordinates": [ 6.767204558964139, 51.524600605163826 ] } },
{ "type": "Feature", "properties": { "strassenschluessel": "05112000000001224", "bezeichnung": "Bastenstr." }, "geometry": { "type": "Point", "coordinates": [ 6.795611139439556, 51.494982524348309 ] } },
{ "type": "Feature", "properties": { "strassenschluessel": "05112000000001225", "bezeichnung": "Baukampstr." }, "geometry": { "type": "Point", "coordinates": [ 6.750522743612133, 51.43860081807383 ] } },
{ "type": "Feature", "properties": { "strassenschluessel": "05112000000001227", "bezeichnung": "Baustr." }, "geometry": { "type": "Point", "coordinates": [ 6.770732634127731, 51.470647063198989 ] } },
{ "type": "Feature", "properties": { "strassenschluessel": "05112000000001228", "bezeichnung": "Bayernstr." }, "geometry": { "type": "Point", "coordinates": [ 6.764417161315727, 51.507771736874034 ] } },
{ "type": "Feature", "properties": { "strassenschluessel": "05112000000001229", "bezeichnung": "Bayreuther Str." }, "geometry": { "type": "Point", "coordinates": [ 6.739278532529031, 51.485630179284151 ] } },
{ "type": "Feature", "properties": { "strassenschluessel": "05112000000001230", "bezeichnung": "Bechemstr." }, "geometry": { "type": "Point", "coordinates": [ 6.7845492819529, 51.433358533728814 ] } },
{ "type": "Feature", "properties": { "strassenschluessel": "05112000000001231", "bezeichnung": "Beckerfelder Str." }, "geometry": { "type": "Point", "coordinates": [ 6.775388064198769, 51.35713858376338 ] } },
{ "type": "Feature", "properties": { "strassenschluessel": "05112000000001232", "bezeichnung": "Beecker Str." }, "geometry": { "type": "Point", "coordinates": [ 6.779751961813669, 51.488202478990935 ] } },
{ "type": "Feature", "properties": { "strassenschluessel": "05112000000001234", "bezeichnung": "Beekstr." }, "geometry": { "type": "Point", "coordinates": [ 6.758828205184829, 51.4328023934576 ] } },
{ "type": "Feature", "properties": { "strassenschluessel": "05112000000001235", "bezeichnung": "Beerenstr." }, "geometry": { "type": "Point", "coordinates": [ 6.815858196608243, 51.50659031433419 ] } },
{ "type": "Feature", "properties": { "strassenschluessel": "05112000000001236", "bezeichnung": "Beginengasse" }, "geometry": null },
{ "type": "Feature", "properties": { "strassenschluessel": "05112000000001237", "bezeichnung": "Beim Görtzhof" }, "geometry": { "type": "Point", "coordinates": [ 6.744402371594679, 51.380423613170201 ] } },
{ "type": "Feature", "properties": { "strassenschluessel": "05112000000001238", "bezeichnung": "Benediktstr." }, "geometry": { "type": "Point", "coordinates": [ 6.730949593339789, 51.433825366168755 ] } },
{ "type": "Feature", "properties": { "strassenschluessel": "05112000000001239", "bezeichnung": "Bennostr." }, "geometry": { "type": "Point", "coordinates": [ 6.817542305601926, 51.505382863243803 ] } },
{ "type": "Feature", "properties": { "strassenschluessel": "05112000000001240", "bezeichnung": "Berchumer Str." }, "geometry": { "type": "Point", "coordinates": [ 6.760157211102531, 51.471295686674416 ] } },
{ "type": "Feature", "properties": { "strassenschluessel": "05112000000001241", "bezeichnung": "Bergische Landwehr" }, "geometry": { "type": "Point", "coordinates": [ 6.752050754555233, 51.383121679539833 ] } },
{ "type": "Feature", "properties": { "strassenschluessel": "05112000000001242", "bezeichnung": "Bergiusstr." }, "geometry": { "type": "Point", "coordinates": [ 6.735106183171518, 51.453772711568028 ] } },
{ "type": "Feature", "properties": { "strassenschluessel": "05112000000001243", "bezeichnung": "Berglehne" }, "geometry": { "type": "Point", "coordinates": [ 6.812218534881216, 51.396530684290362 ] } },
{ "type": "Feature", "properties": { "strassenschluessel": "05112000000001244", "bezeichnung": "Bergmannsplatz" }, "geometry": { "type": "Point", "coordinates": [ 6.803024922216416, 51.501813863849286 ] } },
{ "type": "Feature", "properties": { "strassenschluessel": "05112000000001246", "bezeichnung": "Bergstr." }, "geometry": { "type": "Point", "coordinates": [ 6.754180459602313, 51.466856318763163 ] } },
{ "type": "Feature", "properties": { "strassenschluessel": "05112000000001247", "bezeichnung": "Berlakstr." }, "geometry": { "type": "Point", "coordinates": [ 6.739609326460691, 51.473328258111174 ] } },
{ "type": "Feature", "properties": { "strassenschluessel": "05112000000001248", "bezeichnung": "Berlepschstr." }, "geometry": { "type": "Point", "coordinates": [ 6.766602722046994, 51.406555208301242 ] } },
{ "type": "Feature", "properties": { "strassenschluessel": "05112000000001249", "bezeichnung": "Bernhardstr." }, "geometry": { "type": "Point", "coordinates": [ 6.7866272493132, 51.490078925407119 ] } },
{ "type": "Feature", "properties": { "strassenschluessel": "05112000000001250", "bezeichnung": "Bertaallee" }, "geometry": { "type": "Point", "coordinates": [ 6.78565906351847, 51.406960110551388 ] } },
{ "type": "Feature", "properties": { "strassenschluessel": "05112000000001251", "bezeichnung": "Bertholdstr." }, "geometry": { "type": "Point", "coordinates": [ 6.780769247015145, 51.488502942455703 ] } },
{ "type": "Feature", "properties": { "strassenschluessel": "05112000000001252", "bezeichnung": "Bertramstr." }, "geometry": { "type": "Point", "coordinates": [ 6.752088896020834, 51.504298587183229 ] } },
{ "type": "Feature", "properties": { "strassenschluessel": "05112000000001253", "bezeichnung": "Berzeliusstr." }, "geometry": { "type": "Point", "coordinates": [ 6.742361114775299, 51.375973886438516 ] } },
{ "type": "Feature", "properties": { "strassenschluessel": "05112000000001254", "bezeichnung": "Bessemerstr." }, "geometry": { "type": "Point", "coordinates": [ 6.730674166541468, 51.466918548358599 ] } },
{ "type": "Feature", "properties": { "strassenschluessel": "05112000000001255", "bezeichnung": "Beukenbergstr." }, "geometry": { "type": "Point", "coordinates": [ 6.723061966919966, 51.468469284519358 ] } },
{ "type": "Feature", "properties": { "strassenschluessel": "05112000000001256", "bezeichnung": "Biefangstr." }, "geometry": { "type": "Point", "coordinates": [ 6.793419013040468, 51.508231288908597 ] } },
{ "type": "Feature", "properties": { "strassenschluessel": "05112000000001257", "bezeichnung": "Biegerfelder Weg" }, "geometry": { "type": "Point", "coordinates": [ 6.745607428011116, 51.372736476819426 ] } },
{ "type": "Feature", "properties": { "strassenschluessel": "05112000000001258", "bezeichnung": "Bienenpfad" }, "geometry": { "type": "Point", "coordinates": [ 6.778958795989253, 51.402288169674051 ] } },
{ "type": "Feature", "properties": { "strassenschluessel": "05112000000001259", "bezeichnung": "Biesenstr." }, "geometry": { "type": "Point", "coordinates": [ 6.770916743558355, 51.472184433579969 ] } },
{ "type": "Feature", "properties": { "strassenschluessel": "05112000000001260", "bezeichnung": "Biesenwiese" }, "geometry": { "type": "Point", "coordinates": [ 6.818323290695887, 51.491936307101412 ] } },
{ "type": "Feature", "properties": { "strassenschluessel": "05112000000001261", "bezeichnung": "Bilsestr." }, "geometry": { "type": "Point", "coordinates": [ 6.782086985505466, 51.514671743137079 ] } },
{ "type": "Feature", "properties": { "strassenschluessel": "05112000000001262", "bezeichnung": "Binsenweg" }, "geometry": { "type": "Point", "coordinates": [ 6.700604001732197, 51.366993142811673 ] } },
{ "type": "Feature", "properties": { "strassenschluessel": "05112000000001263", "bezeichnung": "Birkenstr." }, "geometry": { "type": "Point", "coordinates": [ 6.77016096372261, 51.401576713210993 ] } },
{ "type": "Feature", "properties": { "strassenschluessel": "05112000000001264", "bezeichnung": "Birkenweg" }, "geometry": { "type": "Point", "coordinates": [ 6.793696537336767, 51.392405594129777 ] } },
{ "type": "Feature", "properties": { "strassenschluessel": "05112000000001265", "bezeichnung": "Bismarckstr." }, "geometry": { "type": "Point", "coordinates": [ 6.784118383772675, 51.426692292159153 ] } },
{ "type": "Feature", "properties": { "strassenschluessel": "05112000000001266", "bezeichnung": "Bissingheimer Str." }, "geometry": { "type": "Point", "coordinates": [ 6.804961384414198, 51.398195796687283 ] } },
{ "type": "Feature", "properties": { "strassenschluessel": "05112000000001267", "bezeichnung": "Blankenburger Str." }, "geometry": { "type": "Point", "coordinates": [ 6.73644369404164, 51.359656038313645 ] } },
{ "type": "Feature", "properties": { "strassenschluessel": "05112000000001268", "bezeichnung": "Bleekstr." }, "geometry": { "type": "Point", "coordinates": [ 6.781514359076745, 51.488756427995057 ] } },
{ "type": "Feature", "properties": { "strassenschluessel": "05112000000001269", "bezeichnung": "Bleibtreustr." }, "geometry": { "type": "Point", "coordinates": [ 6.761411233276915, 51.461832266413261 ] } },
{ "type": "Feature", "properties": { "strassenschluessel": "05112000000001270", "bezeichnung": "Bleichstr." }, "geometry": { "type": "Point", "coordinates": [ 6.75972665546193, 51.427204263228148 ] } },
{ "type": "Feature", "properties": { "strassenschluessel": "05112000000001273", "bezeichnung": "Blücherstr." }, "geometry": { "type": "Point", "coordinates": [ 6.749396954667115, 51.422183513630145 ] } },
{ "type": "Feature", "properties": { "strassenschluessel": "05112000000001274", "bezeichnung": "Blumenstr." }, "geometry": { "type": "Point", "coordinates": [ 6.78038873829058, 51.426530228185037 ] } },
{ "type": "Feature", "properties": { "strassenschluessel": "05112000000001275", "bezeichnung": "Blumenthalstr." }, "geometry": { "type": "Point", "coordinates": [ 6.787958993725793, 51.438475296637186 ] } },
{ "type": "Feature", "properties": { "strassenschluessel": "05112000000001276", "bezeichnung": "Blütenstr." }, "geometry": { "type": "Point", "coordinates": [ 6.786021807034692, 51.492799721722847 ] } },
{ "type": "Feature", "properties": { "strassenschluessel": "05112000000001277", "bezeichnung": "Boberstr." }, "geometry": { "type": "Point", "coordinates": [ 6.747291918521709, 51.517153727122775 ] } },
{ "type": "Feature", "properties": { "strassenschluessel": "05112000000001278", "bezeichnung": "Böckumer Burgweg" }, "geometry": { "type": "Point", "coordinates": [ 6.754382799495842, 51.36324204250743 ] } },
{ "type": "Feature", "properties": { "strassenschluessel": "05112000000001279", "bezeichnung": "Bockumer Str." }, "geometry": { "type": "Point", "coordinates": [ 6.720519379948613, 51.338207148942828 ] } },
{ "type": "Feature", "properties": { "strassenschluessel": "05112000000001280", "bezeichnung": "Bockumer Weg" }, "geometry": { "type": "Point", "coordinates": [ 6.711663185626181, 51.348217637294717 ] } },
{ "type": "Feature", "properties": { "strassenschluessel": "05112000000001281", "bezeichnung": "Bodelschwinghstr." }, "geometry": { "type": "Point", "coordinates": [ 6.769509171638868, 51.407525369983148 ] } },
{ "type": "Feature", "properties": { "strassenschluessel": "05112000000001282", "bezeichnung": "Bodendorfer Str." }, "geometry": null },
{ "type": "Feature", "properties": { "strassenschluessel": "05112000000001283", "bezeichnung": "Böhmer Str." }, "geometry": { "type": "Point", "coordinates": [ 6.762869792038005, 51.385513474436529 ] } },
{ "type": "Feature", "properties": { "strassenschluessel": "05112000000001284", "bezeichnung": "Bohnengasse" }, "geometry": null },
{ "type": "Feature", "properties": { "strassenschluessel": "05112000000001286", "bezeichnung": "Bonhoefferstr." }, "geometry": { "type": "Point", "coordinates": [ 6.798492846538027, 51.482622820909064 ] } },
{ "type": "Feature", "properties": { "strassenschluessel": "05112000000001288", "bezeichnung": "Böningerstr." }, "geometry": { "type": "Point", "coordinates": [ 6.764151626496949, 51.430757297189189 ] } },
{ "type": "Feature", "properties": { "strassenschluessel": "05112000000001290", "bezeichnung": "Borkhofer Str." }, "geometry": { "type": "Point", "coordinates": [ 6.780856311784915, 51.465426651322154 ] } },
{ "type": "Feature", "properties": { "strassenschluessel": "05112000000001291", "bezeichnung": "Börsenstr." }, "geometry": { "type": "Point", "coordinates": [ 6.766287757890359, 51.432530418362525 ] } },
{ "type": "Feature", "properties": { "strassenschluessel": "05112000000001292", "bezeichnung": "Borussiastr." }, "geometry": { "type": "Point", "coordinates": [ 6.807165365804051, 51.502350794369271 ] } },
{ "type": "Feature", "properties": { "strassenschluessel": "05112000000001294", "bezeichnung": "Brahmstr." }, "geometry": null },
{ "type": "Feature", "properties": { "strassenschluessel": "05112000000001295", "bezeichnung": "Rabbiner-Neumark-Weg" }, "geometry": null },
{ "type": "Feature", "properties": { "strassenschluessel": "05112000000001296", "bezeichnung": "Brauerstr." }, "geometry": { "type": "Point", "coordinates": [ 6.786661415546312, 51.433448900942203 ] } },
{ "type": "Feature", "properties": { "strassenschluessel": "05112000000001297", "bezeichnung": "Braunlager Str." }, "geometry": { "type": "Point", "coordinates": [ 6.736066392178127, 51.357823597493649 ] } },
{ "type": "Feature", "properties": { "strassenschluessel": "05112000000001298", "bezeichnung": "Braunsberger Weg" }, "geometry": { "type": "Point", "coordinates": [ 6.789089181313639, 51.392963674897366 ] } },
{ "type": "Feature", "properties": { "strassenschluessel": "05112000000001299", "bezeichnung": "Braunschweiger Str." }, "geometry": { "type": "Point", "coordinates": [ 6.762544315387026, 51.50965474075425 ] } },
{ "type": "Feature", "properties": { "strassenschluessel": "05112000000001300", "bezeichnung": "Bredowstr." }, "geometry": null },
{ "type": "Feature", "properties": { "strassenschluessel": "05112000000001301", "bezeichnung": "Bregenzer Str." }, "geometry": { "type": "Point", "coordinates": [ 6.766128671298756, 51.382240851039619 ] } },
{ "type": "Feature", "properties": { "strassenschluessel": "05112000000001302", "bezeichnung": "Brehmsweg" }, "geometry": { "type": "Point", "coordinates": [ 6.804939876468619, 51.432159953112091 ] } },
{ "type": "Feature", "properties": { "strassenschluessel": "05112000000001303", "bezeichnung": "Breibergstr." }, "geometry": { "type": "Point", "coordinates": [ 6.700061441537815, 51.475074249643384 ] } },
{ "type": "Feature", "properties": { "strassenschluessel": "05112000000001304", "bezeichnung": "Breite Erlen" }, "geometry": { "type": "Point", "coordinates": [ 6.817101015178855, 51.497270866498788 ] } },
{ "type": "Feature", "properties": { "strassenschluessel": "05112000000001305", "bezeichnung": "Breite Str." }, "geometry": { "type": "Point", "coordinates": [ 6.752951417345371, 51.514498152640925 ] } },
{ "type": "Feature", "properties": { "strassenschluessel": "05112000000001306", "bezeichnung": "Breithof" }, "geometry": { "type": "Point", "coordinates": [ 6.779197307600955, 51.374364942216772 ] } },
{ "type": "Feature", "properties": { "strassenschluessel": "05112000000001307", "bezeichnung": "Bremenstr." }, "geometry": { "type": "Point", "coordinates": [ 6.761552665329583, 51.495016407064739 ] } },
{ "type": "Feature", "properties": { "strassenschluessel": "05112000000001308", "bezeichnung": "Brengersweg" }, "geometry": { "type": "Point", "coordinates": [ 6.784129561036599, 51.354331117223722 ] } },
{ "type": "Feature", "properties": { "strassenschluessel": "05112000000001309", "bezeichnung": "Brentanostr." }, "geometry": { "type": "Point", "coordinates": [ 6.773052772770354, 51.497166283197032 ] } },
{ "type": "Feature", "properties": { "strassenschluessel": "05112000000001310", "bezeichnung": "Brisenweg" }, "geometry": { "type": "Point", "coordinates": [ 6.741888146675195, 51.388350015192771 ] } },
{ "type": "Feature", "properties": { "strassenschluessel": "05112000000001311", "bezeichnung": "Brockhoffstr." }, "geometry": { "type": "Point", "coordinates": [ 6.767987329340721, 51.423855278863854 ] } },
{ "type": "Feature", "properties": { "strassenschluessel": "05112000000001312", "bezeichnung": "Brohler Str." }, "geometry": { "type": "Point", "coordinates": [ 6.695254903575842, 51.476539111443358 ] } },
{ "type": "Feature", "properties": { "strassenschluessel": "05112000000001313", "bezeichnung": "Bronkhorststr." }, "geometry": { "type": "Point", "coordinates": [ 6.776863161332382, 51.473531884145608 ] } },
{ "type": "Feature", "properties": { "strassenschluessel": "05112000000001314", "bezeichnung": "Bruchfeldstr." }, "geometry": { "type": "Point", "coordinates": [ 6.749671437907088, 51.467111059111353 ] } },
{ "type": "Feature", "properties": { "strassenschluessel": "05112000000001315", "bezeichnung": "Brückelstr." }, "geometry": { "type": "Point", "coordinates": [ 6.787864463144599, 51.474077709362376 ] } },
{ "type": "Feature", "properties": { "strassenschluessel": "05112000000001316", "bezeichnung": "Brückenplatz" }, "geometry": { "type": "Point", "coordinates": [ 6.754203329617359, 51.424249075901947 ] } },
{ "type": "Feature", "properties": { "strassenschluessel": "05112000000001317", "bezeichnung": "Brückenstr." }, "geometry": { "type": "Point", "coordinates": [ 6.752814987307888, 51.421345869918383 ] } },
{ "type": "Feature", "properties": { "strassenschluessel": "05112000000001318", "bezeichnung": "Bruckhauser Str." }, "geometry": { "type": "Point", "coordinates": [ 6.738308038714417, 51.477057062976272 ] } },
{ "type": "Feature", "properties": { "strassenschluessel": "05112000000001319", "bezeichnung": "Brucknerstr." }, "geometry": { "type": "Point", "coordinates": [ 6.791731436176087, 51.421380415567263 ] } },
{ "type": "Feature", "properties": { "strassenschluessel": "05112000000001320", "bezeichnung": "Brüderstr." }, "geometry": { "type": "Point", "coordinates": [ 6.760939046021912, 51.436217863569752 ] } },
{ "type": "Feature", "properties": { "strassenschluessel": "05112000000001321", "bezeichnung": "Brunhildenstr." }, "geometry": { "type": "Point", "coordinates": [ 6.757819463695436, 51.509096382056384 ] } },
{ "type": "Feature", "properties": { "strassenschluessel": "05112000000001322", "bezeichnung": "Brunostr." }, "geometry": { "type": "Point", "coordinates": [ 6.818972068098049, 51.505464659386725 ] } },
{ "type": "Feature", "properties": { "strassenschluessel": "05112000000001323", "bezeichnung": "Buchenstr." }, "geometry": { "type": "Point", "coordinates": [ 6.770384531257637, 51.402526272083414 ] } },
{ "type": "Feature", "properties": { "strassenschluessel": "05112000000001324", "bezeichnung": "Buchholzstr." }, "geometry": { "type": "Point", "coordinates": [ 6.766894729734163, 51.403758391291866 ] } },
{ "type": "Feature", "properties": { "strassenschluessel": "05112000000001325", "bezeichnung": "Bügelstr." }, "geometry": { "type": "Point", "coordinates": [ 6.799151938612662, 51.471067858255715 ] } },
{ "type": "Feature", "properties": { "strassenschluessel": "05112000000001326", "bezeichnung": "Bülowstr." }, "geometry": { "type": "Point", "coordinates": [ 6.753763953719767, 51.439221876957681 ] } },
{ "type": "Feature", "properties": { "strassenschluessel": "05112000000001327", "bezeichnung": "Bungertstr." }, "geometry": { "type": "Point", "coordinates": [ 6.754866591847826, 51.429223502674994 ] } },
{ "type": "Feature", "properties": { "strassenschluessel": "05112000000001329", "bezeichnung": "Bunsenplatz" }, "geometry": { "type": "Point", "coordinates": [ 6.777173510996701, 51.417849368189486 ] } },
{ "type": "Feature", "properties": { "strassenschluessel": "05112000000001330", "bezeichnung": "Bunsenstr." }, "geometry": { "type": "Point", "coordinates": [ 6.776517495095548, 51.417485226135646 ] } },
{ "type": "Feature", "properties": { "strassenschluessel": "05112000000001331", "bezeichnung": "Burbachstr." }, "geometry": { "type": "Point", "coordinates": [ 6.745428148012855, 51.480773956058648 ] } },
{ "type": "Feature", "properties": { "strassenschluessel": "05112000000001332", "bezeichnung": "Burgenlandstr." }, "geometry": { "type": "Point", "coordinates": [ 6.769709496770466, 51.38835871168417 ] } },
{ "type": "Feature", "properties": { "strassenschluessel": "05112000000001333", "bezeichnung": "Bürgermeister-Pütz-Str." }, "geometry": { "type": "Point", "coordinates": [ 6.759997307597571, 51.460335122645127 ] } },
{ "type": "Feature", "properties": { "strassenschluessel": "05112000000001334", "bezeichnung": "Bürgerstr." }, "geometry": { "type": "Point", "coordinates": [ 6.794340082758378, 51.426380637436374 ] } },
{ "type": "Feature", "properties": { "strassenschluessel": "05112000000001335", "bezeichnung": "Burgplatz" }, "geometry": { "type": "Point", "coordinates": [ 6.761155487030759, 51.435245482972668 ] } },
{ "type": "Feature", "properties": { "strassenschluessel": "05112000000001336", "bezeichnung": "Burgstr." }, "geometry": { "type": "Point", "coordinates": [ 6.761670930533072, 51.463588000195287 ] } },
{ "type": "Feature", "properties": { "strassenschluessel": "05112000000001337", "bezeichnung": "Buscher Str." }, "geometry": { "type": "Point", "coordinates": [ 6.770139475530661, 51.362179778883885 ] } },
{ "type": "Feature", "properties": { "strassenschluessel": "05112000000001338", "bezeichnung": "Buschhauser Str." }, "geometry": { "type": "Point", "coordinates": [ 6.816434225497147, 51.495829574409001 ] } },
{ "type": "Feature", "properties": { "strassenschluessel": "05112000000001339", "bezeichnung": "Buschstr." }, "geometry": { "type": "Point", "coordinates": [ 6.764624334345771, 51.493340367253829 ] } },
{ "type": "Feature", "properties": { "strassenschluessel": "05112000000001340", "bezeichnung": "Bussardstr." }, "geometry": { "type": "Point", "coordinates": [ 6.764330696444695, 51.403188401065577 ] } },
{ "type": "Feature", "properties": { "strassenschluessel": "05112000000001341", "bezeichnung": "Butlerstr." }, "geometry": { "type": "Point", "coordinates": [ 6.779778965526004, 51.441375610345681 ] } },
{ "type": "Feature", "properties": { "strassenschluessel": "05112000000001342", "bezeichnung": "Butterweg" }, "geometry": { "type": "Point", "coordinates": [ 6.722595438815244, 51.435117499576428 ] } },
{ "type": "Feature", "properties": { "strassenschluessel": "05112000000001343", "bezeichnung": "Buzstr." }, "geometry": { "type": "Point", "coordinates": [ 6.754865446577455, 51.381594503858828 ] } },
{ "type": "Feature", "properties": { "strassenschluessel": "05112000000001344", "bezeichnung": "Calvinstr." }, "geometry": { "type": "Point", "coordinates": [ 6.757612019445298, 51.39939865665378 ] } },
{ "type": "Feature", "properties": { "strassenschluessel": "05112000000001345", "bezeichnung": "Carpstr." }, "geometry": { "type": "Point", "coordinates": [ 6.735956627937719, 51.449858611637218 ] } },
{ "type": "Feature", "properties": { "strassenschluessel": "05112000000001347", "bezeichnung": "Carstanjenstr." }, "geometry": { "type": "Point", "coordinates": [ 6.786944118015076, 51.431633434666331 ] } },
{ "type": "Feature", "properties": { "strassenschluessel": "05112000000001348", "bezeichnung": "Cecilienstr." }, "geometry": { "type": "Point", "coordinates": [ 6.766921069780718, 51.426931797815591 ] } },
{ "type": "Feature", "properties": { "strassenschluessel": "05112000000001349", "bezeichnung": "Charlottenstr." }, "geometry": { "type": "Point", "coordinates": [ 6.753903955873978, 51.430587586353347 ] } },
{ "type": "Feature", "properties": { "strassenschluessel": "05112000000001350", "bezeichnung": "Christianstr." }, "geometry": { "type": "Point", "coordinates": [ 6.757198728325037, 51.433989033641708 ] } },
{ "type": "Feature", "properties": { "strassenschluessel": "05112000000001351", "bezeichnung": "Claubergstr." }, "geometry": { "type": "Point", "coordinates": [ 6.767709243903038, 51.43151233651237 ] } },
{ "type": "Feature", "properties": { "strassenschluessel": "05112000000001352", "bezeichnung": "Claudiusstr." }, "geometry": { "type": "Point", "coordinates": [ 6.723504352421094, 51.434606349304836 ] } },
{ "type": "Feature", "properties": { "strassenschluessel": "05112000000001353", "bezeichnung": "Clausthaler Str." }, "geometry": { "type": "Point", "coordinates": [ 6.730931278546429, 51.357354531248447 ] } },
{ "type": "Feature", "properties": { "strassenschluessel": "05112000000001354", "bezeichnung": "Am Kollert" }, "geometry": { "type": "Point", "coordinates": [ 6.717308836011421, 51.351130323287251 ] } },
{ "type": "Feature", "properties": { "strassenschluessel": "05112000000001355", "bezeichnung": "Cornelissenstr." }, "geometry": { "type": "Point", "coordinates": [ 6.763866819287832, 51.517873429558108 ] } },
{ "type": "Feature", "properties": { "strassenschluessel": "05112000000001356", "bezeichnung": "Coupettestr." }, "geometry": { "type": "Point", "coordinates": [ 6.741279326403838, 51.476223288570168 ] } },
{ "type": "Feature", "properties": { "strassenschluessel": "05112000000001357", "bezeichnung": "Cramer-Klett-Str." }, "geometry": { "type": "Point", "coordinates": [ 6.754550367921031, 51.381168371663868 ] } },
{ "type": "Feature", "properties": { "strassenschluessel": "05112000000001358", "bezeichnung": "Curtiusstr." }, "geometry": { "type": "Point", "coordinates": [ 6.767455669577265, 51.424902273982219 ] } },
{ "type": "Feature", "properties": { "strassenschluessel": "05112000000001359", "bezeichnung": "Dachsstr." }, "geometry": { "type": "Point", "coordinates": [ 6.751409863323254, 51.407235769777877 ] } },
{ "type": "Feature", "properties": { "strassenschluessel": "05112000000001360", "bezeichnung": "Dachsteinstr." }, "geometry": { "type": "Point", "coordinates": [ 6.781348345846612, 51.386601745452943 ] } },
{ "type": "Feature", "properties": { "strassenschluessel": "05112000000001361", "bezeichnung": "Dahlbuschstr." }, "geometry": { "type": "Point", "coordinates": [ 6.801369177613629, 51.501053692262438 ] } },
{ "type": "Feature", "properties": { "strassenschluessel": "05112000000001362", "bezeichnung": "Dahlienstr." }, "geometry": { "type": "Point", "coordinates": [ 6.75524928233169, 51.386032994753393 ] } },
{ "type": "Feature", "properties": { "strassenschluessel": "05112000000001363", "bezeichnung": "Dahlmannstr." }, "geometry": { "type": "Point", "coordinates": [ 6.75945981974259, 51.501039162272825 ] } },
{ "type": "Feature", "properties": { "strassenschluessel": "05112000000001364", "bezeichnung": "Dahlstr." }, "geometry": { "type": "Point", "coordinates": [ 6.747553251752294, 51.508228169276109 ] } },
{ "type": "Feature", "properties": { "strassenschluessel": "05112000000001365", "bezeichnung": "Damaschkestr." }, "geometry": { "type": "Point", "coordinates": [ 6.769528398421708, 51.407148688672514 ] } },
{ "type": "Feature", "properties": { "strassenschluessel": "05112000000001366", "bezeichnung": "Dammhausweg" }, "geometry": { "type": "Point", "coordinates": [ 6.681413121990478, 51.354525864805815 ] } },
{ "type": "Feature", "properties": { "strassenschluessel": "05112000000001367", "bezeichnung": "Dammstr." }, "geometry": { "type": "Point", "coordinates": [ 6.729838382385397, 51.453715403509179 ] } },
{ "type": "Feature", "properties": { "strassenschluessel": "05112000000001368", "bezeichnung": "Daniel-Morian-Str." }, "geometry": { "type": "Point", "coordinates": [ 6.792617027464822, 51.488589005440545 ] } },
{ "type": "Feature", "properties": { "strassenschluessel": "05112000000001369", "bezeichnung": "Danziger Str." }, "geometry": { "type": "Point", "coordinates": [ 6.780802592281407, 51.431137366473294 ] } },
{ "type": "Feature", "properties": { "strassenschluessel": "05112000000001370", "bezeichnung": "Daressalamstr." }, "geometry": { "type": "Point", "coordinates": [ 6.769374789922285, 51.374680966894942 ] } },
{ "type": "Feature", "properties": { "strassenschluessel": "05112000000001371", "bezeichnung": "Davidisstr." }, "geometry": { "type": "Point", "coordinates": [ 6.764664500549165, 51.419135581267554 ] } },
{ "type": "Feature", "properties": { "strassenschluessel": "05112000000001372", "bezeichnung": "Deichstr." }, "geometry": { "type": "Point", "coordinates": [ 6.698099423449288, 51.473517308617843 ] } },
{ "type": "Feature", "properties": { "strassenschluessel": "05112000000001373", "bezeichnung": "Dellplatz" }, "geometry": { "type": "Point", "coordinates": [ 6.761651302013801, 51.429632479957753 ] } },
{ "type": "Feature", "properties": { "strassenschluessel": "05112000000001374", "bezeichnung": "Dellstr." }, "geometry": { "type": "Point", "coordinates": [ 6.76290345338589, 51.42947191237382 ] } },
{ "type": "Feature", "properties": { "strassenschluessel": "05112000000001375", "bezeichnung": "Denkmalstr." }, "geometry": { "type": "Point", "coordinates": [ 6.797318262858562, 51.436626251255902 ] } },
{ "type": "Feature", "properties": { "strassenschluessel": "05112000000001376", "bezeichnung": "Dennewitzstr." }, "geometry": { "type": "Point", "coordinates": [ 6.782149539435025, 51.466282693457622 ] } },
{ "type": "Feature", "properties": { "strassenschluessel": "05112000000001377", "bezeichnung": "Derfflingerstr." }, "geometry": { "type": "Point", "coordinates": [ 6.784170949483128, 51.419200064216575 ] } },
{ "type": "Feature", "properties": { "strassenschluessel": "05112000000001378", "bezeichnung": "Dessauerstr." }, "geometry": { "type": "Point", "coordinates": [ 6.754814060618545, 51.515660994601824 ] } },
{ "type": "Feature", "properties": { "strassenschluessel": "05112000000001381", "bezeichnung": "Dickelsbachstr." }, "geometry": { "type": "Point", "coordinates": [ 6.756192533266041, 51.423445407155839 ] } },
{ "type": "Feature", "properties": { "strassenschluessel": "05112000000001383", "bezeichnung": "Diedenhofener Str." }, "geometry": { "type": "Point", "coordinates": [ 6.757874968884666, 51.46857936590817 ] } },
{ "type": "Feature", "properties": { "strassenschluessel": "05112000000001384", "bezeichnung": "Die Fröhlichkeit" }, "geometry": { "type": "Point", "coordinates": [ 6.761428172177561, 51.518744514866562 ] } },
{ "type": "Feature", "properties": { "strassenschluessel": "05112000000001385", "bezeichnung": "Diepenbrocker Weg" }, "geometry": { "type": "Point", "coordinates": [ 6.774832317368706, 51.402373613016273 ] } },
{ "type": "Feature", "properties": { "strassenschluessel": "05112000000001386", "bezeichnung": "Diergardtstr." }, "geometry": { "type": "Point", "coordinates": [ 6.731476527382659, 51.431110632465668 ] } },
{ "type": "Feature", "properties": { "strassenschluessel": "05112000000001387", "bezeichnung": "Dieselstr." }, "geometry": { "type": "Point", "coordinates": [ 6.760890822650987, 51.487446526140737 ] } },
{ "type": "Feature", "properties": { "strassenschluessel": "05112000000001388", "bezeichnung": "Diesterwegstr." }, "geometry": { "type": "Point", "coordinates": [ 6.748896654655987, 51.502238042347763 ] } },
{ "type": "Feature", "properties": { "strassenschluessel": "05112000000001389", "bezeichnung": "Dietrich-Rütten-Str." }, "geometry": { "type": "Point", "coordinates": [ 6.761215733204216, 51.470561847793796 ] } },
{ "type": "Feature", "properties": { "strassenschluessel": "05112000000001390", "bezeichnung": "Dillinger Str." }, "geometry": { "type": "Point", "coordinates": [ 6.72879142206802, 51.433290661771188 ] } },
{ "type": "Feature", "properties": { "strassenschluessel": "05112000000001391", "bezeichnung": "Dinslaker Str." }, "geometry": { "type": "Point", "coordinates": [ 6.773605168807306, 51.527345849435768 ] } },
{ "type": "Feature", "properties": { "strassenschluessel": "05112000000001392", "bezeichnung": "Dionysiusweg" }, "geometry": { "type": "Point", "coordinates": [ 6.695920741247776, 51.342386321790407 ] } },
{ "type": "Feature", "properties": { "strassenschluessel": "05112000000001393", "bezeichnung": "Dislichstr." }, "geometry": { "type": "Point", "coordinates": [ 6.755927263227242, 51.462265698127773 ] } },
{ "type": "Feature", "properties": { "strassenschluessel": "05112000000001394", "bezeichnung": "Dirschauer Weg" }, "geometry": { "type": "Point", "coordinates": [ 6.800415192113689, 51.396408243620478 ] } },
{ "type": "Feature", "properties": { "strassenschluessel": "05112000000001395", "bezeichnung": "Dr.-Hammacher-Str." }, "geometry": { "type": "Point", "coordinates": [ 6.736349145512621, 51.452012847787721 ] } },
{ "type": "Feature", "properties": { "strassenschluessel": "05112000000001396", "bezeichnung": "Dr.-Lengeling-Str." }, "geometry": { "type": "Point", "coordinates": [ 6.767605724331902, 51.465704277916807 ] } },
{ "type": "Feature", "properties": { "strassenschluessel": "05112000000001397", "bezeichnung": "Dollendorfer Str." }, "geometry": { "type": "Point", "coordinates": [ 6.696786112267912, 51.477670692417796 ] } },
{ "type": "Feature", "properties": { "strassenschluessel": "05112000000001398", "bezeichnung": "Döltgenstr." }, "geometry": { "type": "Point", "coordinates": [ 6.789299768865721, 51.491166129967773 ] } },
{ "type": "Feature", "properties": { "strassenschluessel": "05112000000001399", "bezeichnung": "Donaustr." }, "geometry": { "type": "Point", "coordinates": [ 6.786751571642879, 51.355026628333796 ] } },
{ "type": "Feature", "properties": { "strassenschluessel": "05112000000001400", "bezeichnung": "Dorfplatz" }, "geometry": { "type": "Point", "coordinates": [ 6.811276332148905, 51.392596700668754 ] } },
{ "type": "Feature", "properties": { "strassenschluessel": "05112000000001401", "bezeichnung": "Dorfstr." }, "geometry": { "type": "Point", "coordinates": [ 6.711247030243361, 51.348934013817235 ] } },
{ "type": "Feature", "properties": { "strassenschluessel": "05112000000001402", "bezeichnung": "Dörnbergstr." }, "geometry": { "type": "Point", "coordinates": [ 6.792412004109003, 51.495407413507074 ] } },
{ "type": "Feature", "properties": { "strassenschluessel": "05112000000001404", "bezeichnung": "Dörnerhofstr." }, "geometry": { "type": "Point", "coordinates": [ 6.811002204803327, 51.444057941121883 ] } },
{ "type": "Feature", "properties": { "strassenschluessel": "05112000000001405", "bezeichnung": "Dornstr." }, "geometry": { "type": "Point", "coordinates": [ 6.7718159686455, 51.401810519026704 ] } },
{ "type": "Feature", "properties": { "strassenschluessel": "05112000000001407", "bezeichnung": "Drachenfelsstr." }, "geometry": { "type": "Point", "coordinates": [ 6.699295201266067, 51.476570172771268 ] } },
{ "type": "Feature", "properties": { "strassenschluessel": "05112000000001408", "bezeichnung": "Drakerfeld" }, "geometry": { "type": "Point", "coordinates": [ 6.795155552283963, 51.470368827119827 ] } },
{ "type": "Feature", "properties": { "strassenschluessel": "05112000000001409", "bezeichnung": "Dreibundstr." }, "geometry": { "type": "Point", "coordinates": [ 6.814780760356703, 51.467584888816809 ] } },
{ "type": "Feature", "properties": { "strassenschluessel": "05112000000001410", "bezeichnung": "Drosselstr." }, "geometry": { "type": "Point", "coordinates": [ 6.765090143478871, 51.398242064679494 ] } },
{ "type": "Feature", "properties": { "strassenschluessel": "05112000000001411", "bezeichnung": "Droste-Hülshoff-Str." }, "geometry": { "type": "Point", "coordinates": [ 6.7727689812567, 51.496137306700085 ] } },
{ "type": "Feature", "properties": { "strassenschluessel": "05112000000001412", "bezeichnung": "Druchter Weg" }, "geometry": { "type": "Point", "coordinates": [ 6.802551986659835, 51.367222771851992 ] } },
{ "type": "Feature", "properties": { "strassenschluessel": "05112000000001414", "bezeichnung": "Duisburger Str." }, "geometry": { "type": "Point", "coordinates": [ 6.792815422443077, 51.485652175730635 ] } },
{ "type": "Feature", "properties": { "strassenschluessel": "05112000000001415", "bezeichnung": "Duissernplatz" }, "geometry": { "type": "Point", "coordinates": [ 6.781741558975042, 51.437692979161447 ] } },
{ "type": "Feature", "properties": { "strassenschluessel": "05112000000001416", "bezeichnung": "Duissernstr." }, "geometry": { "type": "Point", "coordinates": [ 6.782164190784948, 51.437834898424356 ] } },
{ "type": "Feature", "properties": { "strassenschluessel": "05112000000001417", "bezeichnung": "Dümpter Pfad" }, "geometry": { "type": "Point", "coordinates": [ 6.806225551803753, 51.46168945083096 ] } },
{ "type": "Feature", "properties": { "strassenschluessel": "05112000000001418", "bezeichnung": "Dümpter Str." }, "geometry": { "type": "Point", "coordinates": [ 6.805620656632748, 51.46316023395908 ] } },
{ "type": "Feature", "properties": { "strassenschluessel": "05112000000001419", "bezeichnung": "Düppelstr." }, "geometry": { "type": "Point", "coordinates": [ 6.75803326791823, 51.472006624189035 ] } },
{ "type": "Feature", "properties": { "strassenschluessel": "05112000000001420", "bezeichnung": "Dürerstr." }, "geometry": { "type": "Point", "coordinates": [ 6.737797983784378, 51.371511758173952 ] } },
{ "type": "Feature", "properties": { "strassenschluessel": "05112000000001421", "bezeichnung": "Düsseldorfer Landstr." }, "geometry": { "type": "Point", "coordinates": [ 6.752376542110191, 51.370864781314573 ] } },
{ "type": "Feature", "properties": { "strassenschluessel": "05112000000001422", "bezeichnung": "Düsseldorfer Str." }, "geometry": { "type": "Point", "coordinates": [ 6.769328658213579, 51.411380225993625 ] } },
{ "type": "Feature", "properties": { "strassenschluessel": "05112000000001423", "bezeichnung": "Eberhardstr." }, "geometry": { "type": "Point", "coordinates": [ 6.779839831230495, 51.505868389880881 ] } },
{ "type": "Feature", "properties": { "strassenschluessel": "05112000000001424", "bezeichnung": "Eberstr." }, "geometry": { "type": "Point", "coordinates": [ 6.754833593166689, 51.400636640010752 ] } },
{ "type": "Feature", "properties": { "strassenschluessel": "05112000000001425", "bezeichnung": "Eckershorst" }, "geometry": { "type": "Point", "coordinates": [ 6.766819239529022, 51.472349779041224 ] } },
{ "type": "Feature", "properties": { "strassenschluessel": "05112000000001426", "bezeichnung": "Eckstr." }, "geometry": { "type": "Point", "coordinates": [ 6.760716946971619, 51.377788661232898 ] } },
{ "type": "Feature", "properties": { "strassenschluessel": "05112000000001428", "bezeichnung": "Eduardstr." }, "geometry": { "type": "Point", "coordinates": [ 6.753680454233428, 51.484115556963474 ] } },
{ "type": "Feature", "properties": { "strassenschluessel": "05112000000001429", "bezeichnung": "Efeustr." }, "geometry": { "type": "Point", "coordinates": [ 6.752139893822726, 51.387687754028988 ] } },
{ "type": "Feature", "properties": { "strassenschluessel": "05112000000001430", "bezeichnung": "Egonstr." }, "geometry": { "type": "Point", "coordinates": [ 6.752556023969858, 51.499319214236493 ] } },
{ "type": "Feature", "properties": { "strassenschluessel": "05112000000001431", "bezeichnung": "Ehinger Berg" }, "geometry": { "type": "Point", "coordinates": [ 6.694189581901295, 51.36048144912418 ] } },
{ "type": "Feature", "properties": { "strassenschluessel": "05112000000001432", "bezeichnung": "Ehinger Str." }, "geometry": { "type": "Point", "coordinates": [ 6.736711995246652, 51.378844507632309 ] } },
{ "type": "Feature", "properties": { "strassenschluessel": "05112000000001433", "bezeichnung": "Ehrenbreitsteinstr." }, "geometry": { "type": "Point", "coordinates": [ 6.696588960504301, 51.478172534450948 ] } },
{ "type": "Feature", "properties": { "strassenschluessel": "05112000000001434", "bezeichnung": "Eibenweg" }, "geometry": { "type": "Point", "coordinates": [ 6.779895071690778, 51.375604736566636 ] } },
{ "type": "Feature", "properties": { "strassenschluessel": "05112000000001435", "bezeichnung": "Eichendorffstr." }, "geometry": { "type": "Point", "coordinates": [ 6.794140047966335, 51.423604725330513 ] } },
{ "type": "Feature", "properties": { "strassenschluessel": "05112000000001436", "bezeichnung": "Eichenhof" }, "geometry": { "type": "Point", "coordinates": [ 6.769631885744809, 51.418285881960436 ] } },
{ "type": "Feature", "properties": { "strassenschluessel": "05112000000001437", "bezeichnung": "Eichhornstr." }, "geometry": { "type": "Point", "coordinates": [ 6.752415965707685, 51.400970080098702 ] } },
{ "type": "Feature", "properties": { "strassenschluessel": "05112000000001438", "bezeichnung": "Eichsfelder Str." }, "geometry": { "type": "Point", "coordinates": [ 6.7760301263893, 51.511405053478484 ] } },
{ "type": "Feature", "properties": { "strassenschluessel": "05112000000001439", "bezeichnung": "Eickelkampspfad" }, "geometry": { "type": "Point", "coordinates": [ 6.772917623806781, 51.522305611156604 ] } },
{ "type": "Feature", "properties": { "strassenschluessel": "05112000000001440", "bezeichnung": "Eickenstr." }, "geometry": { "type": "Point", "coordinates": [ 6.78960644192654, 51.47153898338189 ] } },
{ "type": "Feature", "properties": { "strassenschluessel": "05112000000001441", "bezeichnung": "Eiderstr." }, "geometry": { "type": "Point", "coordinates": [ 6.74724846724816, 51.514980101180321 ] } },
{ "type": "Feature", "properties": { "strassenschluessel": "05112000000001442", "bezeichnung": "Eigenstr." }, "geometry": { "type": "Point", "coordinates": [ 6.753992786552577, 51.419687428977099 ] } },
{ "type": "Feature", "properties": { "strassenschluessel": "05112000000001443", "bezeichnung": "Eilperhofstr." }, "geometry": { "type": "Point", "coordinates": [ 6.741181367862335, 51.490223375960717 ] } },
{ "type": "Feature", "properties": { "strassenschluessel": "05112000000001444", "bezeichnung": "Einhardstr." }, "geometry": { "type": "Point", "coordinates": [ 6.789713162987022, 51.491405662591021 ] } },
{ "type": "Feature", "properties": { "strassenschluessel": "05112000000001446", "bezeichnung": "Eisenbahnstr." }, "geometry": { "type": "Point", "coordinates": [ 6.740160349229559, 51.455094059327926 ] } },
{ "type": "Feature", "properties": { "strassenschluessel": "05112000000001448", "bezeichnung": "Eitelstr." }, "geometry": { "type": "Point", "coordinates": [ 6.740513335292706, 51.487371565553275 ] } },
{ "type": "Feature", "properties": { "strassenschluessel": "05112000000001450", "bezeichnung": "Elbinger Str." }, "geometry": { "type": "Point", "coordinates": [ 6.796029900021748, 51.394939421252644 ] } },
{ "type": "Feature", "properties": { "strassenschluessel": "05112000000001452", "bezeichnung": "Eligiusstr." }, "geometry": { "type": "Point", "coordinates": [ 6.726744751362679, 51.466426494915368 ] } },
{ "type": "Feature", "properties": { "strassenschluessel": "05112000000001453", "bezeichnung": "Elisabethstr." }, "geometry": { "type": "Point", "coordinates": [ 6.760777154362704, 51.50613749311411 ] } },
{ "type": "Feature", "properties": { "strassenschluessel": "05112000000001454", "bezeichnung": "Elisenstr." }, "geometry": { "type": "Point", "coordinates": [ 6.754758797188463, 51.509062201480297 ] } },
{ "type": "Feature", "properties": { "strassenschluessel": "05112000000001455", "bezeichnung": "Elperstr." }, "geometry": null },
{ "type": "Feature", "properties": { "strassenschluessel": "05112000000001456", "bezeichnung": "Elsa-Brändström-Str." }, "geometry": { "type": "Point", "coordinates": [ 6.755968327742634, 51.500906869560239 ] } },
{ "type": "Feature", "properties": { "strassenschluessel": "05112000000001457", "bezeichnung": "Elsässer Str." }, "geometry": { "type": "Point", "coordinates": [ 6.779192575749418, 51.50982666212645 ] } },
{ "type": "Feature", "properties": { "strassenschluessel": "05112000000001458", "bezeichnung": "Elsenkamp" }, "geometry": { "type": "Point", "coordinates": [ 6.819040444276434, 51.491608187924243 ] } },
{ "type": "Feature", "properties": { "strassenschluessel": "05112000000001459", "bezeichnung": "Elsterstr." }, "geometry": { "type": "Point", "coordinates": [ 6.75242335236634, 51.40164861266004 ] } },
{ "type": "Feature", "properties": { "strassenschluessel": "05112000000001460", "bezeichnung": "Emilstr." }, "geometry": { "type": "Point", "coordinates": [ 6.789161963062047, 51.472503357325408 ] } },
{ "type": "Feature", "properties": { "strassenschluessel": "05112000000001461", "bezeichnung": "Emmastr." }, "geometry": { "type": "Point", "coordinates": [ 6.752343662772023, 51.507592877907854 ] } },
{ "type": "Feature", "properties": { "strassenschluessel": "05112000000001462", "bezeichnung": "Emmericher Str." }, "geometry": { "type": "Point", "coordinates": [ 6.792581814776277, 51.470031332834481 ] } },
{ "type": "Feature", "properties": { "strassenschluessel": "05112000000001463", "bezeichnung": "Emscherhüttenstr." }, "geometry": { "type": "Point", "coordinates": [ 6.730423032074517, 51.464018643516965 ] } },
{ "type": "Feature", "properties": { "strassenschluessel": "05112000000001464", "bezeichnung": "Emscherstr." }, "geometry": { "type": "Point", "coordinates": [ 6.777483882449716, 51.485609614215662 ] } },
{ "type": "Feature", "properties": { "strassenschluessel": "05112000000001465", "bezeichnung": "Emsstr." }, "geometry": { "type": "Point", "coordinates": [ 6.741288147742797, 51.516147678795818 ] } },
{ "type": "Feature", "properties": { "strassenschluessel": "05112000000001466", "bezeichnung": "Emstermannshof" }, "geometry": { "type": "Point", "coordinates": [ 6.761204656406832, 51.475564619840561 ] } },
{ "type": "Feature", "properties": { "strassenschluessel": "05112000000001467", "bezeichnung": "Engelbertstr." }, "geometry": { "type": "Point", "coordinates": [ 6.769123175631092, 51.413213263581561 ] } },
{ "type": "Feature", "properties": { "strassenschluessel": "05112000000001469", "bezeichnung": "Enge Str." }, "geometry": { "type": "Point", "coordinates": [ 6.768081820726388, 51.471578046533118 ] } },
{ "type": "Feature", "properties": { "strassenschluessel": "05112000000001470", "bezeichnung": "Entenstr." }, "geometry": { "type": "Point", "coordinates": [ 6.745766196077799, 51.50236688759081 ] } },
{ "type": "Feature", "properties": { "strassenschluessel": "05112000000001471", "bezeichnung": "Erftstr." }, "geometry": { "type": "Point", "coordinates": [ 6.769192677127214, 51.435372085353606 ] } },
{ "type": "Feature", "properties": { "strassenschluessel": "05112000000001472", "bezeichnung": "Erhardstr." }, "geometry": { "type": "Point", "coordinates": [ 6.819089039698084, 51.502811237962341 ] } },
{ "type": "Feature", "properties": { "strassenschluessel": "05112000000001474", "bezeichnung": "Erlenstr." }, "geometry": { "type": "Point", "coordinates": [ 6.758600765740141, 51.40360442085926 ] } },
{ "type": "Feature", "properties": { "strassenschluessel": "05112000000001475", "bezeichnung": "Erpeler Str." }, "geometry": { "type": "Point", "coordinates": [ 6.696083506704926, 51.478744059064717 ] } },
{ "type": "Feature", "properties": { "strassenschluessel": "05112000000001476", "bezeichnung": "Erzstr." }, "geometry": { "type": "Point", "coordinates": [ 6.728107498019049, 51.465139851743267 ] } },
{ "type": "Feature", "properties": { "strassenschluessel": "05112000000001477", "bezeichnung": "Eschenstr." }, "geometry": { "type": "Point", "coordinates": [ 6.753941416453737, 51.40051355006711 ] } },
{ "type": "Feature", "properties": { "strassenschluessel": "05112000000001478", "bezeichnung": "Esmarchstr." }, "geometry": { "type": "Point", "coordinates": [ 6.793826065299631, 51.444663547081227 ] } },
{ "type": "Feature", "properties": { "strassenschluessel": "05112000000001479", "bezeichnung": "Essenberger Str." }, "geometry": { "type": "Point", "coordinates": [ 6.722931837786087, 51.433700569886128 ] } },
{ "type": "Feature", "properties": { "strassenschluessel": "05112000000001480", "bezeichnung": "Essen-Steeler-Str." }, "geometry": { "type": "Point", "coordinates": [ 6.799927188279643, 51.479276591794743 ] } },
{ "type": "Feature", "properties": { "strassenschluessel": "05112000000001482", "bezeichnung": "Eulenstr." }, "geometry": { "type": "Point", "coordinates": [ 6.763452191107468, 51.399139470825219 ] } },
{ "type": "Feature", "properties": { "strassenschluessel": "05112000000001483", "bezeichnung": "Eupener Str." }, "geometry": { "type": "Point", "coordinates": [ 6.758311531353998, 51.469517804580732 ] } },
{ "type": "Feature", "properties": { "strassenschluessel": "05112000000001484", "bezeichnung": "Euskirchener Str." }, "geometry": { "type": "Point", "coordinates": [ 6.695157545746967, 51.479019588344983 ] } },
{ "type": "Feature", "properties": { "strassenschluessel": "05112000000001485", "bezeichnung": "Ewaldistr." }, "geometry": { "type": "Point", "coordinates": [ 6.731588515703161, 51.464803195640734 ] } },
{ "type": "Feature", "properties": { "strassenschluessel": "05112000000001486", "bezeichnung": "Fabrikstr." }, "geometry": { "type": "Point", "coordinates": [ 6.734661308009085, 51.453362514326244 ] } },
{ "type": "Feature", "properties": { "strassenschluessel": "05112000000001487", "bezeichnung": "Fahrner Str." }, "geometry": { "type": "Point", "coordinates": [ 6.761449812184754, 51.522984944084357 ] } },
{ "type": "Feature", "properties": { "strassenschluessel": "05112000000001488", "bezeichnung": "Fährstr." }, "geometry": { "type": "Point", "coordinates": [ 6.789747923877539, 51.448699094371079 ] } },
{ "type": "Feature", "properties": { "strassenschluessel": "05112000000001490", "bezeichnung": "Falkstr." }, "geometry": { "type": "Point", "coordinates": [ 6.777575674725901, 51.439168055027743 ] } },
{ "type": "Feature", "properties": { "strassenschluessel": "05112000000001491", "bezeichnung": "Fasanenstr." }, "geometry": { "type": "Point", "coordinates": [ 6.763789641285386, 51.398761355400516 ] } },
{ "type": "Feature", "properties": { "strassenschluessel": "05112000000001492", "bezeichnung": "Fauststr." }, "geometry": { "type": "Point", "coordinates": [ 6.760192636002026, 51.4631355172342 ] } },
{ "type": "Feature", "properties": { "strassenschluessel": "05112000000001493", "bezeichnung": "Fehrbellinstr." }, "geometry": { "type": "Point", "coordinates": [ 6.748194497285941, 51.424414143203784 ] } },
{ "type": "Feature", "properties": { "strassenschluessel": "05112000000001495", "bezeichnung": "Feldstr." }, "geometry": { "type": "Point", "coordinates": [ 6.757759993390091, 51.506292242617462 ] } },
{ "type": "Feature", "properties": { "strassenschluessel": "05112000000001496", "bezeichnung": "Felix-Dahn-Str." }, "geometry": { "type": "Point", "coordinates": [ 6.792225050758283, 51.495683771352105 ] } },
{ "type": "Feature", "properties": { "strassenschluessel": "05112000000001497", "bezeichnung": "Felsenstr." }, "geometry": { "type": "Point", "coordinates": [ 6.791268274743597, 51.438649631594672 ] } },
{ "type": "Feature", "properties": { "strassenschluessel": "05112000000001498", "bezeichnung": "Ferdinand-Hoser-Str." }, "geometry": { "type": "Point", "coordinates": [ 6.753434843343544, 51.385041810826742 ] } },
{ "type": "Feature", "properties": { "strassenschluessel": "05112000000001499", "bezeichnung": "Ferdinandstr." }, "geometry": { "type": "Point", "coordinates": [ 6.739916901422426, 51.377084455841327 ] } },
{ "type": "Feature", "properties": { "strassenschluessel": "05112000000001500", "bezeichnung": "Fichtenstr." }, "geometry": { "type": "Point", "coordinates": [ 6.792693324686862, 51.35446886543329 ] } },
{ "type": "Feature", "properties": { "strassenschluessel": "05112000000001502", "bezeichnung": "Finkenschlag" }, "geometry": { "type": "Point", "coordinates": [ 6.812745315459225, 51.394955382954436 ] } },
{ "type": "Feature", "properties": { "strassenschluessel": "05112000000001503", "bezeichnung": "Finkenstr." }, "geometry": { "type": "Point", "coordinates": [ 6.796866657737589, 51.428389046420712 ] } },
{ "type": "Feature", "properties": { "strassenschluessel": "05112000000001504", "bezeichnung": "Fischerstr." }, "geometry": { "type": "Point", "coordinates": [ 6.754147165220426, 51.402572425214636 ] } },
{ "type": "Feature", "properties": { "strassenschluessel": "05112000000001505", "bezeichnung": "Fiskusstr." }, "geometry": { "type": "Point", "coordinates": [ 6.806459222502926, 51.500344601088834 ] } },
{ "type": "Feature", "properties": { "strassenschluessel": "05112000000001506", "bezeichnung": "Flachsmarkt" }, "geometry": { "type": "Point", "coordinates": [ 6.762441697531761, 51.436087465357467 ] } },
{ "type": "Feature", "properties": { "strassenschluessel": "05112000000001507", "bezeichnung": "Fliederstr." }, "geometry": { "type": "Point", "coordinates": [ 6.756775824647894, 51.401725734636884 ] } },
{ "type": "Feature", "properties": { "strassenschluessel": "05112000000001508", "bezeichnung": "Florastr." }, "geometry": { "type": "Point", "coordinates": [ 6.728268950498216, 51.466490842814878 ] } },
{ "type": "Feature", "properties": { "strassenschluessel": "05112000000001509", "bezeichnung": "Florian-Geyer-Str." }, "geometry": { "type": "Point", "coordinates": [ 6.74977313067764, 51.367216660989591 ] } },
{ "type": "Feature", "properties": { "strassenschluessel": "05112000000001510", "bezeichnung": "Flottenstr." }, "geometry": { "type": "Point", "coordinates": [ 6.7352482837608, 51.477977161113039 ] } },
{ "type": "Feature", "properties": { "strassenschluessel": "05112000000001511", "bezeichnung": "Flurstr." }, "geometry": { "type": "Point", "coordinates": [ 6.791894146147513, 51.430279371984582 ] } },
{ "type": "Feature", "properties": { "strassenschluessel": "05112000000001512", "bezeichnung": "Fontanestr." }, "geometry": { "type": "Point", "coordinates": [ 6.732447218420306, 51.478500074625636 ] } },
{ "type": "Feature", "properties": { "strassenschluessel": "05112000000001513", "bezeichnung": "Forbachstr." }, "geometry": null },
{ "type": "Feature", "properties": { "strassenschluessel": "05112000000001514", "bezeichnung": "Förkelstr." }, "geometry": { "type": "Point", "coordinates": [ 6.721380774308215, 51.364612134988555 ] } },
{ "type": "Feature", "properties": { "strassenschluessel": "05112000000001515", "bezeichnung": "Forsthausweg" }, "geometry": { "type": "Point", "coordinates": [ 6.800464366256555, 51.429020966622225 ] } },
{ "type": "Feature", "properties": { "strassenschluessel": "05112000000001516", "bezeichnung": "Forststr." }, "geometry": { "type": "Point", "coordinates": [ 6.757990691571041, 51.393428588939287 ] } },
{ "type": "Feature", "properties": { "strassenschluessel": "05112000000001518", "bezeichnung": "Frankenplatz" }, "geometry": { "type": "Point", "coordinates": [ 6.783403668272766, 51.472381233008221 ] } },
{ "type": "Feature", "properties": { "strassenschluessel": "05112000000001519", "bezeichnung": "Frankenstr." }, "geometry": { "type": "Point", "coordinates": [ 6.73872924340623, 51.47447266391741 ] } },
{ "type": "Feature", "properties": { "strassenschluessel": "05112000000001520", "bezeichnung": "Franklinstr." }, "geometry": { "type": "Point", "coordinates": [ 6.732023150894655, 51.465480991234642 ] } },
{ "type": "Feature", "properties": { "strassenschluessel": "05112000000001521", "bezeichnung": "Franseckystr." }, "geometry": { "type": "Point", "coordinates": [ 6.763321910349934, 51.469323317687866 ] } },
{ "type": "Feature", "properties": { "strassenschluessel": "05112000000001522", "bezeichnung": "Franziskusstr." }, "geometry": { "type": "Point", "coordinates": [ 6.778923751309072, 51.366860956709417 ] } },
{ "type": "Feature", "properties": { "strassenschluessel": "05112000000001523", "bezeichnung": "Franz-Julius-Str." }, "geometry": { "type": "Point", "coordinates": [ 6.754890655301062, 51.50153876250873 ] } },
{ "type": "Feature", "properties": { "strassenschluessel": "05112000000001524", "bezeichnung": "Franz-Lenze-Str." }, "geometry": { "type": "Point", "coordinates": [ 6.744479777720545, 51.49240400694196 ] } },
{ "type": "Feature", "properties": { "strassenschluessel": "05112000000001525", "bezeichnung": "Franzosenweg" }, "geometry": null },
{ "type": "Feature", "properties": { "strassenschluessel": "05112000000001526", "bezeichnung": "Franzstr." }, "geometry": { "type": "Point", "coordinates": [ 6.776870296162973, 51.486716013214078 ] } },
{ "type": "Feature", "properties": { "strassenschluessel": "05112000000001527", "bezeichnung": "Frauenwiese" }, "geometry": { "type": "Point", "coordinates": [ 6.794530806766838, 51.506346014726631 ] } },
{ "type": "Feature", "properties": { "strassenschluessel": "05112000000001528", "bezeichnung": "Fraunhoferstr." }, "geometry": { "type": "Point", "coordinates": [ 6.777867429989386, 51.417663967068592 ] } },
{ "type": "Feature", "properties": { "strassenschluessel": "05112000000001529", "bezeichnung": "Freiligrathstr." }, "geometry": { "type": "Point", "coordinates": [ 6.783402305946733, 51.496389330305306 ] } },
{ "type": "Feature", "properties": { "strassenschluessel": "05112000000001530", "bezeichnung": "Freundstr." }, "geometry": { "type": "Point", "coordinates": [ 6.81300974389987, 51.499352600540625 ] } },
{ "type": "Feature", "properties": { "strassenschluessel": "05112000000001531", "bezeichnung": "Friedenstr." }, "geometry": { "type": "Point", "coordinates": [ 6.765138763883493, 51.423448691658521 ] } },
{ "type": "Feature", "properties": { "strassenschluessel": "05112000000001532", "bezeichnung": "Friedhofstr." }, "geometry": { "type": "Point", "coordinates": [ 6.744366483787656, 51.47644294372283 ] } },
{ "type": "Feature", "properties": { "strassenschluessel": "05112000000001533", "bezeichnung": "Friedrich-Albert-Lange-Platz" }, "geometry": { "type": "Point", "coordinates": [ 6.769815935356215, 51.43486145396232 ] } },
{ "type": "Feature", "properties": { "strassenschluessel": "05112000000001534", "bezeichnung": "Friedrich-Alfred-Str." }, "geometry": null },
{ "type": "Feature", "properties": { "strassenschluessel": "05112000000001535", "bezeichnung": "Friedrich-Ebert-Brücke" }, "geometry": null },
{ "type": "Feature", "properties": { "strassenschluessel": "05112000000001536", "bezeichnung": "Friedrich-Ebert-Str." }, "geometry": { "type": "Point", "coordinates": [ 6.732949667129264, 51.466112829305736 ] } },
{ "type": "Feature", "properties": { "strassenschluessel": "05112000000001537", "bezeichnung": "Friedrich-Engels-Str." }, "geometry": { "type": "Point", "coordinates": [ 6.755973800239996, 51.504156081592022 ] } },
{ "type": "Feature", "properties": { "strassenschluessel": "05112000000001538", "bezeichnung": "Friedrich-Naumann-Str." }, "geometry": { "type": "Point", "coordinates": [ 6.77031719691877, 51.40691029769178 ] } },
{ "type": "Feature", "properties": { "strassenschluessel": "05112000000001539", "bezeichnung": "Friedrichsplatz" }, "geometry": { "type": "Point", "coordinates": [ 6.735479025153778, 51.455875468934543 ] } },