{
"type": "FeatureCollection",
"features": [
{ "type": "Feature", "properties": { "strassenschluessel": "05566000000801531", "bezeichnung": "Ackerstr." }, "geometry": { "type": "Point", "coordinates": [ 7.516100689895842, 52.182931345988216 ] } },
{ "type": "Feature", "properties": { "strassenschluessel": "05566000000801532", "bezeichnung": "Adlerstr." }, "geometry": { "type": "Point", "coordinates": [ 7.514095982107641, 52.170535614690309 ] } },
{ "type": "Feature", "properties": { "strassenschluessel": "05566000000801533", "bezeichnung": "Aechterhoek" }, "geometry": { "type": "Point", "coordinates": [ 7.504413273600731, 52.197564509984062 ] } },
{ "type": "Feature", "properties": { "strassenschluessel": "05566000000801534", "bezeichnung": "Ahlintel" }, "geometry": { "type": "Point", "coordinates": [ 7.479135148880263, 52.164839288101611 ] } },
{ "type": "Feature", "properties": { "strassenschluessel": "05566000000801535", "bezeichnung": "Albertstr." }, "geometry": { "type": "Point", "coordinates": [ 7.518176745701371, 52.179779199169808 ] } },
{ "type": "Feature", "properties": { "strassenschluessel": "05566000000801537", "bezeichnung": "Am Buckhoff" }, "geometry": { "type": "Point", "coordinates": [ 7.526678227779712, 52.171845709612974 ] } },
{ "type": "Feature", "properties": { "strassenschluessel": "05566000000801538", "bezeichnung": "Am Knie" }, "geometry": { "type": "Point", "coordinates": [ 7.522439372621758, 52.17780711695309 ] } },
{ "type": "Feature", "properties": { "strassenschluessel": "05566000000801539", "bezeichnung": "Am Kompaniekamp" }, "geometry": { "type": "Point", "coordinates": [ 7.507333752284443, 52.17736054557912 ] } },
{ "type": "Feature", "properties": { "strassenschluessel": "05566000000801540", "bezeichnung": "Am Mühlenbach" }, "geometry": { "type": "Point", "coordinates": [ 7.537235985554346, 52.177753734585181 ] } },
{ "type": "Feature", "properties": { "strassenschluessel": "05566000000801541", "bezeichnung": "Am Perrediek" }, "geometry": { "type": "Point", "coordinates": [ 7.508676498420539, 52.175647567106381 ] } },
{ "type": "Feature", "properties": { "strassenschluessel": "05566000000801542", "bezeichnung": "Amselweg" }, "geometry": { "type": "Point", "coordinates": [ 7.511511895469128, 52.168130145113608 ] } },
{ "type": "Feature", "properties": { "strassenschluessel": "05566000000801543", "bezeichnung": "Am Stadtpark" }, "geometry": { "type": "Point", "coordinates": [ 7.543569268106427, 52.159614617755295 ] } },
{ "type": "Feature", "properties": { "strassenschluessel": "05566000000801544", "bezeichnung": "Am Strietbach" }, "geometry": { "type": "Point", "coordinates": [ 7.522451230806964, 52.168792726340726 ] } },
{ "type": "Feature", "properties": { "strassenschluessel": "05566000000801545", "bezeichnung": "Am Telgengrund" }, "geometry": { "type": "Point", "coordinates": [ 7.514460353776081, 52.174384773394571 ] } },
{ "type": "Feature", "properties": { "strassenschluessel": "05566000000801546", "bezeichnung": "Amtmann-Schipper-Str." }, "geometry": { "type": "Point", "coordinates": [ 7.516730046887714, 52.175066779685025 ] } },
{ "type": "Feature", "properties": { "strassenschluessel": "05566000000801547", "bezeichnung": "Am Waldrand" }, "geometry": { "type": "Point", "coordinates": [ 7.530409066483553, 52.158345305891558 ] } },
{ "type": "Feature", "properties": { "strassenschluessel": "05566000000801548", "bezeichnung": "Am Wasserturm" }, "geometry": { "type": "Point", "coordinates": [ 7.550535827839373, 52.163076314305037 ] } },
{ "type": "Feature", "properties": { "strassenschluessel": "05566000000801549", "bezeichnung": "An der Beeke" }, "geometry": { "type": "Point", "coordinates": [ 7.527932157186634, 52.152629535141003 ] } },
{ "type": "Feature", "properties": { "strassenschluessel": "05566000000801550", "bezeichnung": "An den Bleichen" }, "geometry": { "type": "Point", "coordinates": [ 7.533260735900929, 52.161902841507761 ] } },
{ "type": "Feature", "properties": { "strassenschluessel": "05566000000801551", "bezeichnung": "An den Klärteichen" }, "geometry": { "type": "Point", "coordinates": [ 7.537502439575086, 52.179364891130064 ] } },
{ "type": "Feature", "properties": { "strassenschluessel": "05566000000801552", "bezeichnung": "Annastr." }, "geometry": { "type": "Point", "coordinates": [ 7.520202618649584, 52.171477981901106 ] } },
{ "type": "Feature", "properties": { "strassenschluessel": "05566000000801553", "bezeichnung": "Arminstr." }, "geometry": { "type": "Point", "coordinates": [ 7.520010092044147, 52.180843107386707 ] } },
{ "type": "Feature", "properties": { "strassenschluessel": "05566000000801554", "bezeichnung": "Auguststr." }, "geometry": { "type": "Point", "coordinates": [ 7.519832813297192, 52.173749065017184 ] } },
{ "type": "Feature", "properties": { "strassenschluessel": "05566000000801555", "bezeichnung": "Austum" }, "geometry": { "type": "Point", "coordinates": [ 7.57062761479814, 52.158787053859953 ] } },
{ "type": "Feature", "properties": { "strassenschluessel": "05566000000801556", "bezeichnung": "Bachstr." }, "geometry": { "type": "Point", "coordinates": [ 7.533592123956669, 52.171070748725647 ] } },
{ "type": "Feature", "properties": { "strassenschluessel": "05566000000801557", "bezeichnung": "Bahnhofstr." }, "geometry": { "type": "Point", "coordinates": [ 7.530707014762357, 52.176089472417033 ] } },
{ "type": "Feature", "properties": { "strassenschluessel": "05566000000801558", "bezeichnung": "Beckstr." }, "geometry": { "type": "Point", "coordinates": [ 7.528548321233862, 52.17867260202776 ] } },
{ "type": "Feature", "properties": { "strassenschluessel": "05566000000801559", "bezeichnung": "Berge" }, "geometry": { "type": "Point", "coordinates": [ 7.540547816545489, 52.171904294259811 ] } },
{ "type": "Feature", "properties": { "strassenschluessel": "05566000000801560", "bezeichnung": "Bergstr." }, "geometry": { "type": "Point", "coordinates": [ 7.546651373332367, 52.167034882496509 ] } },
{ "type": "Feature", "properties": { "strassenschluessel": "05566000000801561", "bezeichnung": "Bernhardstr." }, "geometry": { "type": "Point", "coordinates": [ 7.519544629536569, 52.179590875444958 ] } },
{ "type": "Feature", "properties": { "strassenschluessel": "05566000000801562", "bezeichnung": "Biekmeresch" }, "geometry": { "type": "Point", "coordinates": [ 7.548606371141516, 52.174481965882251 ] } },
{ "type": "Feature", "properties": { "strassenschluessel": "05566000000801563", "bezeichnung": "Biörn" }, "geometry": { "type": "Point", "coordinates": [ 7.512347180540721, 52.178376045579761 ] } },
{ "type": "Feature", "properties": { "strassenschluessel": "05566000000801564", "bezeichnung": "Birkenweg" }, "geometry": { "type": "Point", "coordinates": [ 7.555495804882232, 52.159142521378349 ] } },
{ "type": "Feature", "properties": { "strassenschluessel": "05566000000801565", "bezeichnung": "Blücherstr." }, "geometry": { "type": "Point", "coordinates": [ 7.531321210956628, 52.18164165894737 ] } },
{ "type": "Feature", "properties": { "strassenschluessel": "05566000000801566", "bezeichnung": "Blumenstr." }, "geometry": { "type": "Point", "coordinates": [ 7.542086184186124, 52.158812025462595 ] } },
{ "type": "Feature", "properties": { "strassenschluessel": "05566000000801567", "bezeichnung": "Bonhoefferstr." }, "geometry": { "type": "Point", "coordinates": [ 7.527265796039517, 52.177538720533633 ] } },
{ "type": "Feature", "properties": { "strassenschluessel": "05566000000801568", "bezeichnung": "Borghorster Str." }, "geometry": { "type": "Point", "coordinates": [ 7.504648634488832, 52.168217425178206 ] } },
{ "type": "Feature", "properties": { "strassenschluessel": "05566000000801569", "bezeichnung": "Brandskamp" }, "geometry": { "type": "Point", "coordinates": [ 7.540038578522735, 52.167474996502285 ] } },
{ "type": "Feature", "properties": { "strassenschluessel": "05566000000801570", "bezeichnung": "Brede" }, "geometry": { "type": "Point", "coordinates": [ 7.537610541405853, 52.176336989487524 ] } },
{ "type": "Feature", "properties": { "strassenschluessel": "05566000000801571", "bezeichnung": "Brennesselweg" }, "geometry": { "type": "Point", "coordinates": [ 7.507991543292706, 52.175515740483355 ] } },
{ "type": "Feature", "properties": { "strassenschluessel": "05566000000801572", "bezeichnung": "Breslauer Str." }, "geometry": { "type": "Point", "coordinates": [ 7.525547374077627, 52.185568095581488 ] } },
{ "type": "Feature", "properties": { "strassenschluessel": "05566000000801573", "bezeichnung": "Brookweg" }, "geometry": { "type": "Point", "coordinates": [ 7.516435885616477, 52.166913508392582 ] } },
{ "type": "Feature", "properties": { "strassenschluessel": "05566000000801574", "bezeichnung": "Buchenweg" }, "geometry": { "type": "Point", "coordinates": [ 7.55576971277316, 52.158812536929766 ] } },
{ "type": "Feature", "properties": { "strassenschluessel": "05566000000801575", "bezeichnung": "Buckhoffstr." }, "geometry": { "type": "Point", "coordinates": [ 7.52678753573869, 52.172190664359078 ] } },
{ "type": "Feature", "properties": { "strassenschluessel": "05566000000801576", "bezeichnung": "Bühlsand" }, "geometry": { "type": "Point", "coordinates": [ 7.532278852063951, 52.159509972298274 ] } },
{ "type": "Feature", "properties": { "strassenschluessel": "05566000000801577", "bezeichnung": "Cremannsbusch" }, "geometry": { "type": "Point", "coordinates": [ 7.533540139388602, 52.16383500563051 ] } },
{ "type": "Feature", "properties": { "strassenschluessel": "05566000000801578", "bezeichnung": "Dahlmannsbusch" }, "geometry": { "type": "Point", "coordinates": [ 7.523035910769704, 52.180095729535047 ] } },
{ "type": "Feature", "properties": { "strassenschluessel": "05566000000801579", "bezeichnung": "Dannenkamp" }, "geometry": { "type": "Point", "coordinates": [ 7.551616254069812, 52.163675090122105 ] } },
{ "type": "Feature", "properties": { "strassenschluessel": "05566000000801580", "bezeichnung": "Delpstr." }, "geometry": { "type": "Point", "coordinates": [ 7.526868693120651, 52.178400561874732 ] } },
{ "type": "Feature", "properties": { "strassenschluessel": "05566000000801581", "bezeichnung": "Diekhueslinde" }, "geometry": { "type": "Point", "coordinates": [ 7.524940078276055, 52.183202136927164 ] } },
{ "type": "Feature", "properties": { "strassenschluessel": "05566000000801582", "bezeichnung": "Diekpohl" }, "geometry": { "type": "Point", "coordinates": [ 7.527670955925953, 52.156042046596859 ] } },
{ "type": "Feature", "properties": { "strassenschluessel": "05566000000801583", "bezeichnung": "Diekstr." }, "geometry": { "type": "Point", "coordinates": [ 7.531358374852681, 52.18486210669915 ] } },
{ "type": "Feature", "properties": { "strassenschluessel": "05566000000801584", "bezeichnung": "Diemshoff" }, "geometry": { "type": "Point", "coordinates": [ 7.529844035219803, 52.167060688039726 ] } },
{ "type": "Feature", "properties": { "strassenschluessel": "05566000000801586", "bezeichnung": "Dornenkamp" }, "geometry": { "type": "Point", "coordinates": [ 7.526839251397196, 52.160200887400308 ] } },
{ "type": "Feature", "properties": { "strassenschluessel": "05566000000801587", "bezeichnung": "Dreihuesweg" }, "geometry": { "type": "Point", "coordinates": [ 7.525578050557424, 52.154466025162662 ] } },
{ "type": "Feature", "properties": { "strassenschluessel": "05566000000801588", "bezeichnung": "Dreisk" }, "geometry": { "type": "Point", "coordinates": [ 7.514134541636545, 52.177456774700588 ] } },
{ "type": "Feature", "properties": { "strassenschluessel": "05566000000801589", "bezeichnung": "Drivel" }, "geometry": { "type": "Point", "coordinates": [ 7.550974678838971, 52.172776002833473 ] } },
{ "type": "Feature", "properties": { "strassenschluessel": "05566000000801590", "bezeichnung": "Drosselweg" }, "geometry": { "type": "Point", "coordinates": [ 7.515804901088491, 52.17087691114461 ] } },
{ "type": "Feature", "properties": { "strassenschluessel": "05566000000801591", "bezeichnung": "Droste-Hülshoff-Allee" }, "geometry": { "type": "Point", "coordinates": [ 7.521676995803084, 52.167718663423294 ] } },
{ "type": "Feature", "properties": { "strassenschluessel": "05566000000801592", "bezeichnung": "Edmund-Kohl-Str." }, "geometry": { "type": "Point", "coordinates": [ 7.524122511602932, 52.174456628148711 ] } },
{ "type": "Feature", "properties": { "strassenschluessel": "05566000000801593", "bezeichnung": "Eichendorffstr." }, "geometry": { "type": "Point", "coordinates": [ 7.529417223519375, 52.184829598236988 ] } },
{ "type": "Feature", "properties": { "strassenschluessel": "05566000000801594", "bezeichnung": "Eichenweg" }, "geometry": { "type": "Point", "coordinates": [ 7.5536999625579, 52.159805982686287 ] } },
{ "type": "Feature", "properties": { "strassenschluessel": "05566000000801595", "bezeichnung": "Eisenbahnstr." }, "geometry": { "type": "Point", "coordinates": [ 7.527669281968817, 52.18201656459442 ] } },
{ "type": "Feature", "properties": { "strassenschluessel": "05566000000801596", "bezeichnung": "Eisengraben" }, "geometry": { "type": "Point", "coordinates": [ 7.509675301169506, 52.170429031294823 ] } },
{ "type": "Feature", "properties": { "strassenschluessel": "05566000000801597", "bezeichnung": "Elbersstr." }, "geometry": { "type": "Point", "coordinates": [ 7.529750616188022, 52.177795608893774 ] } },
{ "type": "Feature", "properties": { "strassenschluessel": "05566000000801598", "bezeichnung": "Elsterstr." }, "geometry": { "type": "Point", "coordinates": [ 7.510107567550486, 52.167484658301262 ] } },
{ "type": "Feature", "properties": { "strassenschluessel": "05566000000801599", "bezeichnung": "Emmastr." }, "geometry": { "type": "Point", "coordinates": [ 7.519574256459201, 52.171911342751834 ] } },
{ "type": "Feature", "properties": { "strassenschluessel": "05566000000801600", "bezeichnung": "Emsstr." }, "geometry": { "type": "Point", "coordinates": [ 7.529254875934056, 52.175749608578442 ] } },
{ "type": "Feature", "properties": { "strassenschluessel": "05566000000801601", "bezeichnung": "Endken" }, "geometry": { "type": "Point", "coordinates": [ 7.535259253467156, 52.174996238298924 ] } },
{ "type": "Feature", "properties": { "strassenschluessel": "05566000000801602", "bezeichnung": "Engelnkamp" }, "geometry": { "type": "Point", "coordinates": [ 7.510090681491021, 52.178288321555058 ] } },
{ "type": "Feature", "properties": { "strassenschluessel": "05566000000801603", "bezeichnung": "Enge Str." }, "geometry": { "type": "Point", "coordinates": [ 7.532863810135482, 52.177749194876704 ] } },
{ "type": "Feature", "properties": { "strassenschluessel": "05566000000801604", "bezeichnung": "Erikastr." }, "geometry": { "type": "Point", "coordinates": [ 7.538451278962332, 52.16463722781485 ] } },
{ "type": "Feature", "properties": { "strassenschluessel": "05566000000801605", "bezeichnung": "Erlenweg" }, "geometry": { "type": "Point", "coordinates": [ 7.552345263272225, 52.158336825180363 ] } },
{ "type": "Feature", "properties": { "strassenschluessel": "05566000000801606", "bezeichnung": "Erzweg" }, "geometry": { "type": "Point", "coordinates": [ 7.500165934366511, 52.168239219673097 ] } },
{ "type": "Feature", "properties": { "strassenschluessel": "05566000000801607", "bezeichnung": "Eschstr." }, "geometry": { "type": "Point", "coordinates": [ 7.520866998654316, 52.173863083715183 ] } },
{ "type": "Feature", "properties": { "strassenschluessel": "05566000000801608", "bezeichnung": "Eulenweg" }, "geometry": { "type": "Point", "coordinates": [ 7.509112519712667, 52.168690004062711 ] } },
{ "type": "Feature", "properties": { "strassenschluessel": "05566000000801609", "bezeichnung": "Falkenweg" }, "geometry": { "type": "Point", "coordinates": [ 7.512944222990284, 52.167571842210471 ] } },
{ "type": "Feature", "properties": { "strassenschluessel": "05566000000801610", "bezeichnung": "Feldhoek" }, "geometry": { "type": "Point", "coordinates": [ 7.507618622590655, 52.172480294490185 ] } },
{ "type": "Feature", "properties": { "strassenschluessel": "05566000000801611", "bezeichnung": "Felixstr." }, "geometry": { "type": "Point", "coordinates": [ 7.516054637562686, 52.178461281172396 ] } },
{ "type": "Feature", "properties": { "strassenschluessel": "05566000000801612", "bezeichnung": "Fichtenweg" }, "geometry": { "type": "Point", "coordinates": [ 7.557400277672091, 52.160687457672729 ] } },
{ "type": "Feature", "properties": { "strassenschluessel": "05566000000801613", "bezeichnung": "Föhrendamm" }, "geometry": { "type": "Point", "coordinates": [ 7.530777485124353, 52.157481987812972 ] } },
{ "type": "Feature", "properties": { "strassenschluessel": "05566000000801614", "bezeichnung": "Franz-Mülder-Str." }, "geometry": { "type": "Point", "coordinates": [ 7.5361944859226, 52.175992542639577 ] } },
{ "type": "Feature", "properties": { "strassenschluessel": "05566000000801615", "bezeichnung": "Frauenstr." }, "geometry": { "type": "Point", "coordinates": [ 7.528541641049234, 52.173865372437227 ] } },
{ "type": "Feature", "properties": { "strassenschluessel": "05566000000801616", "bezeichnung": "Friedenstr." }, "geometry": { "type": "Point", "coordinates": [ 7.519994563719933, 52.174860970053729 ] } },
{ "type": "Feature", "properties": { "strassenschluessel": "05566000000801617", "bezeichnung": "Friedhofstr." }, "geometry": { "type": "Point", "coordinates": [ 7.526480968269867, 52.171594326806812 ] } },
{ "type": "Feature", "properties": { "strassenschluessel": "05566000000801618", "bezeichnung": "Friedrichstr." }, "geometry": { "type": "Point", "coordinates": [ 7.530585290077535, 52.170814396736894 ] } },
{ "type": "Feature", "properties": { "strassenschluessel": "05566000000801619", "bezeichnung": "Frischholt" }, "geometry": { "type": "Point", "coordinates": [ 7.505166817283621, 52.178795266239291 ] } },
{ "type": "Feature", "properties": { "strassenschluessel": "05566000000801620", "bezeichnung": "Gaitlingstiege" }, "geometry": { "type": "Point", "coordinates": [ 7.512491505865101, 52.169622891371397 ] } },
{ "type": "Feature", "properties": { "strassenschluessel": "05566000000801621", "bezeichnung": "Verdistr." }, "geometry": { "type": "Point", "coordinates": [ 7.520795480913551, 52.162656532794024 ] } },
{ "type": "Feature", "properties": { "strassenschluessel": "05566000000801622", "bezeichnung": "Gauselmannskamp" }, "geometry": { "type": "Point", "coordinates": [ 7.509909490383228, 52.173028153208591 ] } },
{ "type": "Feature", "properties": { "strassenschluessel": "05566000000801623", "bezeichnung": "Ginsterweg" }, "geometry": { "type": "Point", "coordinates": [ 7.535697993755801, 52.165799279715394 ] } },
{ "type": "Feature", "properties": { "strassenschluessel": "05566000000801624", "bezeichnung": "Glatzer Str." }, "geometry": { "type": "Point", "coordinates": [ 7.526867189022263, 52.185908652578071 ] } },
{ "type": "Feature", "properties": { "strassenschluessel": "05566000000801625", "bezeichnung": "Goerdelerstr." }, "geometry": { "type": "Point", "coordinates": [ 7.52604264313822, 52.180116694348037 ] } },
{ "type": "Feature", "properties": { "strassenschluessel": "05566000000801626", "bezeichnung": "Goldbergweg" }, "geometry": { "type": "Point", "coordinates": [ 7.506436103012345, 52.171189035700117 ] } },
{ "type": "Feature", "properties": { "strassenschluessel": "05566000000801627", "bezeichnung": "Grabenstr." }, "geometry": { "type": "Point", "coordinates": [ 7.51892621270986, 52.169999297373003 ] } },
{ "type": "Feature", "properties": { "strassenschluessel": "05566000000801628", "bezeichnung": "Grafensteinweg" }, "geometry": { "type": "Point", "coordinates": [ 7.503999423849362, 52.173726977730077 ] } },
{ "type": "Feature", "properties": { "strassenschluessel": "05566000000801629", "bezeichnung": "Grenzweg" }, "geometry": { "type": "Point", "coordinates": [ 7.536334429878316, 52.164900771324696 ] } },
{ "type": "Feature", "properties": { "strassenschluessel": "05566000000801630", "bezeichnung": "Grevener Damm" }, "geometry": { "type": "Point", "coordinates": [ 7.551392125987022, 52.157486392963968 ] } },
{ "type": "Feature", "properties": { "strassenschluessel": "05566000000801631", "bezeichnung": "Grimmestr." }, "geometry": { "type": "Point", "coordinates": [ 7.523039052746199, 52.167948059830245 ] } },
{ "type": "Feature", "properties": { "strassenschluessel": "05566000000801632", "bezeichnung": "Grünring" }, "geometry": { "type": "Point", "coordinates": [ 7.50845106572713, 52.182515631219729 ] } },
{ "type": "Feature", "properties": { "strassenschluessel": "05566000000801633", "bezeichnung": "Habichtshöhe" }, "geometry": { "type": "Point", "coordinates": [ 7.5052020018452, 52.165369795456471 ] } },
{ "type": "Feature", "properties": { "strassenschluessel": "05566000000801634", "bezeichnung": "Haferkamp" }, "geometry": { "type": "Point", "coordinates": [ 7.51786639622605, 52.183721411244939 ] } },
{ "type": "Feature", "properties": { "strassenschluessel": "05566000000801635", "bezeichnung": "Hanfelde" }, "geometry": { "type": "Point", "coordinates": [ 7.530411618825002, 52.189234092999953 ] } },
{ "type": "Feature", "properties": { "strassenschluessel": "05566000000801636", "bezeichnung": "Hansestr." }, "geometry": { "type": "Point", "coordinates": [ 7.542236109381058, 52.172469484688122 ] } },
{ "type": "Feature", "properties": { "strassenschluessel": "05566000000801637", "bezeichnung": "Haselstr." }, "geometry": { "type": "Point", "coordinates": [ 7.528230603176984, 52.151281772269932 ] } },
{ "type": "Feature", "properties": { "strassenschluessel": "05566000000801638", "bezeichnung": "Heckenweg" }, "geometry": { "type": "Point", "coordinates": [ 7.51525230201159, 52.176064750875184 ] } },
{ "type": "Feature", "properties": { "strassenschluessel": "05566000000801639", "bezeichnung": "Heckingsgarten" }, "geometry": { "type": "Point", "coordinates": [ 7.534526305676334, 52.180175188886935 ] } },
{ "type": "Feature", "properties": { "strassenschluessel": "05566000000801640", "bezeichnung": "Hedwigstr." }, "geometry": { "type": "Point", "coordinates": [ 7.520512225185283, 52.170022321751631 ] } },
{ "type": "Feature", "properties": { "strassenschluessel": "05566000000801641", "bezeichnung": "Heidberge" }, "geometry": { "type": "Point", "coordinates": [ 7.525849338352848, 52.171129067441989 ] } },
{ "type": "Feature", "properties": { "strassenschluessel": "05566000000801642", "bezeichnung": "Heideweg" }, "geometry": { "type": "Point", "coordinates": [ 7.53954247603864, 52.165240878771769 ] } },
{ "type": "Feature", "properties": { "strassenschluessel": "05566000000801643", "bezeichnung": "Heilemannskamp" }, "geometry": { "type": "Point", "coordinates": [ 7.550268779674763, 52.167104620976687 ] } },
{ "type": "Feature", "properties": { "strassenschluessel": "05566000000801644", "bezeichnung": "Hemberger Damm" }, "geometry": { "type": "Point", "coordinates": [ 7.549410966174665, 52.164399616929288 ] } },
{ "type": "Feature", "properties": { "strassenschluessel": "05566000000801645", "bezeichnung": "Hermannstr." }, "geometry": { "type": "Point", "coordinates": [ 7.516658389636519, 52.177664132869495 ] } },
{ "type": "Feature", "properties": { "strassenschluessel": "05566000000801646", "bezeichnung": "Herskamp" }, "geometry": { "type": "Point", "coordinates": [ 7.548347966653058, 52.166271688069862 ] } },
{ "type": "Feature", "properties": { "strassenschluessel": "05566000000801647", "bezeichnung": "Herzbach" }, "geometry": { "type": "Point", "coordinates": [ 7.525768933759426, 52.155992390904913 ] } },
{ "type": "Feature", "properties": { "strassenschluessel": "05566000000801648", "bezeichnung": "Höftstr." }, "geometry": { "type": "Point", "coordinates": [ 7.51791538635312, 52.171691449246801 ] } },
{ "type": "Feature", "properties": { "strassenschluessel": "05566000000801649", "bezeichnung": "Hörstingsheide" }, "geometry": { "type": "Point", "coordinates": [ 7.556430150031902, 52.160994621101771 ] } },
{ "type": "Feature", "properties": { "strassenschluessel": "05566000000801650", "bezeichnung": "Hohe Str." }, "geometry": { "type": "Point", "coordinates": [ 7.522488476715056, 52.171248376394495 ] } },
{ "type": "Feature", "properties": { "strassenschluessel": "05566000000801651", "bezeichnung": "Holländerweg" }, "geometry": { "type": "Point", "coordinates": [ 7.553997177070448, 52.160965770571465 ] } },
{ "type": "Feature", "properties": { "strassenschluessel": "05566000000801652", "bezeichnung": "Hollhorst" }, "geometry": { "type": "Point", "coordinates": [ 7.506586718472188, 52.182621978738005 ] } },
{ "type": "Feature", "properties": { "strassenschluessel": "05566000000801653", "bezeichnung": "Hollingen" }, "geometry": { "type": "Point", "coordinates": [ 7.49979217721295, 52.145225949354121 ] } },
{ "type": "Feature", "properties": { "strassenschluessel": "05566000000801654", "bezeichnung": "Hügelstr." }, "geometry": { "type": "Point", "coordinates": [ 7.54619073957118, 52.170332894104405 ] } },
{ "type": "Feature", "properties": { "strassenschluessel": "05566000000801655", "bezeichnung": "Hüningrode" }, "geometry": { "type": "Point", "coordinates": [ 7.516295637974284, 52.180029891320729 ] } },
{ "type": "Feature", "properties": { "strassenschluessel": "05566000000801656", "bezeichnung": "Hüewel" }, "geometry": { "type": "Point", "coordinates": [ 7.530998263290653, 52.190548533015665 ] } },
{ "type": "Feature", "properties": { "strassenschluessel": "05566000000801657", "bezeichnung": "Hummertsesch" }, "geometry": { "type": "Point", "coordinates": [ 7.517478609670007, 52.184868105601375 ] } },
{ "type": "Feature", "properties": { "strassenschluessel": "05566000000801658", "bezeichnung": "Im Bockholt" }, "geometry": { "type": "Point", "coordinates": [ 7.505321317358264, 52.169379321386309 ] } },
{ "type": "Feature", "properties": { "strassenschluessel": "05566000000801659", "bezeichnung": "Im Hagenkamp" }, "geometry": { "type": "Point", "coordinates": [ 7.536543263827265, 52.174457639054971 ] } },
{ "type": "Feature", "properties": { "strassenschluessel": "05566000000801660", "bezeichnung": "Im Holtkamp" }, "geometry": { "type": "Point", "coordinates": [ 7.543190227429234, 52.154403572503618 ] } },
{ "type": "Feature", "properties": { "strassenschluessel": "05566000000801661", "bezeichnung": "Immermannstr." }, "geometry": { "type": "Point", "coordinates": [ 7.524000271387408, 52.170443167122791 ] } },
{ "type": "Feature", "properties": { "strassenschluessel": "05566000000801662", "bezeichnung": "Im Timpen" }, "geometry": { "type": "Point", "coordinates": [ 7.537139811742516, 52.170164200779141 ] } },
{ "type": "Feature", "properties": { "strassenschluessel": "05566000000801663", "bezeichnung": "Im Venn" }, "geometry": { "type": "Point", "coordinates": [ 7.444717226744266, 52.18102422713843 ] } },
{ "type": "Feature", "properties": { "strassenschluessel": "05566000000801664", "bezeichnung": "Rudolf-Diesel-Str." }, "geometry": { "type": "Point", "coordinates": [ 7.551571191159121, 52.153736325577633 ] } },
{ "type": "Feature", "properties": { "strassenschluessel": "05566000000801665", "bezeichnung": "Inselweg" }, "geometry": { "type": "Point", "coordinates": [ 7.526877037656694, 52.156510387884708 ] } },
{ "type": "Feature", "properties": { "strassenschluessel": "05566000000801666", "bezeichnung": "Isendorf" }, "geometry": { "type": "Point", "coordinates": [ 7.533086184509404, 52.191921801807439 ] } },
{ "type": "Feature", "properties": { "strassenschluessel": "05566000000801667", "bezeichnung": "Jahnstr." }, "geometry": { "type": "Point", "coordinates": [ 7.547987271365424, 52.159710542472965 ] } },
{ "type": "Feature", "properties": { "strassenschluessel": "05566000000801668", "bezeichnung": "Jan-van-Detten-Str." }, "geometry": { "type": "Point", "coordinates": [ 7.514378900225152, 52.185135573682125 ] } },
{ "type": "Feature", "properties": { "strassenschluessel": "05566000000801669", "bezeichnung": "Josefstr." }, "geometry": { "type": "Point", "coordinates": [ 7.524026553513534, 52.176030437725956 ] } },
{ "type": "Feature", "properties": { "strassenschluessel": "05566000000801670", "bezeichnung": "Jutestr." }, "geometry": { "type": "Point", "coordinates": [ 7.53732152292643, 52.172014280878564 ] } },
{ "type": "Feature", "properties": { "strassenschluessel": "05566000000801671", "bezeichnung": "Kanalweg" }, "geometry": { "type": "Point", "coordinates": [ 7.504477997047977, 52.171507087041107 ] } },
{ "type": "Feature", "properties": { "strassenschluessel": "05566000000801672", "bezeichnung": "Kapellenstr." }, "geometry": { "type": "Point", "coordinates": [ 7.514349540310338, 52.178394627689336 ] } },
{ "type": "Feature", "properties": { "strassenschluessel": "05566000000801673", "bezeichnung": "Karlstr." }, "geometry": { "type": "Point", "coordinates": [ 7.525043538380817, 52.176351969055396 ] } },
{ "type": "Feature", "properties": { "strassenschluessel": "05566000000801674", "bezeichnung": "Kasbreede" }, "geometry": { "type": "Point", "coordinates": [ 7.547003345256733, 52.174266343921659 ] } },
{ "type": "Feature", "properties": { "strassenschluessel": "05566000000801675", "bezeichnung": "Katthagen" }, "geometry": { "type": "Point", "coordinates": [ 7.530565316163297, 52.173963762943849 ] } },
{ "type": "Feature", "properties": { "strassenschluessel": "05566000000801676", "bezeichnung": "Kiefernweg" }, "geometry": { "type": "Point", "coordinates": [ 7.555272618095474, 52.160187737446186 ] } },
{ "type": "Feature", "properties": { "strassenschluessel": "05566000000801677", "bezeichnung": "Kiesstr." }, "geometry": { "type": "Point", "coordinates": [ 7.54424144173682, 52.165864565576335 ] } },
{ "type": "Feature", "properties": { "strassenschluessel": "05566000000801678", "bezeichnung": "Kirchstr." }, "geometry": { "type": "Point", "coordinates": [ 7.527604578102527, 52.174236111441793 ] } },
{ "type": "Feature", "properties": { "strassenschluessel": "05566000000801679", "bezeichnung": "Kiwittsdamm" }, "geometry": { "type": "Point", "coordinates": [ 7.519791872068583, 52.152951619587157 ] } },
{ "type": "Feature", "properties": { "strassenschluessel": "05566000000801680", "bezeichnung": "Klemensstr." }, "geometry": { "type": "Point", "coordinates": [ 7.517142114185717, 52.180139000231172 ] } },
{ "type": "Feature", "properties": { "strassenschluessel": "05566000000801681", "bezeichnung": "Knollenkamp" }, "geometry": { "type": "Point", "coordinates": [ 7.536941892615761, 52.171055888819168 ] } },
{ "type": "Feature", "properties": { "strassenschluessel": "05566000000801682", "bezeichnung": "Königsberger Str." }, "geometry": { "type": "Point", "coordinates": [ 7.526726900223135, 52.184068669770099 ] } },
{ "type": "Feature", "properties": { "strassenschluessel": "05566000000801683", "bezeichnung": "Kolpingstr." }, "geometry": { "type": "Point", "coordinates": [ 7.523548411962063, 52.175996913167815 ] } },
{ "type": "Feature", "properties": { "strassenschluessel": "05566000000801684", "bezeichnung": "Konenhoek" }, "geometry": { "type": "Point", "coordinates": [ 7.539202322026298, 52.177397567338915 ] } },
{ "type": "Feature", "properties": { "strassenschluessel": "05566000000801685", "bezeichnung": "Kontrastr." }, "geometry": { "type": "Point", "coordinates": [ 7.542706107085582, 52.171161583895831 ] } },
{ "type": "Feature", "properties": { "strassenschluessel": "05566000000801686", "bezeichnung": "Korrenkamp" }, "geometry": { "type": "Point", "coordinates": [ 7.543278162975655, 52.178483466516617 ] } },
{ "type": "Feature", "properties": { "strassenschluessel": "05566000000801687", "bezeichnung": "Krähenhügel" }, "geometry": { "type": "Point", "coordinates": [ 7.535540778101754, 52.17757833643352 ] } },
{ "type": "Feature", "properties": { "strassenschluessel": "05566000000801688", "bezeichnung": "Kreuzkamp" }, "geometry": { "type": "Point", "coordinates": [ 7.5189556079522, 52.169226042982324 ] } },
{ "type": "Feature", "properties": { "strassenschluessel": "05566000000801689", "bezeichnung": "Krumme Str." }, "geometry": { "type": "Point", "coordinates": [ 7.520441411992675, 52.177603404968771 ] } },
{ "type": "Feature", "properties": { "strassenschluessel": "05566000000801690", "bezeichnung": "Beethovenstr." }, "geometry": { "type": "Point", "coordinates": [ 7.525539600633488, 52.161678089936046 ] } },
{ "type": "Feature", "properties": { "strassenschluessel": "05566000000801691", "bezeichnung": "Kupfergraben" }, "geometry": { "type": "Point", "coordinates": [ 7.5057839327842, 52.17172849002592 ] } },
{ "type": "Feature", "properties": { "strassenschluessel": "05566000000801692", "bezeichnung": "Kurze Str." }, "geometry": { "type": "Point", "coordinates": [ 7.538549164655796, 52.170340981341752 ] } },
{ "type": "Feature", "properties": { "strassenschluessel": "05566000000801693", "bezeichnung": "Lange Str." }, "geometry": { "type": "Point", "coordinates": [ 7.518394725022295, 52.177170314052169 ] } },
{ "type": "Feature", "properties": { "strassenschluessel": "05566000000801694", "bezeichnung": "Lange Water" }, "geometry": { "type": "Point", "coordinates": [ 7.500420063034227, 52.180691007887098 ] } },
{ "type": "Feature", "properties": { "strassenschluessel": "05566000000801695", "bezeichnung": "Leifhelmweg" }, "geometry": { "type": "Point", "coordinates": [ 7.507964465955426, 52.174827615531292 ] } },
{ "type": "Feature", "properties": { "strassenschluessel": "05566000000801696", "bezeichnung": "Lerchenfeld" }, "geometry": { "type": "Point", "coordinates": [ 7.513787503657549, 52.161585478007396 ] } },
{ "type": "Feature", "properties": { "strassenschluessel": "05566000000801697", "bezeichnung": "Lerschweg" }, "geometry": { "type": "Point", "coordinates": [ 7.521319775239711, 52.168083661881049 ] } },
{ "type": "Feature", "properties": { "strassenschluessel": "05566000000801698", "bezeichnung": "Letterhausstr." }, "geometry": { "type": "Point", "coordinates": [ 7.526792512242077, 52.180022039989943 ] } },
{ "type": "Feature", "properties": { "strassenschluessel": "05566000000801699", "bezeichnung": "Leuschnerstr." }, "geometry": { "type": "Point", "coordinates": [ 7.526569650341568, 52.180676475131293 ] } },
{ "type": "Feature", "properties": { "strassenschluessel": "05566000000801700", "bezeichnung": "Liegnitzer Str." }, "geometry": { "type": "Point", "coordinates": [ 7.528298194874742, 52.185885234040072 ] } },
{ "type": "Feature", "properties": { "strassenschluessel": "05566000000801701", "bezeichnung": "Lindenstr." }, "geometry": { "type": "Point", "coordinates": [ 7.534297682756821, 52.190115463795784 ] } },
{ "type": "Feature", "properties": { "strassenschluessel": "05566000000801702", "bezeichnung": "Lönsstr." }, "geometry": { "type": "Point", "coordinates": [ 7.544141194079588, 52.164132803281305 ] } },
{ "type": "Feature", "properties": { "strassenschluessel": "05566000000801703", "bezeichnung": "Ludgeristr." }, "geometry": { "type": "Point", "coordinates": [ 7.521145535812163, 52.170631431254918 ] } },
{ "type": "Feature", "properties": { "strassenschluessel": "05566000000801704", "bezeichnung": "Lütkenheide" }, "geometry": { "type": "Point", "coordinates": [ 7.527801132177197, 52.15951497303174 ] } },
{ "type": "Feature", "properties": { "strassenschluessel": "05566000000801705", "bezeichnung": "Machangelstr." }, "geometry": { "type": "Point", "coordinates": [ 7.538433224800352, 52.166543734949883 ] } },
{ "type": "Feature", "properties": { "strassenschluessel": "05566000000801706", "bezeichnung": "Märkischer Weg" }, "geometry": { "type": "Point", "coordinates": [ 7.550916015792391, 52.157028122510987 ] } },
{ "type": "Feature", "properties": { "strassenschluessel": "05566000000801707", "bezeichnung": "Marienstr." }, "geometry": { "type": "Point", "coordinates": [ 7.53446542503956, 52.171797373626447 ] } },
{ "type": "Feature", "properties": { "strassenschluessel": "05566000000801708", "bezeichnung": "Marthastr." }, "geometry": { "type": "Point", "coordinates": [ 7.519098995728458, 52.170631766683613 ] } },
{ "type": "Feature", "properties": { "strassenschluessel": "05566000000801709", "bezeichnung": "Mayland" }, "geometry": { "type": "Point", "coordinates": [ 7.505601342627233, 52.178193624866353 ] } },
{ "type": "Feature", "properties": { "strassenschluessel": "05566000000801710", "bezeichnung": "Robert-Schumann-Str." }, "geometry": { "type": "Point", "coordinates": [ 7.524576659924209, 52.160909219780393 ] } },
{ "type": "Feature", "properties": { "strassenschluessel": "05566000000801711", "bezeichnung": "Mittelstr." }, "geometry": { "type": "Point", "coordinates": [ 7.524991699400581, 52.172436255691771 ] } },
{ "type": "Feature", "properties": { "strassenschluessel": "05566000000801712", "bezeichnung": "Moltkestr." }, "geometry": { "type": "Point", "coordinates": [ 7.526199549609816, 52.180661934228716 ] } },
{ "type": "Feature", "properties": { "strassenschluessel": "05566000000801713", "bezeichnung": "Moorbrückenstr." }, "geometry": { "type": "Point", "coordinates": [ 7.53300488284607, 52.178189874257981 ] } },
{ "type": "Feature", "properties": { "strassenschluessel": "05566000000801714", "bezeichnung": "Mühlenstr." }, "geometry": { "type": "Point", "coordinates": [ 7.531951454910511, 52.174359444520107 ] } },
{ "type": "Feature", "properties": { "strassenschluessel": "05566000000801715", "bezeichnung": "Müldersbusch" }, "geometry": { "type": "Point", "coordinates": [ 7.553247438010215, 52.165747741617274 ] } },
{ "type": "Feature", "properties": { "strassenschluessel": "05566000000801716", "bezeichnung": "Münsterkamp" }, "geometry": { "type": "Point", "coordinates": [ 7.536082503837509, 52.169477041143821 ] } },
{ "type": "Feature", "properties": { "strassenschluessel": "05566000000801717", "bezeichnung": "Münsterstr." }, "geometry": { "type": "Point", "coordinates": [ 7.535863711135482, 52.174420829156318 ] } },
{ "type": "Feature", "properties": { "strassenschluessel": "05566000000801718", "bezeichnung": "Nachtigallenweg" }, "geometry": { "type": "Point", "coordinates": [ 7.514884768883904, 52.166874746335466 ] } },
{ "type": "Feature", "properties": { "strassenschluessel": "05566000000801719", "bezeichnung": "Neubrückenstr." }, "geometry": { "type": "Point", "coordinates": [ 7.535018723971959, 52.167359102656114 ] } },
{ "type": "Feature", "properties": { "strassenschluessel": "05566000000801720", "bezeichnung": "Neuenkirchener Str." }, "geometry": { "type": "Point", "coordinates": [ 7.509875896961082, 52.174197461657052 ] } },
{ "type": "Feature", "properties": { "strassenschluessel": "05566000000801721", "bezeichnung": "Nickelweg" }, "geometry": { "type": "Point", "coordinates": [ 7.505398067770404, 52.1695823768761 ] } },
{ "type": "Feature", "properties": { "strassenschluessel": "05566000000801722", "bezeichnung": "Nienkämpe" }, "geometry": { "type": "Point", "coordinates": [ 7.505547661421888, 52.170188480012456 ] } },
{ "type": "Feature", "properties": { "strassenschluessel": "05566000000801723", "bezeichnung": "Nordring" }, "geometry": { "type": "Point", "coordinates": [ 7.537157489179821, 52.176075530266793 ] } },
{ "type": "Feature", "properties": { "strassenschluessel": "05566000000801724", "bezeichnung": "Nordwalder Str." }, "geometry": { "type": "Point", "coordinates": [ 7.526631106249587, 52.168340018221251 ] } },
{ "type": "Feature", "properties": { "strassenschluessel": "05566000000801725", "bezeichnung": "Oststr." }, "geometry": { "type": "Point", "coordinates": [ 7.537307942064021, 52.173794260171256 ] } },
{ "type": "Feature", "properties": { "strassenschluessel": "05566000000801726", "bezeichnung": "Padkamp" }, "geometry": { "type": "Point", "coordinates": [ 7.534797851741389, 52.164076636210659 ] } },
{ "type": "Feature", "properties": { "strassenschluessel": "05566000000801727", "bezeichnung": "Pankratiusgasse" }, "geometry": { "type": "Point", "coordinates": [ 7.526589834273536, 52.174820848738783 ] } },
{ "type": "Feature", "properties": { "strassenschluessel": "05566000000801728", "bezeichnung": "Pottmeierweg" }, "geometry": { "type": "Point", "coordinates": [ 7.552377308135052, 52.161051764497479 ] } },
{ "type": "Feature", "properties": { "strassenschluessel": "05566000000801729", "bezeichnung": "Querstr." }, "geometry": { "type": "Point", "coordinates": [ 7.540029757328264, 52.170704506374399 ] } },
{ "type": "Feature", "properties": { "strassenschluessel": "05566000000801730", "bezeichnung": "Rabenstr." }, "geometry": { "type": "Point", "coordinates": [ 7.509183201683346, 52.169061947666343 ] } },
{ "type": "Feature", "properties": { "strassenschluessel": "05566000000801731", "bezeichnung": "Reckenfelder Str." }, "geometry": { "type": "Point", "coordinates": [ 7.528422442592256, 52.154618754987737 ] } },
{ "type": "Feature", "properties": { "strassenschluessel": "05566000000801732", "bezeichnung": "Reiherweg" }, "geometry": { "type": "Point", "coordinates": [ 7.512922465038997, 52.169121585597743 ] } },
{ "type": "Feature", "properties": { "strassenschluessel": "05566000000801733", "bezeichnung": "Rheiner Str." }, "geometry": { "type": "Point", "coordinates": [ 7.524435271463025, 52.177714402916969 ] } },
{ "type": "Feature", "properties": { "strassenschluessel": "05566000000801734", "bezeichnung": "Riegelstr." }, "geometry": { "type": "Point", "coordinates": [ 7.514272096597438, 52.172531595499905 ] } },
{ "type": "Feature", "properties": { "strassenschluessel": "05566000000801735", "bezeichnung": "Robertstr." }, "geometry": { "type": "Point", "coordinates": [ 7.520007777596231, 52.179205668108978 ] } },
{ "type": "Feature", "properties": { "strassenschluessel": "05566000000801736", "bezeichnung": "Roggenkamp" }, "geometry": { "type": "Point", "coordinates": [ 7.518187741643017, 52.184535260456578 ] } },
{ "type": "Feature", "properties": { "strassenschluessel": "05566000000801737", "bezeichnung": "Rosenstr." }, "geometry": { "type": "Point", "coordinates": [ 7.538048536964273, 52.165600190619912 ] } },
{ "type": "Feature", "properties": { "strassenschluessel": "05566000000801738", "bezeichnung": "Sandstr." }, "geometry": { "type": "Point", "coordinates": [ 7.546150930253993, 52.167836881517971 ] } },
{ "type": "Feature", "properties": { "strassenschluessel": "05566000000801739", "bezeichnung": "Sandufer" }, "geometry": { "type": "Point", "coordinates": [ 7.527368905090138, 52.173748540570038 ] } },
{ "type": "Feature", "properties": { "strassenschluessel": "05566000000801740", "bezeichnung": "Sandufergasse" }, "geometry": { "type": "Point", "coordinates": [ 7.52590976196836, 52.172761874968529 ] } },
{ "type": "Feature", "properties": { "strassenschluessel": "05566000000801741", "bezeichnung": "Silberweg" }, "geometry": { "type": "Point", "coordinates": [ 7.500033192366445, 52.173854252063641 ] } },
{ "type": "Feature", "properties": { "strassenschluessel": "05566000000801742", "bezeichnung": "Simmeris" }, "geometry": { "type": "Point", "coordinates": [ 7.522396831154248, 52.180648323228056 ] } },
{ "type": "Feature", "properties": { "strassenschluessel": "05566000000801743", "bezeichnung": "Sonnenstr." }, "geometry": { "type": "Point", "coordinates": [ 7.540735874150645, 52.167998276428811 ] } },
{ "type": "Feature", "properties": { "strassenschluessel": "05566000000801744", "bezeichnung": "Spatzenweg" }, "geometry": { "type": "Point", "coordinates": [ 7.51160287209241, 52.1598428886875 ] } },
{ "type": "Feature", "properties": { "strassenschluessel": "05566000000801745", "bezeichnung": "Spechtweg" }, "geometry": { "type": "Point", "coordinates": [ 7.508214237828862, 52.168562944307091 ] } },
{ "type": "Feature", "properties": { "strassenschluessel": "05566000000801746", "bezeichnung": "Speckmannstr." }, "geometry": { "type": "Point", "coordinates": [ 7.508210458579248, 52.176197803729103 ] } },
{ "type": "Feature", "properties": { "strassenschluessel": "05566000000801747", "bezeichnung": "Spiek" }, "geometry": { "type": "Point", "coordinates": [ 7.54592901407338, 52.173719618225867 ] } },
{ "type": "Feature", "properties": { "strassenschluessel": "05566000000801748", "bezeichnung": "Spiekkamp" }, "geometry": { "type": "Point", "coordinates": [ 7.542198333470987, 52.177208191873525 ] } },
{ "type": "Feature", "properties": { "strassenschluessel": "05566000000801749", "bezeichnung": "Spinnerstr." }, "geometry": { "type": "Point", "coordinates": [ 7.531619026785986, 52.182137322433967 ] } },
{ "type": "Feature", "properties": { "strassenschluessel": "05566000000801750", "bezeichnung": "Spulerstr." }, "geometry": { "type": "Point", "coordinates": [ 7.531476138089991, 52.182754782063263 ] } },
{ "type": "Feature", "properties": { "strassenschluessel": "05566000000801751", "bezeichnung": "Südring" }, "geometry": { "type": "Point", "coordinates": [ 7.551085796803918, 52.156789175283151 ] } },
{ "type": "Feature", "properties": { "strassenschluessel": "05566000000801752", "bezeichnung": "Südstr." }, "geometry": { "type": "Point", "coordinates": [ 7.524150729359792, 52.172245934771126 ] } },
{ "type": "Feature", "properties": { "strassenschluessel": "05566000000801753", "bezeichnung": "Schlatwieske" }, "geometry": { "type": "Point", "coordinates": [ 7.548758481322256, 52.167049407998412 ] } },
{ "type": "Feature", "properties": { "strassenschluessel": "05566000000801754", "bezeichnung": "Schluot" }, "geometry": { "type": "Point", "coordinates": [ 7.511403720089772, 52.180006743438206 ] } },
{ "type": "Feature", "properties": { "strassenschluessel": "05566000000801755", "bezeichnung": "Schmitzkamp" }, "geometry": { "type": "Point", "coordinates": [ 7.528817330249918, 52.157151753654439 ] } },
{ "type": "Feature", "properties": { "strassenschluessel": "05566000000801756", "bezeichnung": "Schniebändskamp" }, "geometry": { "type": "Point", "coordinates": [ 7.515854262134289, 52.181467112332484 ] } },
{ "type": "Feature", "properties": { "strassenschluessel": "05566000000801757", "bezeichnung": "Schoppenkamp" }, "geometry": { "type": "Point", "coordinates": [ 7.522174220389481, 52.181125038060308 ] } },
{ "type": "Feature", "properties": { "strassenschluessel": "05566000000801758", "bezeichnung": "Schräger Weg" }, "geometry": { "type": "Point", "coordinates": [ 7.526581721782096, 52.160580643046899 ] } },
{ "type": "Feature", "properties": { "strassenschluessel": "05566000000801759", "bezeichnung": "Schückingstr." }, "geometry": { "type": "Point", "coordinates": [ 7.524613197409733, 52.169492762189101 ] } },
{ "type": "Feature", "properties": { "strassenschluessel": "05566000000801760", "bezeichnung": "Schüttenrode" }, "geometry": { "type": "Point", "coordinates": [ 7.50854297074868, 52.177370554035349 ] } },
{ "type": "Feature", "properties": { "strassenschluessel": "05566000000801761", "bezeichnung": "Schützenstr." }, "geometry": { "type": "Point", "coordinates": [ 7.542423410693906, 52.170457668660561 ] } },
{ "type": "Feature", "properties": { "strassenschluessel": "05566000000801762", "bezeichnung": "Schulstr." }, "geometry": { "type": "Point", "coordinates": [ 7.525208336329205, 52.171696164494179 ] } },
{ "type": "Feature", "properties": { "strassenschluessel": "05566000000801763", "bezeichnung": "Schwalbennest" }, "geometry": { "type": "Point", "coordinates": [ 7.512979196404896, 52.169337511107102 ] } },
{ "type": "Feature", "properties": { "strassenschluessel": "05566000000801764", "bezeichnung": "Schwarzer Weg" }, "geometry": { "type": "Point", "coordinates": [ 7.512837270222954, 52.161348012314747 ] } },
{ "type": "Feature", "properties": { "strassenschluessel": "05566000000801765", "bezeichnung": "Schwester-Columba-Str." }, "geometry": { "type": "Point", "coordinates": [ 7.536402704917188, 52.169366050456915 ] } },
{ "type": "Feature", "properties": { "strassenschluessel": "05566000000801766", "bezeichnung": "Stahlstr." }, "geometry": { "type": "Point", "coordinates": [ 7.511490120358876, 52.173476201938797 ] } },
{ "type": "Feature", "properties": { "strassenschluessel": "05566000000801767", "bezeichnung": "St. Arnoldweg" }, "geometry": { "type": "Point", "coordinates": [ 7.508949324880522, 52.173600157924277 ] } },
{ "type": "Feature", "properties": { "strassenschluessel": "05566000000801768", "bezeichnung": "Stauffenbergstr." }, "geometry": { "type": "Point", "coordinates": [ 7.523101880553141, 52.181732580266541 ] } },
{ "type": "Feature", "properties": { "strassenschluessel": "05566000000801769", "bezeichnung": "Stefanstr." }, "geometry": { "type": "Point", "coordinates": [ 7.521664991167776, 52.175919995605035 ] } },
{ "type": "Feature", "properties": { "strassenschluessel": "05566000000801770", "bezeichnung": "Sternbusch" }, "geometry": { "type": "Point", "coordinates": [ 7.513819678092777, 52.154785191569914 ] } },
{ "type": "Feature", "properties": { "strassenschluessel": "05566000000801771", "bezeichnung": "Sternstr." }, "geometry": { "type": "Point", "coordinates": [ 7.537392516762671, 52.169572956696285 ] } },
{ "type": "Feature", "properties": { "strassenschluessel": "05566000000801772", "bezeichnung": "Grabbestr." }, "geometry": { "type": "Point", "coordinates": [ 7.513368089809736, 52.162474635251257 ] } },
{ "type": "Feature", "properties": { "strassenschluessel": "05566000000801773", "bezeichnung": "Sträterstr." }, "geometry": { "type": "Point", "coordinates": [ 7.510955004438745, 52.175938020988802 ] } },
{ "type": "Feature", "properties": { "strassenschluessel": "05566000000801774", "bezeichnung": "Stroetmannshügel" }, "geometry": { "type": "Point", "coordinates": [ 7.527466674495268, 52.169070225938668 ] } },
{ "type": "Feature", "properties": { "strassenschluessel": "05566000000801775", "bezeichnung": "Talstr." }, "geometry": { "type": "Point", "coordinates": [ 7.534246516912628, 52.177267198995686 ] } },
{ "type": "Feature", "properties": { "strassenschluessel": "05566000000801776", "bezeichnung": "Taubenstr." }, "geometry": { "type": "Point", "coordinates": [ 7.50505978960969, 52.168026038884591 ] } },
{ "type": "Feature", "properties": { "strassenschluessel": "05566000000801777", "bezeichnung": "Toschlag" }, "geometry": { "type": "Point", "coordinates": [ 7.508449550503411, 52.179240437120654 ] } },
{ "type": "Feature", "properties": { "strassenschluessel": "05566000000801778", "bezeichnung": "Ulmenweg" }, "geometry": { "type": "Point", "coordinates": [ 7.553769439485579, 52.158778557843974 ] } },
{ "type": "Feature", "properties": { "strassenschluessel": "05566000000801779", "bezeichnung": "Veltrup" }, "geometry": { "type": "Point", "coordinates": [ 7.555831630671062, 52.214435889886381 ] } },
{ "type": "Feature", "properties": { "strassenschluessel": "05566000000801780", "bezeichnung": "Vennweg" }, "geometry": { "type": "Point", "coordinates": [ 7.483286503291958, 52.177993547459188 ] } },
{ "type": "Feature", "properties": { "strassenschluessel": "05566000000801781", "bezeichnung": "Vinckestr." }, "geometry": { "type": "Point", "coordinates": [ 7.53487173144932, 52.180880800540521 ] } },
{ "type": "Feature", "properties": { "strassenschluessel": "05566000000801782", "bezeichnung": "Vogelweide" }, "geometry": { "type": "Point", "coordinates": [ 7.508030517169959, 52.167899901588868 ] } },
{ "type": "Feature", "properties": { "strassenschluessel": "05566000000801783", "bezeichnung": "Vor dem Brook" }, "geometry": { "type": "Point", "coordinates": [ 7.512125355633366, 52.161360010499656 ] } },
{ "type": "Feature", "properties": { "strassenschluessel": "05566000000801784", "bezeichnung": "Voßstr." }, "geometry": { "type": "Point", "coordinates": [ 7.516426171102716, 52.167536538359968 ] } },
{ "type": "Feature", "properties": { "strassenschluessel": "05566000000801785", "bezeichnung": "Wachtstr." }, "geometry": { "type": "Point", "coordinates": [ 7.526606672847454, 52.170444517469825 ] } },
{ "type": "Feature", "properties": { "strassenschluessel": "05566000000801787", "bezeichnung": "Wall" }, "geometry": { "type": "Point", "coordinates": [ 7.54572548016083, 52.170767585026098 ] } },
{ "type": "Feature", "properties": { "strassenschluessel": "05566000000801788", "bezeichnung": "Wallenbrook" }, "geometry": { "type": "Point", "coordinates": [ 7.543429639455273, 52.169197840356276 ] } },
{ "type": "Feature", "properties": { "strassenschluessel": "05566000000801789", "bezeichnung": "Wannenmacherstr." }, "geometry": { "type": "Point", "coordinates": [ 7.527139264040418, 52.176705272415077 ] } },
{ "type": "Feature", "properties": { "strassenschluessel": "05566000000801790", "bezeichnung": "Wasserstr." }, "geometry": { "type": "Point", "coordinates": [ 7.525742196360816, 52.166898868113279 ] } },
{ "type": "Feature", "properties": { "strassenschluessel": "05566000000801791", "bezeichnung": "Weberstr." }, "geometry": { "type": "Point", "coordinates": [ 7.520518161190018, 52.172910643175648 ] } },
{ "type": "Feature", "properties": { "strassenschluessel": "05566000000801792", "bezeichnung": "Wegnerstr." }, "geometry": { "type": "Point", "coordinates": [ 7.550443617552138, 52.171974475775471 ] } },
{ "type": "Feature", "properties": { "strassenschluessel": "05566000000801793", "bezeichnung": "Weitkampstr." }, "geometry": { "type": "Point", "coordinates": [ 7.531577453400853, 52.179292560746084 ] } },
{ "type": "Feature", "properties": { "strassenschluessel": "05566000000801794", "bezeichnung": "Westring" }, "geometry": { "type": "Point", "coordinates": [ 7.513780887698968, 52.169674013900618 ] } },
{ "type": "Feature", "properties": { "strassenschluessel": "05566000000801795", "bezeichnung": "Weststr." }, "geometry": { "type": "Point", "coordinates": [ 7.521104684745792, 52.175699641445298 ] } },
{ "type": "Feature", "properties": { "strassenschluessel": "05566000000801796", "bezeichnung": "Westumer Landstr." }, "geometry": { "type": "Point", "coordinates": [ 7.499092433968638, 52.184058627624637 ] } },
{ "type": "Feature", "properties": { "strassenschluessel": "05566000000801797", "bezeichnung": "Wibbeltstr." }, "geometry": { "type": "Point", "coordinates": [ 7.522595205624397, 52.168417132194122 ] } },
{ "type": "Feature", "properties": { "strassenschluessel": "05566000000801798", "bezeichnung": "Wildgrund" }, "geometry": { "type": "Point", "coordinates": [ 7.506756914946423, 52.175682526898591 ] } },
{ "type": "Feature", "properties": { "strassenschluessel": "05566000000801799", "bezeichnung": "Wilhelmstr." }, "geometry": { "type": "Point", "coordinates": [ 7.52627838105109, 52.175363438745045 ] } },
{ "type": "Feature", "properties": { "strassenschluessel": "05566000000801800", "bezeichnung": "Windthorststr." }, "geometry": { "type": "Point", "coordinates": [ 7.541352474635064, 52.161871746824225 ] } },
{ "type": "Feature", "properties": { "strassenschluessel": "05566000000801801", "bezeichnung": "Winkelstr." }, "geometry": { "type": "Point", "coordinates": [ 7.522088086841384, 52.172316460948089 ] } },
{ "type": "Feature", "properties": { "strassenschluessel": "05566000000801802", "bezeichnung": "Winninghoffstiege" }, "geometry": { "type": "Point", "coordinates": [ 7.540685232659604, 52.178143929380148 ] } },
{ "type": "Feature", "properties": { "strassenschluessel": "05566000000801803", "bezeichnung": "Zinkstr." }, "geometry": { "type": "Point", "coordinates": [ 7.50635452868374, 52.173387733716268 ] } },
{ "type": "Feature", "properties": { "strassenschluessel": "05566000000801804", "bezeichnung": "Zum Dorfgraben" }, "geometry": { "type": "Point", "coordinates": [ 7.51995716467711, 52.170841635372994 ] } },
{ "type": "Feature", "properties": { "strassenschluessel": "05566000000801805", "bezeichnung": "Kuhlmannstr." }, "geometry": { "type": "Point", "coordinates": [ 7.497925442504363, 52.175614013992984 ] } },
{ "type": "Feature", "properties": { "strassenschluessel": "05566000000801806", "bezeichnung": "Münzstr." }, "geometry": { "type": "Point", "coordinates": [ 7.502719748865704, 52.173989817503568 ] } },
{ "type": "Feature", "properties": { "strassenschluessel": "05566000000801807", "bezeichnung": "Kemperswieske" }, "geometry": { "type": "Point", "coordinates": [ 7.52675476890203, 52.158154098084793 ] } },
{ "type": "Feature", "properties": { "strassenschluessel": "05566000000801808", "bezeichnung": "Brunsmannweg" }, "geometry": { "type": "Point", "coordinates": [ 7.526825558380545, 52.159000942711536 ] } },
{ "type": "Feature", "properties": { "strassenschluessel": "05566000000801809", "bezeichnung": "In der Lauge" }, "geometry": { "type": "Point", "coordinates": [ 7.527858248039697, 52.177898480588112 ] } },
{ "type": "Feature", "properties": { "strassenschluessel": "05566000000801810", "bezeichnung": "Heüveldopsbusch" }, "geometry": { "type": "Point", "coordinates": [ 7.548994683102979, 52.168411788626571 ] } },
{ "type": "Feature", "properties": { "strassenschluessel": "05566000000801811", "bezeichnung": "Bernhard-Riesenbeck-Weg" }, "geometry": { "type": "Point", "coordinates": [ 7.550832997065189, 52.169071403263274 ] } },
{ "type": "Feature", "properties": { "strassenschluessel": "05566000000801812", "bezeichnung": "Hollefeldstr." }, "geometry": { "type": "Point", "coordinates": [ 7.561684375091974, 52.146697554951487 ] } },
{ "type": "Feature", "properties": { "strassenschluessel": "05566000000801813", "bezeichnung": "Auf der Heide" }, "geometry": { "type": "Point", "coordinates": [ 7.554810114519691, 52.184034585208778 ] } },
{ "type": "Feature", "properties": { "strassenschluessel": "05566000000801814", "bezeichnung": "Drosteweg" }, "geometry": { "type": "Point", "coordinates": [ 7.549192121806374, 52.188961744199901 ] } },
{ "type": "Feature", "properties": { "strassenschluessel": "05566000000801815", "bezeichnung": "Dünenweg" }, "geometry": { "type": "Point", "coordinates": [ 7.549180096672424, 52.191912630196633 ] } },
{ "type": "Feature", "properties": { "strassenschluessel": "05566000000801816", "bezeichnung": "Frankweg" }, "geometry": { "type": "Point", "coordinates": [ 7.549128649383744, 52.188010790226862 ] } },
{ "type": "Feature", "properties": { "strassenschluessel": "05566000000801817", "bezeichnung": "Gartenweg" }, "geometry": { "type": "Point", "coordinates": [ 7.549402967200761, 52.190681025313424 ] } },
{ "type": "Feature", "properties": { "strassenschluessel": "05566000000801818", "bezeichnung": "Richard-Wagner-Str." }, "geometry": { "type": "Point", "coordinates": [ 7.51999878398707, 52.163913604074182 ] } },
{ "type": "Feature", "properties": { "strassenschluessel": "05566000000801819", "bezeichnung": "Kettelerstr." }, "geometry": { "type": "Point", "coordinates": [ 7.550062989194176, 52.187403409580938 ] } },
{ "type": "Feature", "properties": { "strassenschluessel": "05566000000801820", "bezeichnung": "Lütkenfelde" }, "geometry": { "type": "Point", "coordinates": [ 7.552238485034871, 52.18548873532901 ] } },
{ "type": "Feature", "properties": { "strassenschluessel": "05566000000801821", "bezeichnung": "Ringstr." }, "geometry": { "type": "Point", "coordinates": [ 7.549705382124171, 52.192653918053416 ] } },
{ "type": "Feature", "properties": { "strassenschluessel": "05566000000801822", "bezeichnung": "Böckenholtweg" }, "geometry": { "type": "Point", "coordinates": [ 7.550326144221648, 52.19130162873946 ] } },
{ "type": "Feature", "properties": { "strassenschluessel": "05566000000801823", "bezeichnung": "Sinninger Str." }, "geometry": { "type": "Point", "coordinates": [ 7.550621241665698, 52.186862244715876 ] } },
{ "type": "Feature", "properties": { "strassenschluessel": "05566000000801824", "bezeichnung": "Steinweg" }, "geometry": { "type": "Point", "coordinates": [ 7.55067107365487, 52.190551049531834 ] } },
{ "type": "Feature", "properties": { "strassenschluessel": "05566000000801825", "bezeichnung": "Brahmsstr." }, "geometry": { "type": "Point", "coordinates": [ 7.52582353548664, 52.164368569956999 ] } },
{ "type": "Feature", "properties": { "strassenschluessel": "05566000000801826", "bezeichnung": "Uferweg" }, "geometry": { "type": "Point", "coordinates": [ 7.548605861376737, 52.189105588233218 ] } },
{ "type": "Feature", "properties": { "strassenschluessel": "05566000000801827", "bezeichnung": "Albert-Lortzing-Str." }, "geometry": { "type": "Point", "coordinates": [ 7.524434473885844, 52.164456265176973 ] } },
{ "type": "Feature", "properties": { "strassenschluessel": "05566000000801828", "bezeichnung": "Lessingstr." }, "geometry": { "type": "Point", "coordinates": [ 7.515142020513672, 52.164279411309522 ] } },
{ "type": "Feature", "properties": { "strassenschluessel": "05566000000801829", "bezeichnung": "Sinningen" }, "geometry": { "type": "Point", "coordinates": [ 7.555734104067169, 52.194504336225314 ] } },
{ "type": "Feature", "properties": { "strassenschluessel": "05566000000801830", "bezeichnung": "Martinumgasse" }, "geometry": { "type": "Point", "coordinates": [ 7.524055892039693, 52.178590096729394 ] } },
{ "type": "Feature", "properties": { "strassenschluessel": "05566000000801831", "bezeichnung": "Mozartstr." }, "geometry": { "type": "Point", "coordinates": [ 7.522222268103998, 52.162924722291237 ] } },
{ "type": "Feature", "properties": { "strassenschluessel": "05566000000801832", "bezeichnung": "Schubertstr." }, "geometry": { "type": "Point", "coordinates": [ 7.525764980931628, 52.161988459665217 ] } },
{ "type": "Feature", "properties": { "strassenschluessel": "05566000000801833", "bezeichnung": "Am Markt" }, "geometry": { "type": "Point", "coordinates": [ 7.52959636748441, 52.173973213757542 ] } },
{ "type": "Feature", "properties": { "strassenschluessel": "05566000000801834", "bezeichnung": "Brucknerstr." }, "geometry": { "type": "Point", "coordinates": [ 7.523062856157383, 52.164480628958557 ] } },
{ "type": "Feature", "properties": { "strassenschluessel": "05566000000801835", "bezeichnung": "Max-Reger-Str." }, "geometry": { "type": "Point", "coordinates": [ 7.522346430610144, 52.163871800341056 ] } },
{ "type": "Feature", "properties": { "strassenschluessel": "05566000000801836", "bezeichnung": "Bela-Bartok-Str." }, "geometry": { "type": "Point", "coordinates": [ 7.52597761411127, 52.164662816366402 ] } },
{ "type": "Feature", "properties": { "strassenschluessel": "05566000000801837", "bezeichnung": "Schillerstr." }, "geometry": { "type": "Point", "coordinates": [ 7.51777185621781, 52.165001792449814 ] } },
{ "type": "Feature", "properties": { "strassenschluessel": "05566000000801838", "bezeichnung": "Theodor-Storm-Str." }, "geometry": { "type": "Point", "coordinates": [ 7.516914291573195, 52.166181453008328 ] } },
{ "type": "Feature", "properties": { "strassenschluessel": "05566000000801839", "bezeichnung": "Goethestr." }, "geometry": { "type": "Point", "coordinates": [ 7.517316663408169, 52.166741203109993 ] } },
{ "type": "Feature", "properties": { "strassenschluessel": "05566000000801840", "bezeichnung": "Thomas-Mann-Str." }, "geometry": { "type": "Point", "coordinates": [ 7.519112586678372, 52.166859497311222 ] } },
{ "type": "Feature", "properties": { "strassenschluessel": "05566000000801841", "bezeichnung": "Theodor-Fontane-Str." }, "geometry": { "type": "Point", "coordinates": [ 7.520049052620601, 52.167469649800033 ] } },
{ "type": "Feature", "properties": { "strassenschluessel": "05566000000801842", "bezeichnung": "Gerhart-Hauptmann-Str." }, "geometry": { "type": "Point", "coordinates": [ 7.520918549329146, 52.166818201997437 ] } },
{ "type": "Feature", "properties": { "strassenschluessel": "05566000000801843", "bezeichnung": "Matthias-Claudius-Str." }, "geometry": { "type": "Point", "coordinates": [ 7.516424100190028, 52.164534079135564 ] } },
{ "type": "Feature", "properties": { "strassenschluessel": "05566000000801844", "bezeichnung": "Mörikestr." }, "geometry": { "type": "Point", "coordinates": [ 7.513911523111678, 52.163853193073919 ] } },
{ "type": "Feature", "properties": { "strassenschluessel": "05566000000801845", "bezeichnung": "Bleiweg" }, "geometry": { "type": "Point", "coordinates": [ 7.495246905622615, 52.173799647201754 ] } },
{ "type": "Feature", "properties": { "strassenschluessel": "05566000000801846", "bezeichnung": "Wiesengrund" }, "geometry": { "type": "Point", "coordinates": [ 7.492813351027968, 52.170205565985313 ] } },
{ "type": "Feature", "properties": { "strassenschluessel": "05566000000801847", "bezeichnung": "Distelkamp" }, "geometry": { "type": "Point", "coordinates": [ 7.527902147141556, 52.159876718935948 ] } },
{ "type": "Feature", "properties": { "strassenschluessel": "05566000000801848", "bezeichnung": "Am Brink" }, "geometry": { "type": "Point", "coordinates": [ 7.531310443031726, 52.174689803106297 ] } },
{ "type": "Feature", "properties": { "strassenschluessel": "05566000000801849", "bezeichnung": "Hermann-Hesse-Str." }, "geometry": { "type": "Point", "coordinates": [ 7.52232215440173, 52.166636913342309 ] } },
{ "type": "Feature", "properties": { "strassenschluessel": "05566000000801850", "bezeichnung": "Auf dem Esch" }, "geometry": { "type": "Point", "coordinates": [ 7.604439513144337, 52.153434158079243 ] } },
{ "type": "Feature", "properties": { "strassenschluessel": "05566000000801851", "bezeichnung": "Bruckland" }, "geometry": { "type": "Point", "coordinates": [ 7.593827591262621, 52.154427940590367 ] } },
{ "type": "Feature", "properties": { "strassenschluessel": "05566000000801852", "bezeichnung": "Dettener Str." }, "geometry": { "type": "Point", "coordinates": [ 7.584084741165831, 52.158155590558529 ] } },
{ "type": "Feature", "properties": { "strassenschluessel": "05566000000801853", "bezeichnung": "Dorfstr." }, "geometry": { "type": "Point", "coordinates": [ 7.609296947708297, 52.149666874172418 ] } },
{ "type": "Feature", "properties": { "strassenschluessel": "05566000000801854", "bezeichnung": "Ernst-Hase-Weg" }, "geometry": { "type": "Point", "coordinates": [ 7.598309909435913, 52.155630388109913 ] } },
{ "type": "Feature", "properties": { "strassenschluessel": "05566000000801855", "bezeichnung": "Feld" }, "geometry": { "type": "Point", "coordinates": [ 7.594578764187612, 52.152118087014642 ] } },
{ "type": "Feature", "properties": { "strassenschluessel": "05566000000801856", "bezeichnung": "Friedhofsweg" }, "geometry": { "type": "Point", "coordinates": [ 7.610744776385812, 52.150328800280498 ] } },
{ "type": "Feature", "properties": { "strassenschluessel": "05566000000801857", "bezeichnung": "Hilgenbrink" }, "geometry": { "type": "Point", "coordinates": [ 7.608263118712737, 52.151270663276449 ] } },
{ "type": "Feature", "properties": { "strassenschluessel": "05566000000801858", "bezeichnung": "Hofbrede" }, "geometry": { "type": "Point", "coordinates": [ 7.601212423418501, 52.151272360024862 ] } },
{ "type": "Feature", "properties": { "strassenschluessel": "05566000000801859", "bezeichnung": "Im Bail" }, "geometry": { "type": "Point", "coordinates": [ 7.626857798371954, 52.152425243416054 ] } },
{ "type": "Feature", "properties": { "strassenschluessel": "05566000000801860", "bezeichnung": "Mühlenweg" }, "geometry": { "type": "Point", "coordinates": [ 7.604603907762002, 52.149154919183594 ] } },
{ "type": "Feature", "properties": { "strassenschluessel": "05566000000801861", "bezeichnung": "Saerbecker Weg" }, "geometry": { "type": "Point", "coordinates": [ 7.5920149502812, 52.160731601557721 ] } },
{ "type": "Feature", "properties": { "strassenschluessel": "05566000000801862", "bezeichnung": "Sandhügel" }, "geometry": { "type": "Point", "coordinates": [ 7.597536443771149, 52.157130971986639 ] } },
{ "type": "Feature", "properties": { "strassenschluessel": "05566000000801863", "bezeichnung": "Sandstiege" }, "geometry": { "type": "Point", "coordinates": [ 7.593444441300932, 52.154939846008098 ] } },
{ "type": "Feature", "properties": { "strassenschluessel": "05566000000801864", "bezeichnung": "Stautenberg" }, "geometry": { "type": "Point", "coordinates": [ 7.598194280242397, 52.154730450912851 ] } },
{ "type": "Feature", "properties": { "strassenschluessel": "05566000000801865", "bezeichnung": "Up 'm Mersk" }, "geometry": { "type": "Point", "coordinates": [ 7.613294298053371, 52.155875651298452 ] } },
{ "type": "Feature", "properties": { "strassenschluessel": "05566000000801866", "bezeichnung": "Heinrich-Heine-Str." }, "geometry": { "type": "Point", "coordinates": [ 7.521912150268195, 52.165919986496036 ] } },
{ "type": "Feature", "properties": { "strassenschluessel": "05566000000801867", "bezeichnung": "Hölderlinstr." }, "geometry": { "type": "Point", "coordinates": [ 7.524078569439302, 52.166198696197895 ] } },
{ "type": "Feature", "properties": { "strassenschluessel": "05566000000801868", "bezeichnung": "Kleiststr." }, "geometry": { "type": "Point", "coordinates": [ 7.525336533244732, 52.166170534672162 ] } },
{ "type": "Feature", "properties": { "strassenschluessel": "05566000000801869", "bezeichnung": "Brentanostr." }, "geometry": { "type": "Point", "coordinates": [ 7.52546968813924, 52.165038963359379 ] } },
{ "type": "Feature", "properties": { "strassenschluessel": "05566000000801870", "bezeichnung": "Rilkestr." }, "geometry": { "type": "Point", "coordinates": [ 7.524579509414425, 52.164994005432753 ] } },
{ "type": "Feature", "properties": { "strassenschluessel": "05566000000801871", "bezeichnung": "Händelstr." }, "geometry": { "type": "Point", "coordinates": [ 7.519965375424728, 52.164415024467026 ] } },
{ "type": "Feature", "properties": { "strassenschluessel": "05566000000801872", "bezeichnung": "Haydnstr." }, "geometry": { "type": "Point", "coordinates": [ 7.518272537166935, 52.163890599318577 ] } },
{ "type": "Feature", "properties": { "strassenschluessel": "05566000000801873", "bezeichnung": "Gustav-Mahler-Str." }, "geometry": { "type": "Point", "coordinates": [ 7.517780731843549, 52.163234787545463 ] } },
{ "type": "Feature", "properties": { "strassenschluessel": "05566000000801874", "bezeichnung": "Max-Bruch-Str." }, "geometry": { "type": "Point", "coordinates": [ 7.516419959794782, 52.163100223339043 ] } },
{ "type": "Feature", "properties": { "strassenschluessel": "05566000000801875", "bezeichnung": "Hindemithstr." }, "geometry": { "type": "Point", "coordinates": [ 7.519017822170115, 52.162531659169353 ] } },
{ "type": "Feature", "properties": { "strassenschluessel": "05566000000801876", "bezeichnung": "Franz-Liszt-Str." }, "geometry": { "type": "Point", "coordinates": [ 7.52012119681952, 52.163432245410036 ] } },
{ "type": "Feature", "properties": { "strassenschluessel": "05566000000801877", "bezeichnung": "Offenbachstr." }, "geometry": { "type": "Point", "coordinates": [ 7.520337734244622, 52.162306553396355 ] } },
{ "type": "Feature", "properties": { "strassenschluessel": "05566000000801878", "bezeichnung": "Pfarrer-Barthel-Str." }, "geometry": { "type": "Point", "coordinates": [ 7.54427238064882, 52.169323864893983 ] } },
{ "type": "Feature", "properties": { "strassenschluessel": "05566000000801879", "bezeichnung": "Dahlienweg" }, "geometry": { "type": "Point", "coordinates": [ 7.536247330648031, 52.164272978770647 ] } },
{ "type": "Feature", "properties": { "strassenschluessel": "05566000000801880", "bezeichnung": "Wacholderweg" }, "geometry": { "type": "Point", "coordinates": [ 7.537770263404971, 52.162938227343325 ] } },
{ "type": "Feature", "properties": { "strassenschluessel": "05566000000801881", "bezeichnung": "Kirchplatz-Heilig-Geist" }, "geometry": { "type": "Point", "coordinates": [ 7.523813515076849, 52.158754050043193 ] } },
{ "type": "Feature", "properties": { "strassenschluessel": "05566000000801883", "bezeichnung": "Albert-Haverkamp-Weg" }, "geometry": null },
{ "type": "Feature", "properties": { "strassenschluessel": "05566000000801884", "bezeichnung": "Alter Fährweg" }, "geometry": null },
{ "type": "Feature", "properties": { "strassenschluessel": "05566000000801885", "bezeichnung": "Anton-Storch-Str." }, "geometry": { "type": "Point", "coordinates": [ 7.540821667706233, 52.17622540322413 ] } },
{ "type": "Feature", "properties": { "strassenschluessel": "05566000000801886", "bezeichnung": "Carlo-Schmid-Str." }, "geometry": { "type": "Point", "coordinates": [ 7.541914785463185, 52.173331916620043 ] } },
{ "type": "Feature", "properties": { "strassenschluessel": "05566000000801887", "bezeichnung": "Erich-Ollenhauer-Str." }, "geometry": { "type": "Point", "coordinates": [ 7.538738040048012, 52.174170221091337 ] } },
{ "type": "Feature", "properties": { "strassenschluessel": "05566000000801888", "bezeichnung": "Ernst-Reuter-Str." }, "geometry": { "type": "Point", "coordinates": [ 7.543377708807953, 52.174645293617864 ] } },
{ "type": "Feature", "properties": { "strassenschluessel": "05566000000801889", "bezeichnung": "Fritz-Erler-Str." }, "geometry": { "type": "Point", "coordinates": [ 7.540893960416147, 52.175795932683158 ] } },
{ "type": "Feature", "properties": { "strassenschluessel": "05566000000801890", "bezeichnung": "Heinrich-Lübke-Str." }, "geometry": { "type": "Point", "coordinates": [ 7.540161715069138, 52.174382171597976 ] } },
{ "type": "Feature", "properties": { "strassenschluessel": "05566000000801891", "bezeichnung": "Hermann-Ehlers-Weg" }, "geometry": { "type": "Point", "coordinates": [ 7.541440488705497, 52.174405876301726 ] } },
{ "type": "Feature", "properties": { "strassenschluessel": "05566000000801892", "bezeichnung": "Jakob-Kaiser-Str." }, "geometry": { "type": "Point", "coordinates": [ 7.544403632028086, 52.175067201917791 ] } },
{ "type": "Feature", "properties": { "strassenschluessel": "05566000000801893", "bezeichnung": "Konrad-Adenauer-Str." }, "geometry": { "type": "Point", "coordinates": [ 7.539962087482049, 52.174955232104573 ] } },
{ "type": "Feature", "properties": { "strassenschluessel": "05566000000801894", "bezeichnung": "Kurt-Schumacher-Str." }, "geometry": { "type": "Point", "coordinates": [ 7.544047080910851, 52.173892848515671 ] } },
{ "type": "Feature", "properties": { "strassenschluessel": "05566000000801895", "bezeichnung": "Ludwig-Erhard-Str." }, "geometry": { "type": "Point", "coordinates": [ 7.544311329717762, 52.17446845797248 ] } },
{ "type": "Feature", "properties": { "strassenschluessel": "05566000000801896", "bezeichnung": "Marie-El.-Lüders-Str." }, "geometry": { "type": "Point", "coordinates": [ 7.54130863993538, 52.1755375322021 ] } },
{ "type": "Feature", "properties": { "strassenschluessel": "05566000000801897", "bezeichnung": "Theodor-Heuss-Str." }, "geometry": { "type": "Point", "coordinates": [ 7.54069144181722, 52.173237079273513 ] } },
{ "type": "Feature", "properties": { "strassenschluessel": "05566000000801898", "bezeichnung": "Wuord" }, "geometry": { "type": "Point", "coordinates": [ 7.540343189796967, 52.173417732656986 ] } },
{ "type": "Feature", "properties": { "strassenschluessel": "05566000000801899", "bezeichnung": "Am Hain" }, "geometry": { "type": "Point", "coordinates": [ 7.528183552163738, 52.16365597126314 ] } },
{ "type": "Feature", "properties": { "strassenschluessel": "05566000000801900", "bezeichnung": "Alter Kirchweg" }, "geometry": { "type": "Point", "coordinates": [ 7.528854584447461, 52.163026112742337 ] } },
{ "type": "Feature", "properties": { "strassenschluessel": "05566000000801901", "bezeichnung": "Servatiusgasse" }, "geometry": { "type": "Point", "coordinates": [ 7.609048283670206, 52.149764276400838 ] } },
{ "type": "Feature", "properties": { "strassenschluessel": "05566000000801902", "bezeichnung": "August-Heeke-Str." }, "geometry": { "type": "Point", "coordinates": [ 7.548090340366437, 52.175011961513 ] } },
{ "type": "Feature", "properties": { "strassenschluessel": "05566000000801903", "bezeichnung": "Albert-Hillenkötter-Str." }, "geometry": { "type": "Point", "coordinates": [ 7.5496514500281, 52.174778562023079 ] } },
{ "type": "Feature", "properties": { "strassenschluessel": "05566000000801904", "bezeichnung": "Hans-Böckler-Str." }, "geometry": { "type": "Point", "coordinates": [ 7.552408791560549, 52.173962331839135 ] } },
{ "type": "Feature", "properties": { "strassenschluessel": "05566000000801905", "bezeichnung": "Karl-Arnold-Str." }, "geometry": { "type": "Point", "coordinates": [ 7.548259202055413, 52.173536779134565 ] } },
{ "type": "Feature", "properties": { "strassenschluessel": "05566000000801906", "bezeichnung": "Ferdinand-Lassalle-Str." }, "geometry": { "type": "Point", "coordinates": [ 7.548949251469649, 52.174057105561069 ] } },
{ "type": "Feature", "properties": { "strassenschluessel": "05566000000801907", "bezeichnung": "August-Bebel-Str." }, "geometry": { "type": "Point", "coordinates": [ 7.549368298929844, 52.17325793371193 ] } },
{ "type": "Feature", "properties": { "strassenschluessel": "05566000000801908", "bezeichnung": "Walter-Freitag-Str." }, "geometry": { "type": "Point", "coordinates": [ 7.550418053032326, 52.173293937929714 ] } },
{ "type": "Feature", "properties": { "strassenschluessel": "05566000000801909", "bezeichnung": "Beimerskamp" }, "geometry": { "type": "Point", "coordinates": [ 7.518310089343331, 52.176577911577567 ] } },
{ "type": "Feature", "properties": { "strassenschluessel": "05566000000801910", "bezeichnung": "Knollenwiese" }, "geometry": { "type": "Point", "coordinates": [ 7.53424560220794, 52.172072270315951 ] } },
{ "type": "Feature", "properties": { "strassenschluessel": "05566000000801911", "bezeichnung": "Meinerts Brook" }, "geometry": { "type": "Point", "coordinates": [ 7.564856546578979, 52.166070420629232 ] } },
{ "type": "Feature", "properties": { "strassenschluessel": "05566000000801912", "bezeichnung": "Alte Emsstr." }, "geometry": { "type": "Point", "coordinates": [ 7.531791155255124, 52.178255642482647 ] } },
{ "type": "Feature", "properties": { "strassenschluessel": "05566000000801913", "bezeichnung": "Mariengarten" }, "geometry": { "type": "Point", "coordinates": [ 7.531346245101878, 52.16917211290253 ] } },
{ "type": "Feature", "properties": { "strassenschluessel": "05566000000801915", "bezeichnung": "Hermelingskamp" }, "geometry": { "type": "Point", "coordinates": [ 7.503521422361271, 52.170917343760244 ] } },
{ "type": "Feature", "properties": { "strassenschluessel": "05566000000801916", "bezeichnung": "Elsa-Brändström-Str." }, "geometry": { "type": "Point", "coordinates": [ 7.546832202619265, 52.176931913196576 ] } },
{ "type": "Feature", "properties": { "strassenschluessel": "05566000000801917", "bezeichnung": "Marie-Curie-Str." }, "geometry": { "type": "Point", "coordinates": [ 7.546769503523056, 52.175587177818876 ] } },
{ "type": "Feature", "properties": { "strassenschluessel": "05566000000801918", "bezeichnung": "Hannah-Arendt-Str." }, "geometry": { "type": "Point", "coordinates": [ 7.546689286700083, 52.176223805909608 ] } },
{ "type": "Feature", "properties": { "strassenschluessel": "05566000000801919", "bezeichnung": "Charlotte-Bühler-Str." }, "geometry": { "type": "Point", "coordinates": [ 7.54803370283076, 52.176500105708257 ] } },
{ "type": "Feature", "properties": { "strassenschluessel": "05566000000801920", "bezeichnung": "Nelly-Sachs-Str." }, "geometry": { "type": "Point", "coordinates": [ 7.545397205109145, 52.177924230688447 ] } },
{ "type": "Feature", "properties": { "strassenschluessel": "05566000000801921", "bezeichnung": "Bertha-von-Suttner-Str." }, "geometry": { "type": "Point", "coordinates": [ 7.544012420073784, 52.177386085591884 ] } },
{ "type": "Feature", "properties": { "strassenschluessel": "05566000000801922", "bezeichnung": "Maria-Montessori-Str." }, "geometry": { "type": "Point", "coordinates": [ 7.542978573712416, 52.176812184606824 ] } },
{ "type": "Feature", "properties": { "strassenschluessel": "05566000000801923", "bezeichnung": "Edith-Stein-Str." }, "geometry": { "type": "Point", "coordinates": [ 7.543707883034086, 52.176339808841455 ] } },
{ "type": "Feature", "properties": { "strassenschluessel": "05566000000801924", "bezeichnung": "Gertrud-Luckner-Str." }, "geometry": { "type": "Point", "coordinates": [ 7.545195706372859, 52.176905915090941 ] } },
{ "type": "Feature", "properties": { "strassenschluessel": "05566000000801925", "bezeichnung": "Marie-Juchacz-Str." }, "geometry": { "type": "Point", "coordinates": [ 7.545448903509789, 52.176102526586263 ] } },
{ "type": "Feature", "properties": { "strassenschluessel": "05566000000801927", "bezeichnung": "Franz-Lehar-Str." }, "geometry": { "type": "Point", "coordinates": [ 7.516443007850016, 52.162303942504195 ] } },
{ "type": "Feature", "properties": { "strassenschluessel": "05566000000801928", "bezeichnung": "Wilmersstr." }, "geometry": { "type": "Point", "coordinates": [ 7.564542853221835, 52.154649340098779 ] } },
{ "type": "Feature", "properties": { "strassenschluessel": "05566000000801930", "bezeichnung": "Hengeloplatz" }, "geometry": { "type": "Point", "coordinates": [ 7.531652476624672, 52.176086256653441 ] } },
{ "type": "Feature", "properties": { "strassenschluessel": "05566000000801931", "bezeichnung": "Im Kleinkamp" }, "geometry": { "type": "Point", "coordinates": [ 7.538360743074882, 52.176072436295406 ] } },
{ "type": "Feature", "properties": { "strassenschluessel": "05566000000801932", "bezeichnung": "Schlösserweg" }, "geometry": { "type": "Point", "coordinates": [ 7.511182525970785, 52.182113152894722 ] } },
{ "type": "Feature", "properties": { "strassenschluessel": "05566000000801933", "bezeichnung": "Poggenpohl" }, "geometry": { "type": "Point", "coordinates": [ 7.529526279038607, 52.157740705265581 ] } },
{ "type": "Feature", "properties": { "strassenschluessel": "05566000000801934", "bezeichnung": "Nien Eschk" }, "geometry": { "type": "Point", "coordinates": [ 7.555550696481026, 52.165022679627491 ] } },
{ "type": "Feature", "properties": { "strassenschluessel": "05566000000801935", "bezeichnung": "Holunderweg" }, "geometry": { "type": "Point", "coordinates": [ 7.561977402742731, 52.163262853809513 ] } },
{ "type": "Feature", "properties": { "strassenschluessel": "05566000000801936", "bezeichnung": "Fliederweg" }, "geometry": { "type": "Point", "coordinates": [ 7.557401037753208, 52.164178023111532 ] } },
{ "type": "Feature", "properties": { "strassenschluessel": "05566000000801937", "bezeichnung": "Schlehenweg" }, "geometry": { "type": "Point", "coordinates": [ 7.557590054163112, 52.162809603271718 ] } },
{ "type": "Feature", "properties": { "strassenschluessel": "05566000000801938", "bezeichnung": "2931 Hamm(Westf) - Emden" }, "geometry": null },
{ "type": "Feature", "properties": { "strassenschluessel": "05566000000801939", "bezeichnung": "Bronzeweg" }, "geometry": { "type": "Point", "coordinates": [ 7.502378783762977, 52.169246210508469 ] } },
{ "type": "Feature", "properties": { "strassenschluessel": "05566000000801940", "bezeichnung": "Chromweg" }, "geometry": { "type": "Point", "coordinates": [ 7.503851584883462, 52.168911744197423 ] } },
{ "type": "Feature", "properties": { "strassenschluessel": "05566000000801941", "bezeichnung": "Messingweg" }, "geometry": { "type": "Point", "coordinates": [ 7.502224891529121, 52.168970178814305 ] } },
{ "type": "Feature", "properties": { "strassenschluessel": "05566000000801942", "bezeichnung": "Metallweg" }, "geometry": { "type": "Point", "coordinates": [ 7.501023411623828, 52.169418443449366 ] } },
{ "type": "Feature", "properties": { "strassenschluessel": "05566000000801943", "bezeichnung": "Platinweg" }, "geometry": { "type": "Point", "coordinates": [ 7.500369293109953, 52.169676347830844 ] } },
{ "type": "Feature", "properties": { "strassenschluessel": "05566000000801944", "bezeichnung": "Rotdornweg" }, "geometry": { "type": "Point", "coordinates": [ 7.558324429337717, 52.164254366312342 ] } },
{ "type": "Feature", "properties": { "strassenschluessel": "05566000000801945", "bezeichnung": "Hans-Poetschki-Str." }, "geometry": { "type": "Point", "coordinates": [ 7.52994301609318, 52.15442320962584 ] } },
{ "type": "Feature", "properties": { "strassenschluessel": "05566000000801946", "bezeichnung": "Kleine Schweiz" }, "geometry": { "type": "Point", "coordinates": [ 7.531796468264403, 52.188504726187787 ] } },
{ "type": "Feature", "properties": { "strassenschluessel": "05566000000801947", "bezeichnung": "Gertrud-van-Dam-Str." }, "geometry": { "type": "Point", "coordinates": [ 7.52260191394781, 52.169780264126146 ] } },
{ "type": "Feature", "properties": { "strassenschluessel": "05566000000801948", "bezeichnung": "Akazienweg" }, "geometry": { "type": "Point", "coordinates": [ 7.559888416621815, 52.162025000154891 ] } },
{ "type": "Feature", "properties": { "strassenschluessel": "05566000000801949", "bezeichnung": "Kastanienweg" }, "geometry": { "type": "Point", "coordinates": [ 7.561481289833107, 52.162913646970388 ] } },
{ "type": "Feature", "properties": { "strassenschluessel": "05566000000801950", "bezeichnung": "Eibenweg" }, "geometry": { "type": "Point", "coordinates": [ 7.559954339787341, 52.162818029187925 ] } },
{ "type": "Feature", "properties": { "strassenschluessel": "05566000000801951", "bezeichnung": "Zinnweg" }, "geometry": { "type": "Point", "coordinates": [ 7.501495884692303, 52.170177724279547 ] } },
{ "type": "Feature", "properties": { "strassenschluessel": "05566000000801952", "bezeichnung": "Hülsmöllerweg" }, "geometry": { "type": "Point", "coordinates": [ 7.49975972575013, 52.17930284743651 ] } },
{ "type": "Feature", "properties": { "strassenschluessel": "05566000000801953", "bezeichnung": "Am Teekotten" }, "geometry": { "type": "Point", "coordinates": [ 7.515311353478498, 52.19550545770938 ] } },
{ "type": "Feature", "properties": { "strassenschluessel": "05566000000801954", "bezeichnung": "Gutenbergstr." }, "geometry": { "type": "Point", "coordinates": [ 7.541623315114027, 52.141981825680404 ] } },
{ "type": "Feature", "properties": { "strassenschluessel": "05566000000801955", "bezeichnung": "Antonskamp" }, "geometry": { "type": "Point", "coordinates": [ 7.504247409611041, 52.179131697262044 ] } },
{ "type": "Feature", "properties": { "strassenschluessel": "05566000000801956", "bezeichnung": "Brökersgrund" }, "geometry": { "type": "Point", "coordinates": [ 7.51099558456833, 52.182748690341114 ] } },
{ "type": "Feature", "properties": { "strassenschluessel": "05566000000801957", "bezeichnung": "Hosperseck" }, "geometry": { "type": "Point", "coordinates": [ 7.505684232069761, 52.181798020882077 ] } },
{ "type": "Feature", "properties": { "strassenschluessel": "05566000000801958", "bezeichnung": "Pfarrer-Kolve-Str." }, "geometry": { "type": "Point", "coordinates": [ 7.506592680194128, 52.180734365344271 ] } },
{ "type": "Feature", "properties": { "strassenschluessel": "05566000000801959", "bezeichnung": "Rektor-Surholt-Str." }, "geometry": { "type": "Point", "coordinates": [ 7.507734532812083, 52.182559744477814 ] } },
{ "type": "Feature", "properties": { "strassenschluessel": "05566000000801970", "bezeichnung": "Pfarrer-Wellingmeyer-Str." }, "geometry": { "type": "Point", "coordinates": [ 7.611591657539946, 52.150979624920531 ] } },
{ "type": "Feature", "properties": { "strassenschluessel": "05566000000801971", "bezeichnung": "Engelbert-Gröter-Str." }, "geometry": { "type": "Point", "coordinates": [ 7.527804341890413, 52.167538587363872 ] } },
{ "type": "Feature", "properties": { "strassenschluessel": "05566000000801972", "bezeichnung": "Mühlenbachaue" }, "geometry": { "type": "Point", "coordinates": [ 7.527724076584491, 52.164438920724209 ] } },
{ "type": "Feature", "properties": { "strassenschluessel": "05566000000801973", "bezeichnung": "Senefelderstr." }, "geometry": { "type": "Point", "coordinates": [ 7.541887076133796, 52.141097954235534 ] } },
{ "type": "Feature", "properties": { "strassenschluessel": "05566000000801974", "bezeichnung": "Heidegarten" }, "geometry": { "type": "Point", "coordinates": [ 7.518114647022336, 52.17075862740036 ] } },
{ "type": "Feature", "properties": { "strassenschluessel": "05566000000801975", "bezeichnung": "Im Föhrenholz" }, "geometry": { "type": "Point", "coordinates": [ 7.531704562957891, 52.153817362101371 ] } },
{ "type": "Feature", "properties": { "strassenschluessel": "05566000000801976", "bezeichnung": "August-Macke-Str." }, "geometry": { "type": "Point", "coordinates": [ 7.517905277048677, 52.157344180694494 ] } },
{ "type": "Feature", "properties": { "strassenschluessel": "05566000000801977", "bezeichnung": "Max-Liebermann-Str." }, "geometry": { "type": "Point", "coordinates": [ 7.517844920104002, 52.160362699318796 ] } },
{ "type": "Feature", "properties": { "strassenschluessel": "05566000000801978", "bezeichnung": "Paul-Cezanne-Str." }, "geometry": { "type": "Point", "coordinates": [ 7.51739926999451, 52.157834194220193 ] } },
{ "type": "Feature", "properties": { "strassenschluessel": "05566000000801979", "bezeichnung": "Vincent-van-Gogh-Str." }, "geometry": { "type": "Point", "coordinates": [ 7.51738495955544, 52.158392383863472 ] } },
{ "type": "Feature", "properties": { "strassenschluessel": "05566000000801980", "bezeichnung": "Pablo-Picasso-Str." }, "geometry": { "type": "Point", "coordinates": [ 7.516257945222609, 52.15891477599849 ] } },
{ "type": "Feature", "properties": { "strassenschluessel": "05566000000801981", "bezeichnung": "Paula-Moders.-Becker-Str." }, "geometry": { "type": "Point", "coordinates": [ 7.514819351489853, 52.159570416919436 ] } },
{ "type": "Feature", "properties": { "strassenschluessel": "05566000000801982", "bezeichnung": "Gabriele-Münter-Str." }, "geometry": { "type": "Point", "coordinates": [ 7.516016473007923, 52.15994761673813 ] } },
{ "type": "Feature", "properties": { "strassenschluessel": "05566000000801983", "bezeichnung": "Emil-Nolde-Str." }, "geometry": { "type": "Point", "coordinates": [ 7.514680578560768, 52.16093737596951 ] } },
{ "type": "Feature", "properties": { "strassenschluessel": "05566000000801984", "bezeichnung": "Paul-Klee-Str." }, "geometry": { "type": "Point", "coordinates": [ 7.514788453493924, 52.160484432115268 ] } },
{ "type": "Feature", "properties": { "strassenschluessel": "05566000000801985", "bezeichnung": "Frida-Kahlo-Str." }, "geometry": { "type": "Point", "coordinates": [ 7.515825706245352, 52.160299794358068 ] } },
{ "type": "Feature", "properties": { "strassenschluessel": "05566000000801986", "bezeichnung": "Franz-Marc-Str." }, "geometry": { "type": "Point", "coordinates": [ 7.516824423710033, 52.160846072834367 ] } },
{ "type": "Feature", "properties": { "strassenschluessel": "05566000000801987", "bezeichnung": "Alte Gartenstr." }, "geometry": { "type": "Point", "coordinates": [ 7.523208306657278, 52.17503782003083 ] } },
{ "type": "Feature", "properties": { "strassenschluessel": "05566000000801988", "bezeichnung": "Schilgenstr." }, "geometry": { "type": "Point", "coordinates": [ 7.522366634714935, 52.174443789681007 ] } },
{ "type": "Feature", "properties": { "strassenschluessel": "05566000000801989", "bezeichnung": "Middelpennig" }, "geometry": { "type": "Point", "coordinates": [ 7.521756237741425, 52.174414930888844 ] } },
{ "type": "Feature", "properties": { "strassenschluessel": "05566000000801990", "bezeichnung": "Christo-U.-J.-Claude-Str." }, "geometry": { "type": "Point", "coordinates": [ 7.522884983932946, 52.173947795854623 ] } },
{ "type": "Feature", "properties": { "strassenschluessel": "05566000000801991", "bezeichnung": "Im Eschwinkel" }, "geometry": { "type": "Point", "coordinates": [ 7.521343027711604, 52.173482852068297 ] } },
{ "type": "Feature", "properties": { "strassenschluessel": "05566000000801992", "bezeichnung": "Im Hoek" }, "geometry": { "type": "Point", "coordinates": [ 7.505949751018717, 52.178649534437938 ] } },
{ "type": "Feature", "properties": { "strassenschluessel": "05566000000801993", "bezeichnung": "Handwerker-Gewerbepark" }, "geometry": { "type": "Point", "coordinates": [ 7.542125580579709, 52.144310502083172 ] } },
{ "type": "Feature", "properties": { "strassenschluessel": "05566000000801994", "bezeichnung": "Fuchsweg" }, "geometry": { "type": "Point", "coordinates": [ 7.531989214184263, 52.156112708881402 ] } },
{ "type": "Feature", "properties": { "strassenschluessel": "05566000000801995", "bezeichnung": "Marderweg" }, "geometry": { "type": "Point", "coordinates": [ 7.532624107372516, 52.155907144040363 ] } },
{ "type": "Feature", "properties": { "strassenschluessel": "05566000000801996", "bezeichnung": "Gustav-Wayss-Str." }, "geometry": { "type": "Point", "coordinates": [ 7.549114337048711, 52.148490130614583 ] } },
{ "type": "Feature", "properties": { "strassenschluessel": "05566000000801997", "bezeichnung": "Am Weißen Stein" }, "geometry": { "type": "Point", "coordinates": [ 7.553899683538655, 52.190471227766331 ] } },
{ "type": "Feature", "properties": { "strassenschluessel": "05566000000801998", "bezeichnung": "Saphirweg" }, "geometry": { "type": "Point", "coordinates": [ 7.501009041279332, 52.172826723936744 ] } },
{ "type": "Feature", "properties": { "strassenschluessel": "05566000000801999", "bezeichnung": "Opalweg" }, "geometry": { "type": "Point", "coordinates": [ 7.502684492897586, 52.172969775413691 ] } },
{ "type": "Feature", "properties": { "strassenschluessel": "05566000000802000", "bezeichnung": "Rubinweg" }, "geometry": { "type": "Point", "coordinates": [ 7.504514127644393, 52.172616937334425 ] } },
{ "type": "Feature", "properties": { "strassenschluessel": "05566000000803801", "bezeichnung": "Jadeweg" }, "geometry": { "type": "Point", "coordinates": [ 7.502427267999792, 52.171824604407021 ] } },
{ "type": "Feature", "properties": { "strassenschluessel": "05566000000803802", "bezeichnung": "Peter-Funcke-Weg" }, "geometry": { "type": "Point", "coordinates": [ 7.524827475745025, 52.15591433373357 ] } },
{ "type": "Feature", "properties": { "strassenschluessel": "05566000000803803", "bezeichnung": "Theodor-Uhlenbrock-Weg" }, "geometry": { "type": "Point", "coordinates": [ 7.526279508073626, 52.154616677839662 ] } },
{ "type": "Feature", "properties": { "strassenschluessel": "05566000000803804", "bezeichnung": "Hinrikstr." }, "geometry": { "type": "Point", "coordinates": [ 7.52048832946987, 52.178232350293968 ] } },
{ "type": "Feature", "properties": { "strassenschluessel": "05566000000803805", "bezeichnung": "Johann-Christoph-Str." }, "geometry": { "type": "Point", "coordinates": [ 7.521452769474346, 52.177927342218325 ] } },
{ "type": "Feature", "properties": { "strassenschluessel": "05566000000803806", "bezeichnung": "Am Biederlackturm" }, "geometry": { "type": "Point", "coordinates": [ 7.522066294596159, 52.178148729941469 ] } },
{ "type": "Feature", "properties": { "strassenschluessel": "05566000000803807", "bezeichnung": "Anton-Niessing-Str." }, "geometry": { "type": "Point", "coordinates": [ 7.518427935572153, 52.161246241691018 ] } },
{ "type": "Feature", "properties": { "strassenschluessel": "05566000000803808", "bezeichnung": "Otto-Dix-Str." }, "geometry": { "type": "Point", "coordinates": [ 7.520304711402168, 52.160458306134473 ] } },
{ "type": "Feature", "properties": { "strassenschluessel": "05566000000803809", "bezeichnung": "Annot-Jacobi-Str." }, "geometry": { "type": "Point", "coordinates": [ 7.520023706119663, 52.159761386452395 ] } },
{ "type": "Feature", "properties": { "strassenschluessel": "05566000000803810", "bezeichnung": "Kurt-Schwitters-Str." }, "geometry": { "type": "Point", "coordinates": [ 7.518667184305149, 52.159126697320872 ] } },
{ "type": "Feature", "properties": { "strassenschluessel": "05566000000803811", "bezeichnung": "Hannah-Höch-Str." }, "geometry": { "type": "Point", "coordinates": [ 7.520368332009634, 52.160182994801637 ] } },
{ "type": "Feature", "properties": { "strassenschluessel": "05566000000803812", "bezeichnung": "Franz-Klopietz-Str." }, "geometry": { "type": "Point", "coordinates": [ 7.522165712572215, 52.160523180152296 ] } },
{ "type": "Feature", "properties": { "strassenschluessel": "05566000000803813", "bezeichnung": "Emma-Ritter-Str." }, "geometry": { "type": "Point", "coordinates": [ 7.521875776125565, 52.159916661072252 ] } },
{ "type": "Feature", "properties": { "strassenschluessel": "05566000000803814", "bezeichnung": "Lore-Schill-Str." }, "geometry": { "type": "Point", "coordinates": [ 7.523140533161515, 52.159911168502511 ] } },
{ "type": "Feature", "properties": { "strassenschluessel": "05566000000803815", "bezeichnung": "Wilhelm-Wagenfeld-Str." }, "geometry": { "type": "Point", "coordinates": [ 7.524406095235347, 52.167164077902022 ] } },
{ "type": "Feature", "properties": { "strassenschluessel": "05566000000803816", "bezeichnung": "Tannenweg" }, "geometry": { "type": "Point", "coordinates": [ 7.550208751412675, 52.164651420942185 ] } },
{ "type": "Feature", "properties": { "strassenschluessel": "05566000000803817", "bezeichnung": "Dora-Maar-Str." }, "geometry": { "type": "Point", "coordinates": [ 7.518653714637112, 52.158543036615171 ] } },
{ "type": "Feature", "properties": { "strassenschluessel": "05566000000803818", "bezeichnung": "Anita-Rée-Str." }, "geometry": { "type": "Point", "coordinates": [ 7.521352021426561, 52.157891136990962 ] } },
{ "type": "Feature", "properties": { "strassenschluessel": "05566000000803819", "bezeichnung": "Robert-Beike-Str." }, "geometry": { "type": "Point", "coordinates": [ 7.520462833704672, 52.158291946976654 ] } },
{ "type": "Feature", "properties": { "strassenschluessel": "05566000000803820", "bezeichnung": "Walter-Jasper-Str." }, "geometry": { "type": "Point", "coordinates": [ 7.521098190523085, 52.158557431022615 ] } },
{ "type": "Feature", "properties": { "strassenschluessel": "05566000000803821", "bezeichnung": "Rathauspassage" }, "geometry": { "type": "Point", "coordinates": [ 7.52789945590365, 52.174170027444625 ] } },
{ "type": "Feature", "properties": { "strassenschluessel": "05566000000803822", "bezeichnung": "Eli-Marcus-Weg" }, "geometry": { "type": "Point", "coordinates": [ 7.522507310718929, 52.176247892612544 ] } },
{ "type": "Feature", "properties": { "strassenschluessel": "05566000000803823", "bezeichnung": "Anni-Albers-Str." }, "geometry": { "type": "Point", "coordinates": [ 7.53611217382742, 52.144467788241506 ] } },
{ "type": "Feature", "properties": { "strassenschluessel": "05566000000803824", "bezeichnung": "Albert-Lüke-Str." }, "geometry": { "type": "Point", "coordinates": [ 7.515813841618942, 52.185094517298701 ] } },
{ "type": "Feature", "properties": { "strassenschluessel": "05566000000803825", "bezeichnung": "Ahlbroek" }, "geometry": null },
{ "type": "Feature", "properties": { "strassenschluessel": "05566000000803826", "bezeichnung": "Albert-Heitjans-Weg" }, "geometry": null },
{ "type": "Feature", "properties": { "strassenschluessel": "05566000000803827", "bezeichnung": "Bahnhofsplatz" }, "geometry": null },
{ "type": "Feature", "properties": { "strassenschluessel": "05566000000803828", "bezeichnung": "Pirolweg" }, "geometry": null },
{ "type": "Feature", "properties": { "strassenschluessel": "05566000000803829", "bezeichnung": "Sperbergweg" }, "geometry": null },
{ "type": "Feature", "properties": { "strassenschluessel": "05566000000803830", "bezeichnung": "Wirpsgrund" }, "geometry": null },
{ "type": "Feature", "properties": { "strassenschluessel": "05566000000803831", "bezeichnung": "Finkenweg" }, "geometry": { "type": "Point", "coordinates": [ 7.504551355179802, 52.167635991105712 ] } },
{ "type": "Feature", "properties": { "strassenschluessel": "05566000000803832", "bezeichnung": "Josef-Evers-Weg" }, "geometry": { "type": "Point", "coordinates": [ 7.525646707385605, 52.15496207886023 ] } },
{ "type": "Feature", "properties": { "strassenschluessel": "05566000000803833", "bezeichnung": "Igelweg" }, "geometry": null },
{ "type": "Feature", "properties": { "strassenschluessel": "05566000000803834", "bezeichnung": "Kapellen-Pättken" }, "geometry": null },
{ "type": "Feature", "properties": { "strassenschluessel": "05566000000803835", "bezeichnung": "Chojniceplatz" }, "geometry": null },
{ "type": "Feature", "properties": { "strassenschluessel": "05566000000899999", "bezeichnung": "Anschlussgleis EMSA" }, "geometry": null },
{ "type": "Feature", "properties": { "strassenschluessel": "055660000008=2931", "bezeichnung": "Bahnlinie Hamm - Emden" }, "geometry": null }
]
}
