{
"type": "FeatureCollection",
"features": [
{ "type": "Feature", "properties": { "strassenschluessel": "05970000001603001", "bezeichnung": "Äckertstal" }, "geometry": { "type": "Point", "coordinates": [ 7.938614836007424, 50.899824088146396 ] } },
{ "type": "Feature", "properties": { "strassenschluessel": "05970000001603002", "bezeichnung": "Am Alcher Berg" }, "geometry": { "type": "Point", "coordinates": [ 7.935146610768556, 50.901079136953165 ] } },
{ "type": "Feature", "properties": { "strassenschluessel": "05970000001603003", "bezeichnung": "Amboßweg" }, "geometry": { "type": "Point", "coordinates": [ 7.935103402702032, 50.906978982324084 ] } },
{ "type": "Feature", "properties": { "strassenschluessel": "05970000001603004", "bezeichnung": "Am Nöchel" }, "geometry": { "type": "Point", "coordinates": [ 7.9452329231035, 50.900938362055136 ] } },
{ "type": "Feature", "properties": { "strassenschluessel": "05970000001603005", "bezeichnung": "Am Schulwald" }, "geometry": { "type": "Point", "coordinates": [ 7.947721145427499, 50.904638379965483 ] } },
{ "type": "Feature", "properties": { "strassenschluessel": "05970000001603007", "bezeichnung": "Arnsbacher Weg" }, "geometry": { "type": "Point", "coordinates": [ 7.947880376183979, 50.89559775900517 ] } },
{ "type": "Feature", "properties": { "strassenschluessel": "05970000001603008", "bezeichnung": "Auf der Nörr" }, "geometry": { "type": "Point", "coordinates": [ 7.935499734427178, 50.903169976022234 ] } },
{ "type": "Feature", "properties": { "strassenschluessel": "05970000001603009", "bezeichnung": "Auf'm Berg" }, "geometry": { "type": "Point", "coordinates": [ 7.936854216085558, 50.907324243527341 ] } },
{ "type": "Feature", "properties": { "strassenschluessel": "05970000001603010", "bezeichnung": "Bruchsgarten" }, "geometry": { "type": "Point", "coordinates": [ 7.943118121167783, 50.896543400756798 ] } },
{ "type": "Feature", "properties": { "strassenschluessel": "05970000001603011", "bezeichnung": "Bühler Straße" }, "geometry": { "type": "Point", "coordinates": [ 7.939996947269283, 50.902150446494907 ] } },
{ "type": "Feature", "properties": { "strassenschluessel": "05970000001603012", "bezeichnung": "Eckenweg" }, "geometry": { "type": "Point", "coordinates": [ 7.933546045446603, 50.907879431485277 ] } },
{ "type": "Feature", "properties": { "strassenschluessel": "05970000001603013", "bezeichnung": "Eichenweg" }, "geometry": { "type": "Point", "coordinates": [ 7.937619075342759, 50.901440698449505 ] } },
{ "type": "Feature", "properties": { "strassenschluessel": "05970000001603014", "bezeichnung": "Fahrseifen" }, "geometry": { "type": "Point", "coordinates": [ 7.936353279321925, 50.904005441411762 ] } },
{ "type": "Feature", "properties": { "strassenschluessel": "05970000001603015", "bezeichnung": "Haubergsweg" }, "geometry": { "type": "Point", "coordinates": [ 7.949655565359929, 50.904713678703807 ] } },
{ "type": "Feature", "properties": { "strassenschluessel": "05970000001603016", "bezeichnung": "Hinter der Ley" }, "geometry": { "type": "Point", "coordinates": [ 7.948421807317098, 50.900226775990816 ] } },
{ "type": "Feature", "properties": { "strassenschluessel": "05970000001603017", "bezeichnung": "Hinter der Nörr" }, "geometry": { "type": "Point", "coordinates": [ 7.934808876906867, 50.903108475618993 ] } },
{ "type": "Feature", "properties": { "strassenschluessel": "05970000001603018", "bezeichnung": "Hohe Ley" }, "geometry": { "type": "Point", "coordinates": [ 7.941446778321307, 50.901630957590079 ] } },
{ "type": "Feature", "properties": { "strassenschluessel": "05970000001603019", "bezeichnung": "Hohler Weg" }, "geometry": { "type": "Point", "coordinates": [ 7.944862419149009, 50.898074621139052 ] } },
{ "type": "Feature", "properties": { "strassenschluessel": "05970000001603020", "bezeichnung": "Im Boden" }, "geometry": { "type": "Point", "coordinates": [ 7.934288151644985, 50.904103165486823 ] } },
{ "type": "Feature", "properties": { "strassenschluessel": "05970000001603021", "bezeichnung": "Im Elschetal" }, "geometry": { "type": "Point", "coordinates": [ 7.936814522327281, 50.901391808441183 ] } },
{ "type": "Feature", "properties": { "strassenschluessel": "05970000001603022", "bezeichnung": "Im Mertenseifen" }, "geometry": { "type": "Point", "coordinates": [ 7.936600377702697, 50.90697939882353 ] } },
{ "type": "Feature", "properties": { "strassenschluessel": "05970000001603023", "bezeichnung": "Im Seifen" }, "geometry": { "type": "Point", "coordinates": [ 7.948745716960505, 50.904240823161146 ] } },
{ "type": "Feature", "properties": { "strassenschluessel": "05970000001603024", "bezeichnung": "In der Thalen" }, "geometry": { "type": "Point", "coordinates": [ 7.945450420854359, 50.894880972897937 ] } },
{ "type": "Feature", "properties": { "strassenschluessel": "05970000001603027", "bezeichnung": "Seelbacher Straße" }, "geometry": { "type": "Point", "coordinates": [ 7.94652514326171, 50.897349831392937 ] } },
{ "type": "Feature", "properties": { "strassenschluessel": "05970000001603030", "bezeichnung": "Steinstücker Weg" }, "geometry": { "type": "Point", "coordinates": [ 7.940619006607595, 50.900593916008667 ] } },
{ "type": "Feature", "properties": { "strassenschluessel": "05970000001603031", "bezeichnung": "Thalenweg" }, "geometry": { "type": "Point", "coordinates": [ 7.945498904716955, 50.895823082965876 ] } },
{ "type": "Feature", "properties": { "strassenschluessel": "05970000001603032", "bezeichnung": "Vor der Nörr" }, "geometry": { "type": "Point", "coordinates": [ 7.93724726550421, 50.90261322560967 ] } },
{ "type": "Feature", "properties": { "strassenschluessel": "05970000001603033", "bezeichnung": "Waldweg" }, "geometry": { "type": "Point", "coordinates": [ 7.948015137591358, 50.904054131159832 ] } },
{ "type": "Feature", "properties": { "strassenschluessel": "05970000001603034", "bezeichnung": "Wiesenweg" }, "geometry": { "type": "Point", "coordinates": [ 7.944212143287111, 50.900688509910651 ] } },
{ "type": "Feature", "properties": { "strassenschluessel": "05970000001603035", "bezeichnung": "Hochstraße" }, "geometry": { "type": "Point", "coordinates": [ 7.934886804343172, 50.900809010129983 ] } },
{ "type": "Feature", "properties": { "strassenschluessel": "05970000001603036", "bezeichnung": "Mertenseifer Grund" }, "geometry": { "type": "Point", "coordinates": [ 7.935785940472832, 50.906097349078458 ] } },
{ "type": "Feature", "properties": { "strassenschluessel": "05970000001603037", "bezeichnung": "Zur Alche" }, "geometry": { "type": "Point", "coordinates": [ 7.938272775787969, 50.905190704388026 ] } },
{ "type": "Feature", "properties": { "strassenschluessel": "05970000001603038", "bezeichnung": "Zur Weide" }, "geometry": { "type": "Point", "coordinates": [ 7.93821106541996, 50.907405657754985 ] } },
{ "type": "Feature", "properties": { "strassenschluessel": "05970000001603051", "bezeichnung": "Am Bottenberger Wald" }, "geometry": { "type": "Point", "coordinates": [ 7.90142465375447, 50.90377189897567 ] } },
{ "type": "Feature", "properties": { "strassenschluessel": "05970000001603052", "bezeichnung": "Bottenberger Straße" }, "geometry": { "type": "Point", "coordinates": [ 7.901657350297538, 50.904972008039834 ] } },
{ "type": "Feature", "properties": { "strassenschluessel": "05970000001603053", "bezeichnung": "Heuslingstraße" }, "geometry": { "type": "Point", "coordinates": [ 7.897453722305295, 50.9016363181332 ] } },
{ "type": "Feature", "properties": { "strassenschluessel": "05970000001603054", "bezeichnung": "Auf der Sang" }, "geometry": { "type": "Point", "coordinates": [ 7.896263467220979, 50.901534088589315 ] } },
{ "type": "Feature", "properties": { "strassenschluessel": "05970000001603055", "bezeichnung": "Sommerwiese" }, "geometry": { "type": "Point", "coordinates": [ 7.896843882598915, 50.902190559480104 ] } },
{ "type": "Feature", "properties": { "strassenschluessel": "05970000001603071", "bezeichnung": "Am Teich" }, "geometry": { "type": "Point", "coordinates": [ 7.9236167972481, 50.916593565834177 ] } },
{ "type": "Feature", "properties": { "strassenschluessel": "05970000001603072", "bezeichnung": "Am Thörchen" }, "geometry": { "type": "Point", "coordinates": [ 7.91975776434784, 50.919440822491914 ] } },
{ "type": "Feature", "properties": { "strassenschluessel": "05970000001603073", "bezeichnung": "Auf der Heide" }, "geometry": { "type": "Point", "coordinates": [ 7.917972529764778, 50.917145180175972 ] } },
{ "type": "Feature", "properties": { "strassenschluessel": "05970000001603074", "bezeichnung": "Bühler Straße" }, "geometry": { "type": "Point", "coordinates": [ 7.923110425719639, 50.917571223558433 ] } },
{ "type": "Feature", "properties": { "strassenschluessel": "05970000001603075", "bezeichnung": "Engelwerthweg" }, "geometry": { "type": "Point", "coordinates": [ 7.925276590523325, 50.91979281009494 ] } },
{ "type": "Feature", "properties": { "strassenschluessel": "05970000001603076", "bezeichnung": "Horweg" }, "geometry": { "type": "Point", "coordinates": [ 7.920166119646646, 50.91974218569154 ] } },
{ "type": "Feature", "properties": { "strassenschluessel": "05970000001603077", "bezeichnung": "Im Bühler Feld" }, "geometry": { "type": "Point", "coordinates": [ 7.923644996519386, 50.919045754018725 ] } },
{ "type": "Feature", "properties": { "strassenschluessel": "05970000001603078", "bezeichnung": "Kreuztaler Straße" }, "geometry": { "type": "Point", "coordinates": [ 7.925210202891453, 50.919022933210663 ] } },
{ "type": "Feature", "properties": { "strassenschluessel": "05970000001603079", "bezeichnung": "Unter der Heide" }, "geometry": { "type": "Point", "coordinates": [ 7.918779487273174, 50.917753133556708 ] } },
{ "type": "Feature", "properties": { "strassenschluessel": "05970000001603080", "bezeichnung": "Zum Kirchenwald" }, "geometry": { "type": "Point", "coordinates": [ 7.922743578015258, 50.918234900528333 ] } },
{ "type": "Feature", "properties": { "strassenschluessel": "05970000001603081", "bezeichnung": "Weidegarten" }, "geometry": { "type": "Point", "coordinates": [ 7.92208712614872, 50.919594547281982 ] } },
{ "type": "Feature", "properties": { "strassenschluessel": "05970000001603082", "bezeichnung": "Kurzer Weg" }, "geometry": { "type": "Point", "coordinates": [ 7.922738881867218, 50.918930533889878 ] } },
{ "type": "Feature", "properties": { "strassenschluessel": "05970000001603083", "bezeichnung": "Kompweg" }, "geometry": { "type": "Point", "coordinates": [ 7.917885041529582, 50.918828012321775 ] } },
{ "type": "Feature", "properties": { "strassenschluessel": "05970000001603084", "bezeichnung": "Bühler Höhe" }, "geometry": { "type": "Point", "coordinates": [ 7.91133508126067, 50.913287179704085 ] } },
{ "type": "Feature", "properties": { "strassenschluessel": "05970000001603101", "bezeichnung": "Alte Kölner Straße" }, "geometry": { "type": "Point", "coordinates": [ 7.887453609903267, 50.909910726261806 ] } },
{ "type": "Feature", "properties": { "strassenschluessel": "05970000001603102", "bezeichnung": "Alte Poststraße" }, "geometry": { "type": "Point", "coordinates": [ 7.890378686553977, 50.905081991644003 ] } },
{ "type": "Feature", "properties": { "strassenschluessel": "05970000001603103", "bezeichnung": "Am Bockseifer Wald" }, "geometry": { "type": "Point", "coordinates": [ 7.887039980374587, 50.919340652196752 ] } },
{ "type": "Feature", "properties": { "strassenschluessel": "05970000001603104", "bezeichnung": "Am Büscher Berg" }, "geometry": { "type": "Point", "coordinates": [ 7.890562142655329, 50.912560404106145 ] } },
{ "type": "Feature", "properties": { "strassenschluessel": "05970000001603105", "bezeichnung": "Am Eicher Hang" }, "geometry": { "type": "Point", "coordinates": [ 7.882390797161764, 50.906358547584773 ] } },
{ "type": "Feature", "properties": { "strassenschluessel": "05970000001603106", "bezeichnung": "Am Hang" }, "geometry": { "type": "Point", "coordinates": [ 7.883092575568991, 50.905278253574693 ] } },
{ "type": "Feature", "properties": { "strassenschluessel": "05970000001603107", "bezeichnung": "Am Rain" }, "geometry": { "type": "Point", "coordinates": [ 7.882750318651057, 50.91794510634876 ] } },
{ "type": "Feature", "properties": { "strassenschluessel": "05970000001603108", "bezeichnung": "Amselweg" }, "geometry": { "type": "Point", "coordinates": [ 7.887571814030546, 50.90790099380942 ] } },
{ "type": "Feature", "properties": { "strassenschluessel": "05970000001603109", "bezeichnung": "Am Stättchen" }, "geometry": { "type": "Point", "coordinates": [ 7.892485747974966, 50.907057848979733 ] } },
{ "type": "Feature", "properties": { "strassenschluessel": "05970000001603110", "bezeichnung": "Am Weidekamp" }, "geometry": { "type": "Point", "coordinates": [ 7.906146804460142, 50.910981898973084 ] } },
{ "type": "Feature", "properties": { "strassenschluessel": "05970000001603111", "bezeichnung": "An der Stätte" }, "geometry": { "type": "Point", "coordinates": [ 7.891729067047859, 50.911032995277225 ] } },
{ "type": "Feature", "properties": { "strassenschluessel": "05970000001603112", "bezeichnung": "Anstoßer Straße" }, "geometry": { "type": "Point", "coordinates": [ 7.894277328481587, 50.907970541669847 ] } },
{ "type": "Feature", "properties": { "strassenschluessel": "05970000001603113", "bezeichnung": "Birkenweg" }, "geometry": { "type": "Point", "coordinates": [ 7.885972942882284, 50.913374760070077 ] } },
{ "type": "Feature", "properties": { "strassenschluessel": "05970000001603114", "bezeichnung": "Bismarckweg" }, "geometry": { "type": "Point", "coordinates": [ 7.892427567232381, 50.904941876422342 ] } },
{ "type": "Feature", "properties": { "strassenschluessel": "05970000001603115", "bezeichnung": "Bockseifer Straße" }, "geometry": { "type": "Point", "coordinates": [ 7.885947224676167, 50.916320254854547 ] } },
{ "type": "Feature", "properties": { "strassenschluessel": "05970000001603116", "bezeichnung": "Böhlgasse" }, "geometry": { "type": "Point", "coordinates": [ 7.884464700357286, 50.914965551742753 ] } },
{ "type": "Feature", "properties": { "strassenschluessel": "05970000001603117", "bezeichnung": "Bottenberger Weg" }, "geometry": { "type": "Point", "coordinates": [ 7.895705154125806, 50.906314346839288 ] } },
{ "type": "Feature", "properties": { "strassenschluessel": "05970000001603118", "bezeichnung": "Bruchstraße" }, "geometry": { "type": "Point", "coordinates": [ 7.88946268302121, 50.909012804008121 ] } },
{ "type": "Feature", "properties": { "strassenschluessel": "05970000001603119", "bezeichnung": "Buchenstraße" }, "geometry": { "type": "Point", "coordinates": [ 7.892966339006191, 50.906625563894103 ] } },
{ "type": "Feature", "properties": { "strassenschluessel": "05970000001603120", "bezeichnung": "Büscher Straße" }, "geometry": { "type": "Point", "coordinates": [ 7.890682254185414, 50.91360708712272 ] } },
{ "type": "Feature", "properties": { "strassenschluessel": "05970000001603121", "bezeichnung": "Drosselweg" }, "geometry": { "type": "Point", "coordinates": [ 7.887839760015888, 50.908475680566262 ] } },
{ "type": "Feature", "properties": { "strassenschluessel": "05970000001603122", "bezeichnung": "Eichener Straße" }, "geometry": { "type": "Point", "coordinates": [ 7.880325614669729, 50.909328650206277 ] } },
{ "type": "Feature", "properties": { "strassenschluessel": "05970000001603123", "bezeichnung": "Eicher Feldstraße" }, "geometry": { "type": "Point", "coordinates": [ 7.88546989755007, 50.907230807051022 ] } },
{ "type": "Feature", "properties": { "strassenschluessel": "05970000001603124", "bezeichnung": "Eisenstraße" }, "geometry": { "type": "Point", "coordinates": [ 7.898565315190741, 50.908694497183099 ] } },
{ "type": "Feature", "properties": { "strassenschluessel": "05970000001603125", "bezeichnung": "Falkenweg" }, "geometry": { "type": "Point", "coordinates": [ 7.882140878048965, 50.905655645474951 ] } },
{ "type": "Feature", "properties": { "strassenschluessel": "05970000001603126", "bezeichnung": "Fichtenweg" }, "geometry": { "type": "Point", "coordinates": [ 7.887714005784304, 50.910144938679757 ] } },
{ "type": "Feature", "properties": { "strassenschluessel": "05970000001603127", "bezeichnung": "Finkenweg" }, "geometry": { "type": "Point", "coordinates": [ 7.886546653836802, 50.906787133486425 ] } },
{ "type": "Feature", "properties": { "strassenschluessel": "05970000001603128", "bezeichnung": "Fließenhardtstraße" }, "geometry": { "type": "Point", "coordinates": [ 7.879607683687843, 50.908580425253561 ] } },
{ "type": "Feature", "properties": { "strassenschluessel": "05970000001603129", "bezeichnung": "Freiherr-vom-Stein-Straße" }, "geometry": { "type": "Point", "coordinates": [ 7.886101612754789, 50.911317071384971 ] } },
{ "type": "Feature", "properties": { "strassenschluessel": "05970000001603130", "bezeichnung": "Friedhofsweg" }, "geometry": { "type": "Point", "coordinates": [ 7.890916084694467, 50.912629424745596 ] } },
{ "type": "Feature", "properties": { "strassenschluessel": "05970000001603131", "bezeichnung": "Gewerbestraße" }, "geometry": { "type": "Point", "coordinates": [ 7.917600623726888, 50.909314348744509 ] } },
{ "type": "Feature", "properties": { "strassenschluessel": "05970000001603132", "bezeichnung": "Halmenhofstraße" }, "geometry": { "type": "Point", "coordinates": [ 7.882343557481994, 50.916204246505224 ] } },
{ "type": "Feature", "properties": { "strassenschluessel": "05970000001603133", "bezeichnung": "Hammerweg" }, "geometry": { "type": "Point", "coordinates": [ 7.884417864001388, 50.907999596726889 ] } },
{ "type": "Feature", "properties": { "strassenschluessel": "05970000001603134", "bezeichnung": "Hätzeweg" }, "geometry": { "type": "Point", "coordinates": [ 7.896657826250213, 50.907466704452631 ] } },
{ "type": "Feature", "properties": { "strassenschluessel": "05970000001603136", "bezeichnung": "Im Winkel" }, "geometry": { "type": "Point", "coordinates": [ 7.888020348051892, 50.91893565125627 ] } },
{ "type": "Feature", "properties": { "strassenschluessel": "05970000001603137", "bezeichnung": "In der Kelln" }, "geometry": { "type": "Point", "coordinates": [ 7.891655425281312, 50.914862198781577 ] } },
{ "type": "Feature", "properties": { "strassenschluessel": "05970000001603138", "bezeichnung": "In der Krumm" }, "geometry": { "type": "Point", "coordinates": [ 7.885591696314579, 50.918915238098933 ] } },
{ "type": "Feature", "properties": { "strassenschluessel": "05970000001603139", "bezeichnung": "In der Schlade" }, "geometry": { "type": "Point", "coordinates": [ 7.886595412768887, 50.918723686341323 ] } },
{ "type": "Feature", "properties": { "strassenschluessel": "05970000001603140", "bezeichnung": "Johannesbergstraße" }, "geometry": { "type": "Point", "coordinates": [ 7.882597396525806, 50.917531099070757 ] } },
{ "type": "Feature", "properties": { "strassenschluessel": "05970000001603141", "bezeichnung": "Kalte Höhe" }, "geometry": { "type": "Point", "coordinates": [ 7.889460151220348, 50.914079452797438 ] } },
{ "type": "Feature", "properties": { "strassenschluessel": "05970000001603142", "bezeichnung": "Köpfchenweg" }, "geometry": { "type": "Point", "coordinates": [ 7.881826605617593, 50.91716594291114 ] } },
{ "type": "Feature", "properties": { "strassenschluessel": "05970000001603143", "bezeichnung": "Kreuztaler Straße" }, "geometry": { "type": "Point", "coordinates": [ 7.909752434309306, 50.910619629309728 ] } },
{ "type": "Feature", "properties": { "strassenschluessel": "05970000001603144", "bezeichnung": "Krumme Birke" }, "geometry": { "type": "Point", "coordinates": [ 7.909392000990456, 50.909235041288603 ] } },
{ "type": "Feature", "properties": { "strassenschluessel": "05970000001603145", "bezeichnung": "Kurzer Seifen" }, "geometry": { "type": "Point", "coordinates": [ 7.892317679053748, 50.914386847066261 ] } },
{ "type": "Feature", "properties": { "strassenschluessel": "05970000001603146", "bezeichnung": "Lärchenweg" }, "geometry": { "type": "Point", "coordinates": [ 7.885698573866055, 50.912466638348704 ] } },
{ "type": "Feature", "properties": { "strassenschluessel": "05970000001603147", "bezeichnung": "Malerwinkel" }, "geometry": { "type": "Point", "coordinates": [ 7.890239945157771, 50.913204602575547 ] } },
{ "type": "Feature", "properties": { "strassenschluessel": "05970000001603148", "bezeichnung": "Meisenweg" }, "geometry": { "type": "Point", "coordinates": [ 7.885621759293762, 50.907420884717645 ] } },
{ "type": "Feature", "properties": { "strassenschluessel": "05970000001603149", "bezeichnung": "Mühlenbergstraße" }, "geometry": { "type": "Point", "coordinates": [ 7.891953248088041, 50.908210750966447 ] } },
{ "type": "Feature", "properties": { "strassenschluessel": "05970000001603150", "bezeichnung": "Mühlenstraße" }, "geometry": { "type": "Point", "coordinates": [ 7.884996177388713, 50.905545214562423 ] } },
{ "type": "Feature", "properties": { "strassenschluessel": "05970000001603151", "bezeichnung": "Olper Straße" }, "geometry": { "type": "Point", "coordinates": [ 7.889672022532385, 50.912420698539947 ] } },
{ "type": "Feature", "properties": { "strassenschluessel": "05970000001603152", "bezeichnung": "Osterbergstraße" }, "geometry": { "type": "Point", "coordinates": [ 7.892866030924367, 50.913067958464971 ] } },
{ "type": "Feature", "properties": { "strassenschluessel": "05970000001603153", "bezeichnung": "Pappelweg" }, "geometry": { "type": "Point", "coordinates": [ 7.887364313326167, 50.91104767667133 ] } },
{ "type": "Feature", "properties": { "strassenschluessel": "05970000001603154", "bezeichnung": "Querstraße" }, "geometry": { "type": "Point", "coordinates": [ 7.887910078320011, 50.912357893338857 ] } },
{ "type": "Feature", "properties": { "strassenschluessel": "05970000001603155", "bezeichnung": "Salzweg" }, "geometry": { "type": "Point", "coordinates": [ 7.882128320869272, 50.916445104212855 ] } },
{ "type": "Feature", "properties": { "strassenschluessel": "05970000001603156", "bezeichnung": "Siegener Straße" }, "geometry": { "type": "Point", "coordinates": [ 7.889821033366303, 50.90525993106786 ] } },
{ "type": "Feature", "properties": { "strassenschluessel": "05970000001603157", "bezeichnung": "Starenweg" }, "geometry": { "type": "Point", "coordinates": [ 7.887858076552888, 50.911418287831907 ] } },
{ "type": "Feature", "properties": { "strassenschluessel": "05970000001603159", "bezeichnung": "Südstraße" }, "geometry": { "type": "Point", "coordinates": [ 7.883426263168671, 50.905061575852073 ] } },
{ "type": "Feature", "properties": { "strassenschluessel": "05970000001603160", "bezeichnung": "Triftstraße" }, "geometry": { "type": "Point", "coordinates": [ 7.887465532033791, 50.906517479772766 ] } },
{ "type": "Feature", "properties": { "strassenschluessel": "05970000001603161", "bezeichnung": "Wäldchenstraße" }, "geometry": { "type": "Point", "coordinates": [ 7.891160745867775, 50.906654921950846 ] } },
{ "type": "Feature", "properties": { "strassenschluessel": "05970000001603162", "bezeichnung": "Wäldchenweg" }, "geometry": { "type": "Point", "coordinates": [ 7.891018245923071, 50.906226239568511 ] } },
{ "type": "Feature", "properties": { "strassenschluessel": "05970000001603163", "bezeichnung": "Weibeweg" }, "geometry": { "type": "Point", "coordinates": [ 7.886085664469818, 50.905187037314448 ] } },
{ "type": "Feature", "properties": { "strassenschluessel": "05970000001603164", "bezeichnung": "Wendinger Straße" }, "geometry": { "type": "Point", "coordinates": [ 7.89648387018158, 50.916023739503188 ] } },
{ "type": "Feature", "properties": { "strassenschluessel": "05970000001603165", "bezeichnung": "Wilhelmshöhe" }, "geometry": { "type": "Point", "coordinates": [ 7.907495423879283, 50.911986487536893 ] } },
{ "type": "Feature", "properties": { "strassenschluessel": "05970000001603166", "bezeichnung": "Zur Gambachshöhe" }, "geometry": { "type": "Point", "coordinates": [ 7.880781043179369, 50.906004827442281 ] } },
{ "type": "Feature", "properties": { "strassenschluessel": "05970000001603168", "bezeichnung": "Schwalbenweg" }, "geometry": { "type": "Point", "coordinates": [ 7.886918558336246, 50.907603178608277 ] } },
{ "type": "Feature", "properties": { "strassenschluessel": "05970000001603169", "bezeichnung": "Elsternweg" }, "geometry": null },
{ "type": "Feature", "properties": { "strassenschluessel": "05970000001603170", "bezeichnung": "Büscher Bruch" }, "geometry": { "type": "Point", "coordinates": [ 7.889486822426489, 50.911302611324224 ] } },
{ "type": "Feature", "properties": { "strassenschluessel": "05970000001603171", "bezeichnung": "Krähenweg" }, "geometry": { "type": "Point", "coordinates": [ 7.88373903567814, 50.907310027416806 ] } },
{ "type": "Feature", "properties": { "strassenschluessel": "05970000001603172", "bezeichnung": "Eicher Garten" }, "geometry": { "type": "Point", "coordinates": [ 7.882069275042697, 50.90712428014772 ] } },
{ "type": "Feature", "properties": { "strassenschluessel": "05970000001603173", "bezeichnung": "Eicher Seifen" }, "geometry": { "type": "Point", "coordinates": [ 7.880566093221317, 50.908703964986266 ] } },
{ "type": "Feature", "properties": { "strassenschluessel": "05970000001603174", "bezeichnung": "Hommeswiese" }, "geometry": { "type": "Point", "coordinates": [ 7.876681198950744, 50.917842158047073 ] } },
{ "type": "Feature", "properties": { "strassenschluessel": "05970000001603175", "bezeichnung": "Unterm Eicher Hang" }, "geometry": { "type": "Point", "coordinates": [ 7.881364089746233, 50.907139333218559 ] } },
{ "type": "Feature", "properties": { "strassenschluessel": "05970000001603176", "bezeichnung": "Peimbachstraße" }, "geometry": null },
{ "type": "Feature", "properties": { "strassenschluessel": "05970000001603177", "bezeichnung": "Obere Weide" }, "geometry": { "type": "Point", "coordinates": [ 7.888444857390348, 50.914714506379191 ] } },
{ "type": "Feature", "properties": { "strassenschluessel": "05970000001603178", "bezeichnung": "Am Mühlenberg" }, "geometry": { "type": "Point", "coordinates": [ 7.896505012457843, 50.90911238776448 ] } },
{ "type": "Feature", "properties": { "strassenschluessel": "05970000001603179", "bezeichnung": "Obere Hommeswiese" }, "geometry": { "type": "Point", "coordinates": [ 7.87565945146953, 50.916122190521023 ] } },
{ "type": "Feature", "properties": { "strassenschluessel": "05970000001603180", "bezeichnung": "Hermann-Vomhof-Straße" }, "geometry": { "type": "Point", "coordinates": [ 7.884003756205145, 50.909580608266033 ] } },
{ "type": "Feature", "properties": { "strassenschluessel": "05970000001603201", "bezeichnung": "Am Hüls" }, "geometry": { "type": "Point", "coordinates": [ 7.894365780349384, 50.874229186318949 ] } },
{ "type": "Feature", "properties": { "strassenschluessel": "05970000001603203", "bezeichnung": "Asdorfer Mühle" }, "geometry": { "type": "Point", "coordinates": [ 7.873501366715756, 50.876518697923842 ] } },
{ "type": "Feature", "properties": { "strassenschluessel": "05970000001603204", "bezeichnung": "Dirlenbacher Straße" }, "geometry": { "type": "Point", "coordinates": [ 7.885554992813484, 50.875307668446368 ] } },
{ "type": "Feature", "properties": { "strassenschluessel": "05970000001603205", "bezeichnung": "Hakenfeldstraße" }, "geometry": { "type": "Point", "coordinates": [ 7.886525341709857, 50.873895480932831 ] } },
{ "type": "Feature", "properties": { "strassenschluessel": "05970000001603206", "bezeichnung": "Jägerweg" }, "geometry": { "type": "Point", "coordinates": [ 7.887118782580525, 50.874584324077972 ] } },
{ "type": "Feature", "properties": { "strassenschluessel": "05970000001603209", "bezeichnung": "Stockfeldstraße" }, "geometry": { "type": "Point", "coordinates": [ 7.895326340806656, 50.877310427084019 ] } },
{ "type": "Feature", "properties": { "strassenschluessel": "05970000001603211", "bezeichnung": "Grubengarten" }, "geometry": { "type": "Point", "coordinates": [ 7.889536904882425, 50.87467091851267 ] } },
{ "type": "Feature", "properties": { "strassenschluessel": "05970000001603212", "bezeichnung": "Alter Garten" }, "geometry": { "type": "Point", "coordinates": [ 7.893548156732355, 50.873567806407458 ] } },
{ "type": "Feature", "properties": { "strassenschluessel": "05970000001603251", "bezeichnung": "Alte Heide" }, "geometry": { "type": "Point", "coordinates": [ 7.854170796741134, 50.892814588034994 ] } },
{ "type": "Feature", "properties": { "strassenschluessel": "05970000001603252", "bezeichnung": "Alte Poststraße" }, "geometry": { "type": "Point", "coordinates": [ 7.886213535558655, 50.903449902516925 ] } },
{ "type": "Feature", "properties": { "strassenschluessel": "05970000001603253", "bezeichnung": "Am Asdorfer Weiher" }, "geometry": { "type": "Point", "coordinates": [ 7.870029489415641, 50.880280354486331 ] } },
{ "type": "Feature", "properties": { "strassenschluessel": "05970000001603254", "bezeichnung": "Am Aspenwald" }, "geometry": { "type": "Point", "coordinates": [ 7.869102403888993, 50.902299025097598 ] } },
{ "type": "Feature", "properties": { "strassenschluessel": "05970000001603255", "bezeichnung": "Am Gambachsweiher" }, "geometry": { "type": "Point", "coordinates": [ 7.877380920284771, 50.903246123805516 ] } },
{ "type": "Feature", "properties": { "strassenschluessel": "05970000001603256", "bezeichnung": "Am Hang" }, "geometry": { "type": "Point", "coordinates": [ 7.882400281866257, 50.904738289529973 ] } },
{ "type": "Feature", "properties": { "strassenschluessel": "05970000001603257", "bezeichnung": "Am Hausplatz" }, "geometry": { "type": "Point", "coordinates": [ 7.875532084907319, 50.890264425975801 ] } },
{ "type": "Feature", "properties": { "strassenschluessel": "05970000001603258", "bezeichnung": "Am Herlinger Wald" }, "geometry": { "type": "Point", "coordinates": [ 7.877304848912955, 50.892563486432472 ] } },
{ "type": "Feature", "properties": { "strassenschluessel": "05970000001603259", "bezeichnung": "Am Hohenhainsgarten" }, "geometry": { "type": "Point", "coordinates": [ 7.871360409678136, 50.900662323924863 ] } },
{ "type": "Feature", "properties": { "strassenschluessel": "05970000001603260", "bezeichnung": "Am Kochsfeld" }, "geometry": { "type": "Point", "coordinates": [ 7.872448417386555, 50.885654252120204 ] } },
{ "type": "Feature", "properties": { "strassenschluessel": "05970000001603261", "bezeichnung": "Am Marktplatz" }, "geometry": { "type": "Point", "coordinates": [ 7.873903018979728, 50.899383314981264 ] } },
{ "type": "Feature", "properties": { "strassenschluessel": "05970000001603262", "bezeichnung": "Am Plittershagener Berg" }, "geometry": { "type": "Point", "coordinates": [ 7.869037788703867, 50.886756698210249 ] } },
{ "type": "Feature", "properties": { "strassenschluessel": "05970000001603263", "bezeichnung": "Am Schieferacker" }, "geometry": { "type": "Point", "coordinates": [ 7.879252376627412, 50.900984532280198 ] } },
{ "type": "Feature", "properties": { "strassenschluessel": "05970000001603264", "bezeichnung": "Am Schlagsberg" }, "geometry": { "type": "Point", "coordinates": [ 7.866625677447568, 50.90481275172921 ] } },
{ "type": "Feature", "properties": { "strassenschluessel": "05970000001603265", "bezeichnung": "Am Silberstern" }, "geometry": { "type": "Point", "coordinates": [ 7.875702119631807, 50.895356085149096 ] } },
{ "type": "Feature", "properties": { "strassenschluessel": "05970000001603266", "bezeichnung": "An der Fließenhardt" }, "geometry": { "type": "Point", "coordinates": [ 7.880748954542606, 50.902813408501245 ] } },
{ "type": "Feature", "properties": { "strassenschluessel": "05970000001603267", "bezeichnung": "An der Sonnenseite" }, "geometry": { "type": "Point", "coordinates": [ 7.872285969444122, 50.890732807887517 ] } },
{ "type": "Feature", "properties": { "strassenschluessel": "05970000001603268", "bezeichnung": "Asdorfer Straße" }, "geometry": { "type": "Point", "coordinates": [ 7.870648047541028, 50.884629735079322 ] } },
{ "type": "Feature", "properties": { "strassenschluessel": "05970000001603269", "bezeichnung": "Aspenweg" }, "geometry": { "type": "Point", "coordinates": [ 7.867707561121499, 50.899585676543715 ] } },
{ "type": "Feature", "properties": { "strassenschluessel": "05970000001603270", "bezeichnung": "Bahnhofstraße" }, "geometry": { "type": "Point", "coordinates": [ 7.878008261884004, 50.898431553573822 ] } },
{ "type": "Feature", "properties": { "strassenschluessel": "05970000001603271", "bezeichnung": "Baumweg" }, "geometry": { "type": "Point", "coordinates": [ 7.876273166825349, 50.891378216735262 ] } },
{ "type": "Feature", "properties": { "strassenschluessel": "05970000001603272", "bezeichnung": "Bergstraße" }, "geometry": { "type": "Point", "coordinates": [ 7.874457517407362, 50.896794808409652 ] } },
{ "type": "Feature", "properties": { "strassenschluessel": "05970000001603273", "bezeichnung": "Bismarckweg" }, "geometry": { "type": "Point", "coordinates": [ 7.888476334523825, 50.903410550688996 ] } },
{ "type": "Feature", "properties": { "strassenschluessel": "05970000001603274", "bezeichnung": "Bogenstraße" }, "geometry": { "type": "Point", "coordinates": [ 7.870094065255967, 50.889427641202118 ] } },
{ "type": "Feature", "properties": { "strassenschluessel": "05970000001603275", "bezeichnung": "Burgstraße" }, "geometry": { "type": "Point", "coordinates": [ 7.872048600006002, 50.89699541114809 ] } },
{ "type": "Feature", "properties": { "strassenschluessel": "05970000001603276", "bezeichnung": "Buschweg" }, "geometry": { "type": "Point", "coordinates": [ 7.871131965398893, 50.88102381116655 ] } },
{ "type": "Feature", "properties": { "strassenschluessel": "05970000001603277", "bezeichnung": "Christian-Stahlschmidt-Straße" }, "geometry": { "type": "Point", "coordinates": [ 7.863138721513974, 50.896970284582444 ] } },
{ "type": "Feature", "properties": { "strassenschluessel": "05970000001603278", "bezeichnung": "Eichstattweg" }, "geometry": { "type": "Point", "coordinates": [ 7.869114802567498, 50.898235104502419 ] } },
{ "type": "Feature", "properties": { "strassenschluessel": "05970000001603279", "bezeichnung": "Euelsbruchstraße" }, "geometry": { "type": "Point", "coordinates": [ 7.865930016300694, 50.899705484192275 ] } },
{ "type": "Feature", "properties": { "strassenschluessel": "05970000001603280", "bezeichnung": "Eva-von-Tiele-Winckler-Straße" }, "geometry": { "type": "Point", "coordinates": [ 7.863336729893288, 50.897927370341989 ] } },
{ "type": "Feature", "properties": { "strassenschluessel": "05970000001603281", "bezeichnung": "Färberstraße" }, "geometry": { "type": "Point", "coordinates": [ 7.877267577186846, 50.898776823287598 ] } },
{ "type": "Feature", "properties": { "strassenschluessel": "05970000001603282", "bezeichnung": "Fliederweg" }, "geometry": { "type": "Point", "coordinates": [ 7.876062476994198, 50.891716079479636 ] } },
{ "type": "Feature", "properties": { "strassenschluessel": "05970000001603283", "bezeichnung": "Fließenhardtstraße" }, "geometry": { "type": "Point", "coordinates": [ 7.880808435004713, 50.904313300543421 ] } },
{ "type": "Feature", "properties": { "strassenschluessel": "05970000001603284", "bezeichnung": "Friedenshortstraße" }, "geometry": { "type": "Point", "coordinates": [ 7.861835014960375, 50.89737938031903 ] } },
{ "type": "Feature", "properties": { "strassenschluessel": "05970000001603285", "bezeichnung": "Gambachsweg" }, "geometry": { "type": "Point", "coordinates": [ 7.872018611357174, 50.90923128300647 ] } },
{ "type": "Feature", "properties": { "strassenschluessel": "05970000001603286", "bezeichnung": "Gartenstraße" }, "geometry": { "type": "Point", "coordinates": [ 7.877786420371772, 50.899750709808409 ] } },
{ "type": "Feature", "properties": { "strassenschluessel": "05970000001603287", "bezeichnung": "Gerberstraße" }, "geometry": { "type": "Point", "coordinates": [ 7.881931832484596, 50.903429045960564 ] } },
{ "type": "Feature", "properties": { "strassenschluessel": "05970000001603288", "bezeichnung": "Heiligenstock" }, "geometry": { "type": "Point", "coordinates": [ 7.870895105517866, 50.901830926375638 ] } },
{ "type": "Feature", "properties": { "strassenschluessel": "05970000001603289", "bezeichnung": "Hinter der Kirche" }, "geometry": { "type": "Point", "coordinates": [ 7.872045499525263, 50.897267356914114 ] } },
{ "type": "Feature", "properties": { "strassenschluessel": "05970000001603290", "bezeichnung": "Im Kreuzseifen" }, "geometry": { "type": "Point", "coordinates": [ 7.869753020377868, 50.880886002866994 ] } },
{ "type": "Feature", "properties": { "strassenschluessel": "05970000001603291", "bezeichnung": "In den Aspen" }, "geometry": { "type": "Point", "coordinates": [ 7.865780083318821, 50.902466923673877 ] } },
{ "type": "Feature", "properties": { "strassenschluessel": "05970000001603292", "bezeichnung": "Johann-Moritz-Straße" }, "geometry": { "type": "Point", "coordinates": [ 7.888711074931621, 50.904194771255462 ] } },
{ "type": "Feature", "properties": { "strassenschluessel": "05970000001603293", "bezeichnung": "Jung-Stilling-Straße" }, "geometry": { "type": "Point", "coordinates": [ 7.866618569849547, 50.897847658471015 ] } },
{ "type": "Feature", "properties": { "strassenschluessel": "05970000001603294", "bezeichnung": "Kiefernweg" }, "geometry": { "type": "Point", "coordinates": [ 7.869242489107235, 50.888397876943976 ] } },
{ "type": "Feature", "properties": { "strassenschluessel": "05970000001603295", "bezeichnung": "Kleine Trift" }, "geometry": { "type": "Point", "coordinates": [ 7.864636065674262, 50.89536610478266 ] } },
{ "type": "Feature", "properties": { "strassenschluessel": "05970000001603296", "bezeichnung": "Kölner Straße" }, "geometry": { "type": "Point", "coordinates": [ 7.874424479322206, 50.899071124644649 ] } },
{ "type": "Feature", "properties": { "strassenschluessel": "05970000001603297", "bezeichnung": "Krottorfer Straße" }, "geometry": { "type": "Point", "coordinates": [ 7.862998878949893, 50.905676920556616 ] } },
{ "type": "Feature", "properties": { "strassenschluessel": "05970000001603298", "bezeichnung": "Kuhlenbergstraße" }, "geometry": { "type": "Point", "coordinates": [ 7.878736279492154, 50.898646979474044 ] } },
{ "type": "Feature", "properties": { "strassenschluessel": "05970000001603299", "bezeichnung": "Lagemannstraße" }, "geometry": { "type": "Point", "coordinates": [ 7.863554642721554, 50.895305067886405 ] } },
{ "type": "Feature", "properties": { "strassenschluessel": "05970000001603300", "bezeichnung": "Marktstraße" }, "geometry": { "type": "Point", "coordinates": [ 7.873104431608057, 50.898336709120883 ] } },
{ "type": "Feature", "properties": { "strassenschluessel": "05970000001603301", "bezeichnung": "Mittelstraße" }, "geometry": { "type": "Point", "coordinates": [ 7.873591689874444, 50.898726861234067 ] } },
{ "type": "Feature", "properties": { "strassenschluessel": "05970000001603302", "bezeichnung": "Mühlenstraße" }, "geometry": { "type": "Point", "coordinates": [ 7.883008150896185, 50.903223670230325 ] } },
{ "type": "Feature", "properties": { "strassenschluessel": "05970000001603303", "bezeichnung": "Neuer Weg" }, "geometry": { "type": "Point", "coordinates": [ 7.873300107942619, 50.895297403455253 ] } },
{ "type": "Feature", "properties": { "strassenschluessel": "05970000001603304", "bezeichnung": "Nordstraße" }, "geometry": { "type": "Point", "coordinates": [ 7.872016271824248, 50.901848833473466 ] } },
{ "type": "Feature", "properties": { "strassenschluessel": "05970000001603305", "bezeichnung": "Nüssebergweg" }, "geometry": { "type": "Point", "coordinates": [ 7.868597331845367, 50.886640277672022 ] } },
{ "type": "Feature", "properties": { "strassenschluessel": "05970000001603306", "bezeichnung": "Obere Schulstraße" }, "geometry": { "type": "Point", "coordinates": [ 7.871250835346981, 50.894574136231768 ] } },
{ "type": "Feature", "properties": { "strassenschluessel": "05970000001603307", "bezeichnung": "Olper Straße" }, "geometry": { "type": "Point", "coordinates": [ 7.88266443385203, 50.901984715904049 ] } },
{ "type": "Feature", "properties": { "strassenschluessel": "05970000001603308", "bezeichnung": "Oranienstraße" }, "geometry": { "type": "Point", "coordinates": [ 7.875544332738942, 50.898277069531346 ] } },
{ "type": "Feature", "properties": { "strassenschluessel": "05970000001603309", "bezeichnung": "Oststraße" }, "geometry": { "type": "Point", "coordinates": [ 7.882802630730738, 50.900987464711221 ] } },
{ "type": "Feature", "properties": { "strassenschluessel": "05970000001603310", "bezeichnung": "Poststraße" }, "geometry": { "type": "Point", "coordinates": [ 7.874665178914132, 50.898640027114219 ] } },
{ "type": "Feature", "properties": { "strassenschluessel": "05970000001603311", "bezeichnung": "Schützenstraße" }, "geometry": { "type": "Point", "coordinates": [ 7.86768084398671, 50.89194564104136 ] } },
{ "type": "Feature", "properties": { "strassenschluessel": "05970000001603312", "bezeichnung": "Schulstraße" }, "geometry": { "type": "Point", "coordinates": [ 7.870341783432634, 50.896356508891479 ] } },
{ "type": "Feature", "properties": { "strassenschluessel": "05970000001603313", "bezeichnung": "Seelbachsecke" }, "geometry": { "type": "Point", "coordinates": [ 7.874651600210453, 50.901646780365766 ] } },
{ "type": "Feature", "properties": { "strassenschluessel": "05970000001603314", "bezeichnung": "Seitenweg" }, "geometry": { "type": "Point", "coordinates": [ 7.870090471126241, 50.880653022876949 ] } },
{ "type": "Feature", "properties": { "strassenschluessel": "05970000001603315", "bezeichnung": "Siegener Straße" }, "geometry": { "type": "Point", "coordinates": [ 7.88311208958168, 50.90137028122237 ] } },
{ "type": "Feature", "properties": { "strassenschluessel": "05970000001603316", "bezeichnung": "Stöckerstraße" }, "geometry": { "type": "Point", "coordinates": [ 7.86434815230128, 50.898279956159442 ] } },
{ "type": "Feature", "properties": { "strassenschluessel": "05970000001603317", "bezeichnung": "Tannenweg" }, "geometry": { "type": "Point", "coordinates": [ 7.881001875427252, 50.898534336250421 ] } },
{ "type": "Feature", "properties": { "strassenschluessel": "05970000001603318", "bezeichnung": "Tillmann-Siebel-Straße" }, "geometry": { "type": "Point", "coordinates": [ 7.865672169206998, 50.901660380168643 ] } },
{ "type": "Feature", "properties": { "strassenschluessel": "05970000001603319", "bezeichnung": "Trulichstraße" }, "geometry": { "type": "Point", "coordinates": [ 7.871850165090068, 50.896091701026798 ] } },
{ "type": "Feature", "properties": { "strassenschluessel": "05970000001603320", "bezeichnung": "Unterstraße" }, "geometry": { "type": "Point", "coordinates": [ 7.87396542141011, 50.898629223521738 ] } },
{ "type": "Feature", "properties": { "strassenschluessel": "05970000001603321", "bezeichnung": "Vorm Neuen Wäldchen" }, "geometry": { "type": "Point", "coordinates": [ 7.866609838904781, 50.905449761399758 ] } },
{ "type": "Feature", "properties": { "strassenschluessel": "05970000001603322", "bezeichnung": "Wasserweg" }, "geometry": { "type": "Point", "coordinates": [ 7.87167661235646, 50.887305018841737 ] } },
{ "type": "Feature", "properties": { "strassenschluessel": "05970000001603323", "bezeichnung": "Wolfshecke" }, "geometry": { "type": "Point", "coordinates": [ 7.871850268551871, 50.88695046547371 ] } },
{ "type": "Feature", "properties": { "strassenschluessel": "05970000001603324", "bezeichnung": "Am Sturzfeld" }, "geometry": { "type": "Point", "coordinates": [ 7.868138880744999, 50.902278634697296 ] } },
{ "type": "Feature", "properties": { "strassenschluessel": "05970000001603325", "bezeichnung": "Forstweg" }, "geometry": { "type": "Point", "coordinates": [ 7.866075226425671, 50.904298375257945 ] } },
{ "type": "Feature", "properties": { "strassenschluessel": "05970000001603326", "bezeichnung": "Lohmühle" }, "geometry": { "type": "Point", "coordinates": [ 7.876355685502064, 50.896471774116371 ] } },
{ "type": "Feature", "properties": { "strassenschluessel": "05970000001603327", "bezeichnung": "Hinterm Schloß" }, "geometry": { "type": "Point", "coordinates": [ 7.870920637861796, 50.89816942628461 ] } },
{ "type": "Feature", "properties": { "strassenschluessel": "05970000001603328", "bezeichnung": "Fritz-Kraemer-Weg" }, "geometry": { "type": "Point", "coordinates": [ 7.865819432545313, 50.900073671989858 ] } },
{ "type": "Feature", "properties": { "strassenschluessel": "05970000001603329", "bezeichnung": "Bornhausweg" }, "geometry": { "type": "Point", "coordinates": [ 7.861679852860452, 50.905603057969913 ] } },
{ "type": "Feature", "properties": { "strassenschluessel": "05970000001603330", "bezeichnung": "Schlagwies" }, "geometry": { "type": "Point", "coordinates": [ 7.865733029431679, 50.89689002425645 ] } },
{ "type": "Feature", "properties": { "strassenschluessel": "05970000001603331", "bezeichnung": "Zum Kurpark" }, "geometry": { "type": "Point", "coordinates": [ 7.877507575041691, 50.898965781142827 ] } },
{ "type": "Feature", "properties": { "strassenschluessel": "05970000001603333", "bezeichnung": "Zum Sonnenweg" }, "geometry": { "type": "Point", "coordinates": [ 7.861009827965618, 50.897150508197299 ] } },
{ "type": "Feature", "properties": { "strassenschluessel": "05970000001603334", "bezeichnung": "Mórer Platz" }, "geometry": { "type": "Point", "coordinates": [ 7.872546840808322, 50.896264451869797 ] } },
{ "type": "Feature", "properties": { "strassenschluessel": "05970000001603335", "bezeichnung": "Hammergraben" }, "geometry": { "type": "Point", "coordinates": [ 7.882632195416067, 50.902486648393896 ] } },
{ "type": "Feature", "properties": { "strassenschluessel": "05970000001603336", "bezeichnung": "Marion-Dönhoff-Weg" }, "geometry": { "type": "Point", "coordinates": [ 7.865216947362127, 50.906248388504025 ] } },
{ "type": "Feature", "properties": { "strassenschluessel": "05970000001603337", "bezeichnung": "Villa-Bubenzer-Weg" }, "geometry": { "type": "Point", "coordinates": [ 7.872670207698038, 50.894900764290114 ] } },
{ "type": "Feature", "properties": { "strassenschluessel": "05970000001603338", "bezeichnung": "Theodor-Siebel-Weg" }, "geometry": { "type": "Point", "coordinates": [ 7.880202961062054, 50.9037889760166 ] } },
{ "type": "Feature", "properties": { "strassenschluessel": "05970000001603339", "bezeichnung": "Weißdornweg" }, "geometry": { "type": "Point", "coordinates": [ 7.879885758023089, 50.904731960396688 ] } },
{ "type": "Feature", "properties": { "strassenschluessel": "05970000001603351", "bezeichnung": "Alter Heisbergweg" }, "geometry": { "type": "Point", "coordinates": [ 7.926748011868503, 50.881681382539981 ] } },
{ "type": "Feature", "properties": { "strassenschluessel": "05970000001603352", "bezeichnung": "Auf der Wiese" }, "geometry": { "type": "Point", "coordinates": [ 7.926000864419794, 50.877213043288954 ] } },
{ "type": "Feature", "properties": { "strassenschluessel": "05970000001603353", "bezeichnung": "Heisberger Straße" }, "geometry": { "type": "Point", "coordinates": [ 7.926809625806456, 50.879618234244028 ] } },
{ "type": "Feature", "properties": { "strassenschluessel": "05970000001603354", "bezeichnung": "Im Hofgarten" }, "geometry": { "type": "Point", "coordinates": [ 7.925275672742529, 50.877980360582093 ] } },
{ "type": "Feature", "properties": { "strassenschluessel": "05970000001603355", "bezeichnung": "Obere Hofwiese" }, "geometry": { "type": "Point", "coordinates": [ 7.926695712428838, 50.878886064316895 ] } },
{ "type": "Feature", "properties": { "strassenschluessel": "05970000001603356", "bezeichnung": "Vorm Wiesentor" }, "geometry": { "type": "Point", "coordinates": [ 7.926868174154714, 50.877932070973095 ] } },
{ "type": "Feature", "properties": { "strassenschluessel": "05970000001603357", "bezeichnung": "Weideweg" }, "geometry": { "type": "Point", "coordinates": [ 7.925192724545489, 50.87961118938918 ] } },
{ "type": "Feature", "properties": { "strassenschluessel": "05970000001603358", "bezeichnung": "Zum Sonnenblick" }, "geometry": { "type": "Point", "coordinates": [ 7.928897307254224, 50.880025998457349 ] } },
{ "type": "Feature", "properties": { "strassenschluessel": "05970000001603359", "bezeichnung": "Zur Schladedell" }, "geometry": { "type": "Point", "coordinates": [ 7.92489649948434, 50.877814328970302 ] } },
{ "type": "Feature", "properties": { "strassenschluessel": "05970000001603360", "bezeichnung": "Autobahnraststätte Siegerland" }, "geometry": { "type": "Point", "coordinates": [ 7.934897606548732, 50.880364167828141 ] } },
{ "type": "Feature", "properties": { "strassenschluessel": "05970000001603361", "bezeichnung": "Karstein" }, "geometry": { "type": "Point", "coordinates": [ 7.924043961640976, 50.878342087853412 ] } },
{ "type": "Feature", "properties": { "strassenschluessel": "05970000001603362", "bezeichnung": "Zur Wettelbach" }, "geometry": { "type": "Point", "coordinates": [ 7.927470614971573, 50.880415955116305 ] } },
{ "type": "Feature", "properties": { "strassenschluessel": "05970000001603371", "bezeichnung": "Alter Schanzenweg" }, "geometry": { "type": "Point", "coordinates": [ 7.850900891228588, 50.911595311993217 ] } },
{ "type": "Feature", "properties": { "strassenschluessel": "05970000001603372", "bezeichnung": "Auf dem Drisch" }, "geometry": { "type": "Point", "coordinates": [ 7.847851648843932, 50.912828534185337 ] } },
{ "type": "Feature", "properties": { "strassenschluessel": "05970000001603373", "bezeichnung": "Dachsweg" }, "geometry": { "type": "Point", "coordinates": [ 7.844580985535655, 50.911902719770382 ] } },
{ "type": "Feature", "properties": { "strassenschluessel": "05970000001603375", "bezeichnung": "Fuchsweg" }, "geometry": { "type": "Point", "coordinates": [ 7.845385883903369, 50.91347788539457 ] } },
{ "type": "Feature", "properties": { "strassenschluessel": "05970000001603376", "bezeichnung": "Hasenpfad" }, "geometry": { "type": "Point", "coordinates": [ 7.844702751515131, 50.911245978200348 ] } },
{ "type": "Feature", "properties": { "strassenschluessel": "05970000001603377", "bezeichnung": "Hirschpfad" }, "geometry": null },
{ "type": "Feature", "properties": { "strassenschluessel": "05970000001603378", "bezeichnung": "Hohenhainer Straße" }, "geometry": { "type": "Point", "coordinates": [ 7.848202883474411, 50.910671447821016 ] } },
{ "type": "Feature", "properties": { "strassenschluessel": "05970000001603380", "bezeichnung": "Kleintirolstraße" }, "geometry": { "type": "Point", "coordinates": [ 7.848673478100398, 50.911837491692658 ] } },
{ "type": "Feature", "properties": { "strassenschluessel": "05970000001603381", "bezeichnung": "Rehpfad" }, "geometry": { "type": "Point", "coordinates": [ 7.844382933941429, 50.914316722116965 ] } },
{ "type": "Feature", "properties": { "strassenschluessel": "05970000001603382", "bezeichnung": "Römershagener Straße" }, "geometry": { "type": "Point", "coordinates": [ 7.850216222920202, 50.911951016155733 ] } },
{ "type": "Feature", "properties": { "strassenschluessel": "05970000001603383", "bezeichnung": "Vorm Hofe" }, "geometry": { "type": "Point", "coordinates": [ 7.846704989519783, 50.910764666272321 ] } },
{ "type": "Feature", "properties": { "strassenschluessel": "05970000001603384", "bezeichnung": "Zum Bohnengarten" }, "geometry": { "type": "Point", "coordinates": [ 7.849277092038307, 50.913550719914973 ] } },
{ "type": "Feature", "properties": { "strassenschluessel": "05970000001603385", "bezeichnung": "Zur Hammerhöhe" }, "geometry": { "type": "Point", "coordinates": [ 7.844076371837537, 50.910636598740183 ] } },
{ "type": "Feature", "properties": { "strassenschluessel": "05970000001603386", "bezeichnung": "Zur Landhecke" }, "geometry": { "type": "Point", "coordinates": [ 7.851584257266877, 50.912254424689749 ] } },
{ "type": "Feature", "properties": { "strassenschluessel": "05970000001603387", "bezeichnung": "Hainweg" }, "geometry": { "type": "Point", "coordinates": [ 7.848875113274046, 50.913161460855626 ] } },
{ "type": "Feature", "properties": { "strassenschluessel": "05970000001603401", "bezeichnung": "Am Höhwald" }, "geometry": { "type": "Point", "coordinates": [ 7.916849087496137, 50.900723053653856 ] } },
{ "type": "Feature", "properties": { "strassenschluessel": "05970000001603402", "bezeichnung": "Am Lederbach" }, "geometry": { "type": "Point", "coordinates": [ 7.927291082164782, 50.902069314846287 ] } },
{ "type": "Feature", "properties": { "strassenschluessel": "05970000001603403", "bezeichnung": "An der Autobahn" }, "geometry": { "type": "Point", "coordinates": [ 7.919942196844301, 50.904676318501522 ] } },
{ "type": "Feature", "properties": { "strassenschluessel": "05970000001603404", "bezeichnung": "Backesweg" }, "geometry": { "type": "Point", "coordinates": [ 7.925417509656618, 50.900528970665746 ] } },
{ "type": "Feature", "properties": { "strassenschluessel": "05970000001603405", "bezeichnung": "Heidschlade" }, "geometry": { "type": "Point", "coordinates": [ 7.923153946597972, 50.90295112646843 ] } },
{ "type": "Feature", "properties": { "strassenschluessel": "05970000001603406", "bezeichnung": "Hofgasse" }, "geometry": { "type": "Point", "coordinates": [ 7.924069896291053, 50.899257981864224 ] } },
{ "type": "Feature", "properties": { "strassenschluessel": "05970000001603407", "bezeichnung": "Holunderweg" }, "geometry": { "type": "Point", "coordinates": [ 7.921015271302866, 50.899705849985686 ] } },
{ "type": "Feature", "properties": { "strassenschluessel": "05970000001603408", "bezeichnung": "Im Klef" }, "geometry": { "type": "Point", "coordinates": [ 7.92605896057359, 50.898570654326463 ] } },
{ "type": "Feature", "properties": { "strassenschluessel": "05970000001603409", "bezeichnung": "Kurzer Morgen" }, "geometry": { "type": "Point", "coordinates": [ 7.924112565846021, 50.901019362009954 ] } },
{ "type": "Feature", "properties": { "strassenschluessel": "05970000001603410", "bezeichnung": "Lindenberger Höhe" }, "geometry": { "type": "Point", "coordinates": [ 7.921897043344057, 50.898757134567497 ] } },
{ "type": "Feature", "properties": { "strassenschluessel": "05970000001603411", "bezeichnung": "Lindenberger Straße" }, "geometry": { "type": "Point", "coordinates": [ 7.9226087147728, 50.899914041870389 ] } },
{ "type": "Feature", "properties": { "strassenschluessel": "05970000001603412", "bezeichnung": "Rosenweg" }, "geometry": { "type": "Point", "coordinates": [ 7.927642246273642, 50.8994308188568 ] } },
{ "type": "Feature", "properties": { "strassenschluessel": "05970000001603413", "bezeichnung": "Siebelsaat" }, "geometry": { "type": "Point", "coordinates": [ 7.923171147633288, 50.904944523520349 ] } },
{ "type": "Feature", "properties": { "strassenschluessel": "05970000001603414", "bezeichnung": "Siegener Straße" }, "geometry": { "type": "Point", "coordinates": [ 7.92850493472517, 50.899756651007387 ] } },
{ "type": "Feature", "properties": { "strassenschluessel": "05970000001603415", "bezeichnung": "Heisberger Straße" }, "geometry": { "type": "Point", "coordinates": [ 7.9384218209994, 50.888026387286537 ] } },
{ "type": "Feature", "properties": { "strassenschluessel": "05970000001603416", "bezeichnung": "Emmaweg" }, "geometry": { "type": "Point", "coordinates": [ 7.925224661248959, 50.902132783134981 ] } },
{ "type": "Feature", "properties": { "strassenschluessel": "05970000001603417", "bezeichnung": "Rauhschlade" }, "geometry": { "type": "Point", "coordinates": [ 7.925247367448528, 50.902616688253957 ] } },
{ "type": "Feature", "properties": { "strassenschluessel": "05970000001603418", "bezeichnung": "Im Bärengarten" }, "geometry": { "type": "Point", "coordinates": [ 7.924752663044163, 50.89845136131229 ] } },
{ "type": "Feature", "properties": { "strassenschluessel": "05970000001603419", "bezeichnung": "Lindenstraße" }, "geometry": { "type": "Point", "coordinates": [ 7.925226730295973, 50.898067472984756 ] } },
{ "type": "Feature", "properties": { "strassenschluessel": "05970000001603420", "bezeichnung": "Alte Eisenstraße" }, "geometry": { "type": "Point", "coordinates": [ 7.910928919105514, 50.907205249740194 ] } },
{ "type": "Feature", "properties": { "strassenschluessel": "05970000001603421", "bezeichnung": "Hühnerberg" }, "geometry": null },
{ "type": "Feature", "properties": { "strassenschluessel": "05970000001603451", "bezeichnung": "Am Hainchen" }, "geometry": { "type": "Point", "coordinates": [ 7.836062019294538, 50.902397862708497 ] } },
{ "type": "Feature", "properties": { "strassenschluessel": "05970000001603452", "bezeichnung": "Am Schlüchter" }, "geometry": { "type": "Point", "coordinates": [ 7.837979214959224, 50.89955209768241 ] } },
{ "type": "Feature", "properties": { "strassenschluessel": "05970000001603453", "bezeichnung": "Grenzweg" }, "geometry": { "type": "Point", "coordinates": [ 7.835486607345971, 50.9026266713594 ] } },
{ "type": "Feature", "properties": { "strassenschluessel": "05970000001603456", "bezeichnung": "Kirschenbachweg" }, "geometry": { "type": "Point", "coordinates": [ 7.838290202223582, 50.902115040952204 ] } },
{ "type": "Feature", "properties": { "strassenschluessel": "05970000001603457", "bezeichnung": "Mausbacher Straße" }, "geometry": { "type": "Point", "coordinates": [ 7.837719300244227, 50.902167309354624 ] } },
{ "type": "Feature", "properties": { "strassenschluessel": "05970000001603460", "bezeichnung": "Zum Grimmewald" }, "geometry": { "type": "Point", "coordinates": [ 7.840985033311743, 50.899571385875575 ] } },
{ "type": "Feature", "properties": { "strassenschluessel": "05970000001603471", "bezeichnung": "Am Landenberg" }, "geometry": { "type": "Point", "coordinates": [ 7.912270820178253, 50.888636043606859 ] } },
{ "type": "Feature", "properties": { "strassenschluessel": "05970000001603472", "bezeichnung": "Heuslingstraße" }, "geometry": { "type": "Point", "coordinates": [ 7.912661961518445, 50.885807530092372 ] } },
{ "type": "Feature", "properties": { "strassenschluessel": "05970000001603473", "bezeichnung": "In der Remschlade" }, "geometry": { "type": "Point", "coordinates": [ 7.911811229888368, 50.881967887761711 ] } },
{ "type": "Feature", "properties": { "strassenschluessel": "05970000001603474", "bezeichnung": "Landenbergstraße" }, "geometry": { "type": "Point", "coordinates": [ 7.914070544605425, 50.888549596685991 ] } },
{ "type": "Feature", "properties": { "strassenschluessel": "05970000001603475", "bezeichnung": "Trausterbachstraße" }, "geometry": { "type": "Point", "coordinates": [ 7.914415271589218, 50.88845211754537 ] } },
{ "type": "Feature", "properties": { "strassenschluessel": "05970000001603476", "bezeichnung": "Vorm Langen Wald" }, "geometry": { "type": "Point", "coordinates": [ 7.91318932277826, 50.885916202720892 ] } },
{ "type": "Feature", "properties": { "strassenschluessel": "05970000001603477", "bezeichnung": "Zum Rohland" }, "geometry": { "type": "Point", "coordinates": [ 7.911674618519805, 50.886989838823084 ] } },
{ "type": "Feature", "properties": { "strassenschluessel": "05970000001603478", "bezeichnung": "Hofwiese" }, "geometry": { "type": "Point", "coordinates": [ 7.913171811068977, 50.888069657247961 ] } },
{ "type": "Feature", "properties": { "strassenschluessel": "05970000001603479", "bezeichnung": "Unterm Rohland" }, "geometry": { "type": "Point", "coordinates": [ 7.912274131742848, 50.886929912908592 ] } },
{ "type": "Feature", "properties": { "strassenschluessel": "05970000001603480", "bezeichnung": "Hundschlade" }, "geometry": { "type": "Point", "coordinates": [ 7.908405345711752, 50.888853553090392 ] } },
{ "type": "Feature", "properties": { "strassenschluessel": "05970000001603491", "bezeichnung": "Hof Mühlenberg" }, "geometry": { "type": "Point", "coordinates": [ 7.952945168598135, 50.915080278561163 ] } },
{ "type": "Feature", "properties": { "strassenschluessel": "05970000001603492", "bezeichnung": "Löhbergstraße" }, "geometry": { "type": "Point", "coordinates": [ 7.94679213180958, 50.914187242383761 ] } },
{ "type": "Feature", "properties": { "strassenschluessel": "05970000001603493", "bezeichnung": "Niederholzklauer Straße" }, "geometry": { "type": "Point", "coordinates": [ 7.949588625261513, 50.911917580657693 ] } },
{ "type": "Feature", "properties": { "strassenschluessel": "05970000001603494", "bezeichnung": "Scheuerwiese" }, "geometry": { "type": "Point", "coordinates": [ 7.947428791490976, 50.912730578368397 ] } },
{ "type": "Feature", "properties": { "strassenschluessel": "05970000001603501", "bezeichnung": "Adolf-Diesterweg-Straße" }, "geometry": { "type": "Point", "coordinates": [ 7.904222284653918, 50.862149631908359 ] } },
{ "type": "Feature", "properties": { "strassenschluessel": "05970000001603502", "bezeichnung": "Am Elger" }, "geometry": { "type": "Point", "coordinates": [ 7.901477155424264, 50.869583355808537 ] } },
{ "type": "Feature", "properties": { "strassenschluessel": "05970000001603503", "bezeichnung": "Am Hammerrain" }, "geometry": { "type": "Point", "coordinates": [ 7.902328631308121, 50.866398919188192 ] } },
{ "type": "Feature", "properties": { "strassenschluessel": "05970000001603504", "bezeichnung": "Am Höppel" }, "geometry": { "type": "Point", "coordinates": [ 7.907295410032754, 50.860245507468285 ] } },
{ "type": "Feature", "properties": { "strassenschluessel": "05970000001603505", "bezeichnung": "Am Kirberg" }, "geometry": { "type": "Point", "coordinates": [ 7.906482364781521, 50.867830384813196 ] } },
{ "type": "Feature", "properties": { "strassenschluessel": "05970000001603506", "bezeichnung": "Am Ortsberg" }, "geometry": { "type": "Point", "coordinates": [ 7.902712157166842, 50.863815991671046 ] } },
{ "type": "Feature", "properties": { "strassenschluessel": "05970000001603507", "bezeichnung": "Am Süsselberg" }, "geometry": { "type": "Point", "coordinates": [ 7.90138008287322, 50.866704678568389 ] } },
{ "type": "Feature", "properties": { "strassenschluessel": "05970000001603508", "bezeichnung": "Am Ziegenberg" }, "geometry": { "type": "Point", "coordinates": [ 7.896750886685498, 50.870842621961103 ] } },
{ "type": "Feature", "properties": { "strassenschluessel": "05970000001603509", "bezeichnung": "Auf der Hube" }, "geometry": { "type": "Point", "coordinates": [ 7.907198205299515, 50.864497273007444 ] } },
{ "type": "Feature", "properties": { "strassenschluessel": "05970000001603510", "bezeichnung": "Dirlenbacher Straße" }, "geometry": { "type": "Point", "coordinates": [ 7.900153895612023, 50.868751942400671 ] } },
{ "type": "Feature", "properties": { "strassenschluessel": "05970000001603511", "bezeichnung": "Feldstraße" }, "geometry": { "type": "Point", "coordinates": [ 7.898770979459175, 50.869977801100596 ] } },
{ "type": "Feature", "properties": { "strassenschluessel": "05970000001603512", "bezeichnung": "Fürst-Moritz-Straße" }, "geometry": { "type": "Point", "coordinates": [ 7.904489192808154, 50.861442298507036 ] } },
{ "type": "Feature", "properties": { "strassenschluessel": "05970000001603513", "bezeichnung": "Im Garten" }, "geometry": { "type": "Point", "coordinates": [ 7.902116143518284, 50.863229012965533 ] } },
{ "type": "Feature", "properties": { "strassenschluessel": "05970000001603514", "bezeichnung": "Im Hähnchen" }, "geometry": { "type": "Point", "coordinates": [ 7.902138226201489, 50.865344708497936 ] } },
{ "type": "Feature", "properties": { "strassenschluessel": "05970000001603515", "bezeichnung": "In der Sasselbach" }, "geometry": { "type": "Point", "coordinates": [ 7.913638960608497, 50.862581849028537 ] } },
{ "type": "Feature", "properties": { "strassenschluessel": "05970000001603516", "bezeichnung": "In der Vollmersbach" }, "geometry": { "type": "Point", "coordinates": [ 7.901199933657994, 50.8715485572855 ] } },
{ "type": "Feature", "properties": { "strassenschluessel": "05970000001603517", "bezeichnung": "Industriestraße" }, "geometry": { "type": "Point", "coordinates": [ 7.899515517175594, 50.865470092404699 ] } },
{ "type": "Feature", "properties": { "strassenschluessel": "05970000001603518", "bezeichnung": "Johannes-Groos-Straße" }, "geometry": { "type": "Point", "coordinates": [ 7.904380064459354, 50.864957968218071 ] } },
{ "type": "Feature", "properties": { "strassenschluessel": "05970000001603519", "bezeichnung": "Mühlenweg" }, "geometry": { "type": "Point", "coordinates": [ 7.900274529505817, 50.865359887712202 ] } },
{ "type": "Feature", "properties": { "strassenschluessel": "05970000001603520", "bezeichnung": "Niederndorfer Straße" }, "geometry": { "type": "Point", "coordinates": [ 7.898108507454348, 50.864357245986589 ] } },
{ "type": "Feature", "properties": { "strassenschluessel": "05970000001603521", "bezeichnung": "Uebachstraße" }, "geometry": { "type": "Point", "coordinates": [ 7.908810491490725, 50.861590330368585 ] } },
{ "type": "Feature", "properties": { "strassenschluessel": "05970000001603522", "bezeichnung": "Winkelstraße" }, "geometry": { "type": "Point", "coordinates": [ 7.900756320779058, 50.864370389399909 ] } },
{ "type": "Feature", "properties": { "strassenschluessel": "05970000001603523", "bezeichnung": "Unter der Hube" }, "geometry": { "type": "Point", "coordinates": [ 7.913443515591619, 50.862091122916311 ] } },
{ "type": "Feature", "properties": { "strassenschluessel": "05970000001603524", "bezeichnung": "Zum Giebelwald" }, "geometry": { "type": "Point", "coordinates": [ 7.905436233672704, 50.862600324929453 ] } },
{ "type": "Feature", "properties": { "strassenschluessel": "05970000001603525", "bezeichnung": "Lohweg" }, "geometry": { "type": "Point", "coordinates": [ 7.901528076715128, 50.871355490067195 ] } },
{ "type": "Feature", "properties": { "strassenschluessel": "05970000001603526", "bezeichnung": "Kirbergstraße" }, "geometry": { "type": "Point", "coordinates": [ 7.904860851469375, 50.867879921675829 ] } },
{ "type": "Feature", "properties": { "strassenschluessel": "05970000001603527", "bezeichnung": "Am Ludwigshof" }, "geometry": { "type": "Point", "coordinates": [ 7.904212869002615, 50.86796841039596 ] } },
{ "type": "Feature", "properties": { "strassenschluessel": "05970000001603528", "bezeichnung": "Vorm Elger" }, "geometry": { "type": "Point", "coordinates": [ 7.904973142055527, 50.868442518497893 ] } },
{ "type": "Feature", "properties": { "strassenschluessel": "05970000001603529", "bezeichnung": "Kirbergsgarten" }, "geometry": { "type": "Point", "coordinates": [ 7.907791620008571, 50.868373251583456 ] } },
{ "type": "Feature", "properties": { "strassenschluessel": "05970000001603530", "bezeichnung": "Sonnenfeldstraße" }, "geometry": { "type": "Point", "coordinates": [ 7.905960322542082, 50.869612849186758 ] } },
{ "type": "Feature", "properties": { "strassenschluessel": "05970000001603601", "bezeichnung": "Am Bach" }, "geometry": { "type": "Point", "coordinates": [ 7.91308523626857, 50.874175518929022 ] } },
{ "type": "Feature", "properties": { "strassenschluessel": "05970000001603602", "bezeichnung": "Am Heusling" }, "geometry": { "type": "Point", "coordinates": [ 7.912912398315616, 50.871476613237775 ] } },
{ "type": "Feature", "properties": { "strassenschluessel": "05970000001603603", "bezeichnung": "Am Kaltland" }, "geometry": { "type": "Point", "coordinates": [ 7.914894217467592, 50.87026153578951 ] } },
{ "type": "Feature", "properties": { "strassenschluessel": "05970000001603604", "bezeichnung": "Am Katzenberg" }, "geometry": { "type": "Point", "coordinates": [ 7.913871707725749, 50.872017347027501 ] } },
{ "type": "Feature", "properties": { "strassenschluessel": "05970000001603605", "bezeichnung": "Am Silberhang" }, "geometry": { "type": "Point", "coordinates": [ 7.913220636638314, 50.868986355413277 ] } },
{ "type": "Feature", "properties": { "strassenschluessel": "05970000001603606", "bezeichnung": "Berscheweg" }, "geometry": { "type": "Point", "coordinates": [ 7.910999517791104, 50.873329141492235 ] } },
{ "type": "Feature", "properties": { "strassenschluessel": "05970000001603607", "bezeichnung": "Heuslingstraße" }, "geometry": { "type": "Point", "coordinates": [ 7.912217081917563, 50.87389737953449 ] } },
{ "type": "Feature", "properties": { "strassenschluessel": "05970000001603608", "bezeichnung": "Kaltlandstraße" }, "geometry": { "type": "Point", "coordinates": [ 7.915168262749406, 50.86947572749829 ] } },
{ "type": "Feature", "properties": { "strassenschluessel": "05970000001603609", "bezeichnung": "Kirchweg" }, "geometry": { "type": "Point", "coordinates": [ 7.911134705878081, 50.871899729160816 ] } },
{ "type": "Feature", "properties": { "strassenschluessel": "05970000001603610", "bezeichnung": "Molkereistraße" }, "geometry": { "type": "Point", "coordinates": [ 7.912840743130735, 50.872667683670606 ] } },
{ "type": "Feature", "properties": { "strassenschluessel": "05970000001603611", "bezeichnung": "Oberfischbacher Straße" }, "geometry": { "type": "Point", "coordinates": [ 7.91890262976209, 50.872369818435658 ] } },
{ "type": "Feature", "properties": { "strassenschluessel": "05970000001603612", "bezeichnung": "Schelder Straße" }, "geometry": { "type": "Point", "coordinates": [ 7.922396529576424, 50.872403280285042 ] } },
{ "type": "Feature", "properties": { "strassenschluessel": "05970000001603613", "bezeichnung": "Silberkaute" }, "geometry": { "type": "Point", "coordinates": [ 7.91144560118405, 50.868837121202873 ] } },
{ "type": "Feature", "properties": { "strassenschluessel": "05970000001603614", "bezeichnung": "Waldstraße" }, "geometry": { "type": "Point", "coordinates": [ 7.915746942258391, 50.869019951327935 ] } },
{ "type": "Feature", "properties": { "strassenschluessel": "05970000001603615", "bezeichnung": "Walpertalstraße" }, "geometry": { "type": "Point", "coordinates": [ 7.913642348533938, 50.870084049721562 ] } },
{ "type": "Feature", "properties": { "strassenschluessel": "05970000001603616", "bezeichnung": "Wiesenstraße" }, "geometry": { "type": "Point", "coordinates": [ 7.920246716779026, 50.872669884406939 ] } },
{ "type": "Feature", "properties": { "strassenschluessel": "05970000001603617", "bezeichnung": "Höfchenweg" }, "geometry": { "type": "Point", "coordinates": [ 7.913296070457746, 50.868626455249291 ] } },
{ "type": "Feature", "properties": { "strassenschluessel": "05970000001603651", "bezeichnung": "Am Rimberg" }, "geometry": { "type": "Point", "coordinates": [ 7.903543565999845, 50.89216041680114 ] } },
{ "type": "Feature", "properties": { "strassenschluessel": "05970000001603652", "bezeichnung": "Auf dem Eudchen" }, "geometry": { "type": "Point", "coordinates": [ 7.915678413762423, 50.895251761697459 ] } },
{ "type": "Feature", "properties": { "strassenschluessel": "05970000001603653", "bezeichnung": "Auf dem Sauren" }, "geometry": { "type": "Point", "coordinates": [ 7.917893593680176, 50.895496350347116 ] } },
{ "type": "Feature", "properties": { "strassenschluessel": "05970000001603654", "bezeichnung": "Bruchshecke" }, "geometry": { "type": "Point", "coordinates": [ 7.908232288899059, 50.890248601935149 ] } },
{ "type": "Feature", "properties": { "strassenschluessel": "05970000001603655", "bezeichnung": "Dürrebruch" }, "geometry": { "type": "Point", "coordinates": [ 7.90966461618765, 50.891292929184779 ] } },
{ "type": "Feature", "properties": { "strassenschluessel": "05970000001603656", "bezeichnung": "Grimmschlade" }, "geometry": { "type": "Point", "coordinates": [ 7.918367268899431, 50.89738256766173 ] } },
{ "type": "Feature", "properties": { "strassenschluessel": "05970000001603657", "bezeichnung": "Heuslinger Hang" }, "geometry": { "type": "Point", "coordinates": [ 7.910673209770668, 50.893560127570424 ] } },
{ "type": "Feature", "properties": { "strassenschluessel": "05970000001603658", "bezeichnung": "Heuslingstraße" }, "geometry": { "type": "Point", "coordinates": [ 7.908047110385394, 50.892125067006624 ] } },
{ "type": "Feature", "properties": { "strassenschluessel": "05970000001603659", "bezeichnung": "Hundschlade" }, "geometry": { "type": "Point", "coordinates": [ 7.909060641533485, 50.889597348339862 ] } },
{ "type": "Feature", "properties": { "strassenschluessel": "05970000001603660", "bezeichnung": "Im Grund" }, "geometry": { "type": "Point", "coordinates": [ 7.910141794043547, 50.892836465011413 ] } },
{ "type": "Feature", "properties": { "strassenschluessel": "05970000001603661", "bezeichnung": "In der Zeitenbach" }, "geometry": { "type": "Point", "coordinates": [ 7.917328292506253, 50.896229487029778 ] } },
{ "type": "Feature", "properties": { "strassenschluessel": "05970000001603662", "bezeichnung": "Lindenberger Straße" }, "geometry": { "type": "Point", "coordinates": [ 7.911729306501828, 50.892351795855987 ] } },
{ "type": "Feature", "properties": { "strassenschluessel": "05970000001603663", "bezeichnung": "Obere Zeitenbach" }, "geometry": { "type": "Point", "coordinates": [ 7.916924800440254, 50.896900676795894 ] } },
{ "type": "Feature", "properties": { "strassenschluessel": "05970000001603664", "bezeichnung": "Rimbergstraße" }, "geometry": { "type": "Point", "coordinates": [ 7.90472609298738, 50.891686642601826 ] } },
{ "type": "Feature", "properties": { "strassenschluessel": "05970000001603665", "bezeichnung": "Zum Berge" }, "geometry": { "type": "Point", "coordinates": [ 7.910205979540172, 50.893316498886271 ] } },
{ "type": "Feature", "properties": { "strassenschluessel": "05970000001603666", "bezeichnung": "Zum Rimberg" }, "geometry": { "type": "Point", "coordinates": [ 7.905124414368172, 50.892891565449226 ] } },
{ "type": "Feature", "properties": { "strassenschluessel": "05970000001603667", "bezeichnung": "Zur Häsel" }, "geometry": { "type": "Point", "coordinates": [ 7.910716825453926, 50.894500374475122 ] } },
{ "type": "Feature", "properties": { "strassenschluessel": "05970000001603668", "bezeichnung": "Zur Heide" }, "geometry": { "type": "Point", "coordinates": [ 7.915336942895141, 50.895938477554857 ] } },
{ "type": "Feature", "properties": { "strassenschluessel": "05970000001603669", "bezeichnung": "Unterm Steinbruch" }, "geometry": { "type": "Point", "coordinates": [ 7.907972070997815, 50.890084896333263 ] } },
{ "type": "Feature", "properties": { "strassenschluessel": "05970000001603670", "bezeichnung": "Süße Wiese" }, "geometry": { "type": "Point", "coordinates": [ 7.91059656303321, 50.892292685782877 ] } },
{ "type": "Feature", "properties": { "strassenschluessel": "05970000001603671", "bezeichnung": "Zum Steinbruch" }, "geometry": { "type": "Point", "coordinates": [ 7.907742597732677, 50.891838911608382 ] } },
{ "type": "Feature", "properties": { "strassenschluessel": "05970000001603672", "bezeichnung": "Rimbergswald" }, "geometry": { "type": "Point", "coordinates": [ 7.90332177610999, 50.89352887567761 ] } },
{ "type": "Feature", "properties": { "strassenschluessel": "05970000001603673", "bezeichnung": "Sonnenhang" }, "geometry": { "type": "Point", "coordinates": [ 7.908481674795858, 50.894319870407244 ] } },
{ "type": "Feature", "properties": { "strassenschluessel": "05970000001603701", "bezeichnung": "Achenbachweg" }, "geometry": { "type": "Point", "coordinates": [ 7.933370987029929, 50.926680581360877 ] } },
{ "type": "Feature", "properties": { "strassenschluessel": "05970000001603702", "bezeichnung": "Alte Straße" }, "geometry": { "type": "Point", "coordinates": [ 7.934749636489714, 50.926653022823146 ] } },
{ "type": "Feature", "properties": { "strassenschluessel": "05970000001603703", "bezeichnung": "Am Löh" }, "geometry": { "type": "Point", "coordinates": [ 7.934613507274882, 50.926948178829463 ] } },
{ "type": "Feature", "properties": { "strassenschluessel": "05970000001603704", "bezeichnung": "Am Roten Hain" }, "geometry": { "type": "Point", "coordinates": [ 7.934203652567834, 50.929323221213401 ] } },
{ "type": "Feature", "properties": { "strassenschluessel": "05970000001603705", "bezeichnung": "Auf der Linde" }, "geometry": { "type": "Point", "coordinates": [ 7.928730586112156, 50.923465057651242 ] } },
{ "type": "Feature", "properties": { "strassenschluessel": "05970000001603706", "bezeichnung": "Bruchbergweg" }, "geometry": { "type": "Point", "coordinates": [ 7.930862304824965, 50.921326300110778 ] } },
{ "type": "Feature", "properties": { "strassenschluessel": "05970000001603707", "bezeichnung": "Buschebornweg" }, "geometry": { "type": "Point", "coordinates": [ 7.932292391219629, 50.926959756196716 ] } },
{ "type": "Feature", "properties": { "strassenschluessel": "05970000001603708", "bezeichnung": "Eschenbachstraße" }, "geometry": { "type": "Point", "coordinates": [ 7.930939022488691, 50.922688228060174 ] } },
{ "type": "Feature", "properties": { "strassenschluessel": "05970000001603709", "bezeichnung": "Im Langen Feld" }, "geometry": { "type": "Point", "coordinates": [ 7.929513686846014, 50.925694844578643 ] } },
{ "type": "Feature", "properties": { "strassenschluessel": "05970000001603710", "bezeichnung": "Kreuztaler Straße" }, "geometry": { "type": "Point", "coordinates": [ 7.932670101448346, 50.924076342602383 ] } },
{ "type": "Feature", "properties": { "strassenschluessel": "05970000001603711", "bezeichnung": "Meiswinkeler Straße" }, "geometry": { "type": "Point", "coordinates": [ 7.934841346799066, 50.928097692451843 ] } },
{ "type": "Feature", "properties": { "strassenschluessel": "05970000001603712", "bezeichnung": "Neben der Kirche" }, "geometry": { "type": "Point", "coordinates": [ 7.935266918448713, 50.92604134744623 ] } },
{ "type": "Feature", "properties": { "strassenschluessel": "05970000001603713", "bezeichnung": "Niederholzklauer Straße" }, "geometry": { "type": "Point", "coordinates": [ 7.937984072729448, 50.924527969130338 ] } },
{ "type": "Feature", "properties": { "strassenschluessel": "05970000001603714", "bezeichnung": "Oberholzklauer Straße" }, "geometry": { "type": "Point", "coordinates": [ 7.932342695907995, 50.929044912485281 ] } },
{ "type": "Feature", "properties": { "strassenschluessel": "05970000001603715", "bezeichnung": "Zum Backhausfeld" }, "geometry": { "type": "Point", "coordinates": [ 7.931287647890774, 50.927959211517297 ] } },
{ "type": "Feature", "properties": { "strassenschluessel": "05970000001603716", "bezeichnung": "Zum Pfarrwäldchen" }, "geometry": { "type": "Point", "coordinates": [ 7.931560691272092, 50.924779515688734 ] } },
{ "type": "Feature", "properties": { "strassenschluessel": "05970000001603751", "bezeichnung": "Am Berggarten" }, "geometry": { "type": "Point", "coordinates": [ 7.860767950969337, 50.882932215142723 ] } },
{ "type": "Feature", "properties": { "strassenschluessel": "05970000001603752", "bezeichnung": "Am Hofacker" }, "geometry": { "type": "Point", "coordinates": [ 7.856755851064843, 50.88198483358633 ] } },
{ "type": "Feature", "properties": { "strassenschluessel": "05970000001603753", "bezeichnung": "An der Hallstatt" }, "geometry": { "type": "Point", "coordinates": [ 7.858769007697176, 50.883514691256003 ] } },
{ "type": "Feature", "properties": { "strassenschluessel": "05970000001603754", "bezeichnung": "Blumenstraße" }, "geometry": { "type": "Point", "coordinates": [ 7.854511237925886, 50.884108495682881 ] } },
{ "type": "Feature", "properties": { "strassenschluessel": "05970000001603755", "bezeichnung": "Löcherbacher Weg" }, "geometry": { "type": "Point", "coordinates": [ 7.857443990297092, 50.880620833445846 ] } },
{ "type": "Feature", "properties": { "strassenschluessel": "05970000001603756", "bezeichnung": "Plittershagener Straße" }, "geometry": { "type": "Point", "coordinates": [ 7.859351873588012, 50.882540668543143 ] } },
{ "type": "Feature", "properties": { "strassenschluessel": "05970000001603757", "bezeichnung": "Zum Stöcker Hof" }, "geometry": { "type": "Point", "coordinates": [ 7.855804989212687, 50.883683520553213 ] } },
{ "type": "Feature", "properties": { "strassenschluessel": "05970000001603758", "bezeichnung": "Unterm Reckhahn" }, "geometry": { "type": "Point", "coordinates": [ 7.856370536878256, 50.88136689677745 ] } },
{ "type": "Feature", "properties": { "strassenschluessel": "05970000001691603", "bezeichnung": "Alchen" }, "geometry": null },
{ "type": "Feature", "properties": { "strassenschluessel": "05970000001691604", "bezeichnung": "Bottenberg" }, "geometry": null },
{ "type": "Feature", "properties": { "strassenschluessel": "05970000001691605", "bezeichnung": "Bühl" }, "geometry": null },
{ "type": "Feature", "properties": { "strassenschluessel": "05970000001691606", "bezeichnung": "Büschergrund" }, "geometry": null },
{ "type": "Feature", "properties": { "strassenschluessel": "05970000001691607", "bezeichnung": "Dirlenbach" }, "geometry": null },
{ "type": "Feature", "properties": { "strassenschluessel": "05970000001691608", "bezeichnung": "Freudenberg" }, "geometry": null },
{ "type": "Feature", "properties": { "strassenschluessel": "05970000001691609", "bezeichnung": "Heisberg" }, "geometry": null },
{ "type": "Feature", "properties": { "strassenschluessel": "05970000001691610", "bezeichnung": "Hohenhain" }, "geometry": null },
{ "type": "Feature", "properties": { "strassenschluessel": "05970000001691612", "bezeichnung": "Lindenberg" }, "geometry": null },
{ "type": "Feature", "properties": { "strassenschluessel": "05970000001691613", "bezeichnung": "Mausbach" }, "geometry": null },
{ "type": "Feature", "properties": { "strassenschluessel": "05970000001691616", "bezeichnung": "Niederheuslingen" }, "geometry": null },
{ "type": "Feature", "properties": { "strassenschluessel": "05970000001691617", "bezeichnung": "Niederholzklau" }, "geometry": null },
{ "type": "Feature", "properties": { "strassenschluessel": "05970000001691618", "bezeichnung": "Niederndorf" }, "geometry": null },
{ "type": "Feature", "properties": { "strassenschluessel": "05970000001691619", "bezeichnung": "Oberfischbach" }, "geometry": null },
{ "type": "Feature", "properties": { "strassenschluessel": "05970000001691620", "bezeichnung": "Oberheuslingen" }, "geometry": null },
{ "type": "Feature", "properties": { "strassenschluessel": "05970000001691622", "bezeichnung": "Oberholzklau" }, "geometry": null },
{ "type": "Feature", "properties": { "strassenschluessel": "05970000001691624", "bezeichnung": "Plittershagen" }, "geometry": null },
{ "type": "Feature", "properties": { "strassenschluessel": "059700000016A0045", "bezeichnung": "Dortmund - Gießen" }, "geometry": null },
{ "type": "Feature", "properties": { "strassenschluessel": "059700000016K0001", "bezeichnung": "Hohenhain - Niederndorf" }, "geometry": null },
{ "type": "Feature", "properties": { "strassenschluessel": "059700000016K0006", "bezeichnung": "Bühl - Seelbach" }, "geometry": null },
{ "type": "Feature", "properties": { "strassenschluessel": "059700000016K0008", "bezeichnung": "Trupbach - Oberholzklau" }, "geometry": null },
{ "type": "Feature", "properties": { "strassenschluessel": "059700000016K0019", "bezeichnung": "Oberfischbach - Lindenberg" }, "geometry": null },
{ "type": "Feature", "properties": { "strassenschluessel": "059700000016K0020", "bezeichnung": "Oberheuslingen - Wilhelmshöhe" }, "geometry": null },
{ "type": "Feature", "properties": { "strassenschluessel": "059700000016K0021", "bezeichnung": "Hammerhöhe - Freudenberg" }, "geometry": null },
{ "type": "Feature", "properties": { "strassenschluessel": "059700000016K0022", "bezeichnung": "Alchen - Niederholzklau" }, "geometry": null },
{ "type": "Feature", "properties": { "strassenschluessel": "059700000016L0512", "bezeichnung": "Freudenberg - Büschergrund" }, "geometry": null },
{ "type": "Feature", "properties": { "strassenschluessel": "059700000016L0562", "bezeichnung": "Freudenberg - Eisern" }, "geometry": null },
{ "type": "Feature", "properties": { "strassenschluessel": "059700000016L0565", "bezeichnung": "Niederndorf - Seelbach" }, "geometry": null },
{ "type": "Feature", "properties": { "strassenschluessel": "059700000016L0907", "bezeichnung": "Heisberg - Wilnsdorf" }, "geometry": null },
{ "type": "Feature", "properties": { "strassenschluessel": "059700000016L0908", "bezeichnung": "Wilhelmshöhe - Fellinghausen" }, "geometry": null }
]
}
