{
"type": "FeatureCollection",
"features": [
{ "type": "Feature", "properties": { "strassenschluessel": "05958000002006801", "bezeichnung": "Alreff" }, "geometry": { "type": "Point", "coordinates": [ 8.624741068746719, 51.106595600465809 ] } },
{ "type": "Feature", "properties": { "strassenschluessel": "05958000002006802", "bezeichnung": "Am Brauhaus" }, "geometry": { "type": "Point", "coordinates": [ 8.61939405230196, 51.10788770752464 ] } },
{ "type": "Feature", "properties": { "strassenschluessel": "05958000002006803", "bezeichnung": "Am Hang" }, "geometry": { "type": "Point", "coordinates": [ 8.620243253325937, 51.106830474213787 ] } },
{ "type": "Feature", "properties": { "strassenschluessel": "05958000002006805", "bezeichnung": "An der Mauer" }, "geometry": { "type": "Point", "coordinates": [ 8.622890967564439, 51.108957547550986 ] } },
{ "type": "Feature", "properties": { "strassenschluessel": "05958000002006806", "bezeichnung": "Antoniusstraße" }, "geometry": { "type": "Point", "coordinates": [ 8.616419746994337, 51.110508078164486 ] } },
{ "type": "Feature", "properties": { "strassenschluessel": "05958000002006807", "bezeichnung": "Auf der Burg" }, "geometry": { "type": "Point", "coordinates": [ 8.620108194302588, 51.110636372397053 ] } },
{ "type": "Feature", "properties": { "strassenschluessel": "05958000002006808", "bezeichnung": "Auf der Stätte" }, "geometry": { "type": "Point", "coordinates": [ 8.61724795220263, 51.104782873274203 ] } },
{ "type": "Feature", "properties": { "strassenschluessel": "05958000002006809", "bezeichnung": "Auf der Weife" }, "geometry": { "type": "Point", "coordinates": [ 8.619229038813309, 51.108539630036674 ] } },
{ "type": "Feature", "properties": { "strassenschluessel": "05958000002006810", "bezeichnung": "Bachmühle" }, "geometry": { "type": "Point", "coordinates": [ 8.614817770839068, 51.11026449645523 ] } },
{ "type": "Feature", "properties": { "strassenschluessel": "05958000002006811", "bezeichnung": "Bangenstraße" }, "geometry": { "type": "Point", "coordinates": [ 8.617082097333691, 51.111211375142958 ] } },
{ "type": "Feature", "properties": { "strassenschluessel": "05958000002006812", "bezeichnung": "Bergstraße" }, "geometry": { "type": "Point", "coordinates": [ 8.624909329515512, 51.107106223833306 ] } },
{ "type": "Feature", "properties": { "strassenschluessel": "05958000002006813", "bezeichnung": "Burgstraße" }, "geometry": { "type": "Point", "coordinates": [ 8.619658706044913, 51.110145933109074 ] } },
{ "type": "Feature", "properties": { "strassenschluessel": "05958000002006815", "bezeichnung": "Gartenweg" }, "geometry": { "type": "Point", "coordinates": [ 8.617721280876989, 51.110815311250818 ] } },
{ "type": "Feature", "properties": { "strassenschluessel": "05958000002006816", "bezeichnung": "Grabenstraße" }, "geometry": { "type": "Point", "coordinates": [ 8.621977774288368, 51.108782296123586 ] } },
{ "type": "Feature", "properties": { "strassenschluessel": "05958000002006817", "bezeichnung": "Große-Wiese" }, "geometry": { "type": "Point", "coordinates": [ 8.614881110052041, 51.110032593952326 ] } },
{ "type": "Feature", "properties": { "strassenschluessel": "05958000002006818", "bezeichnung": "Heribertstraße" }, "geometry": { "type": "Point", "coordinates": [ 8.621116646216681, 51.11074308344859 ] } },
{ "type": "Feature", "properties": { "strassenschluessel": "05958000002006819", "bezeichnung": "Hofstadt" }, "geometry": { "type": "Point", "coordinates": [ 8.622691325963533, 51.110546772817536 ] } },
{ "type": "Feature", "properties": { "strassenschluessel": "05958000002006820", "bezeichnung": "Hohe Straße" }, "geometry": { "type": "Point", "coordinates": [ 8.623877029450373, 51.106386143634786 ] } },
{ "type": "Feature", "properties": { "strassenschluessel": "05958000002006821", "bezeichnung": "In der Grube" }, "geometry": { "type": "Point", "coordinates": [ 8.616052296215218, 51.105969409594941 ] } },
{ "type": "Feature", "properties": { "strassenschluessel": "05958000002006822", "bezeichnung": "Kirchstraße" }, "geometry": { "type": "Point", "coordinates": [ 8.621565005012645, 51.111278205479252 ] } },
{ "type": "Feature", "properties": { "strassenschluessel": "05958000002006823", "bezeichnung": "Kreuzberg" }, "geometry": { "type": "Point", "coordinates": [ 8.616941209824684, 51.10756059463499 ] } },
{ "type": "Feature", "properties": { "strassenschluessel": "05958000002006824", "bezeichnung": "Langeloh" }, "geometry": { "type": "Point", "coordinates": [ 8.619515194591749, 51.107014798200893 ] } },
{ "type": "Feature", "properties": { "strassenschluessel": "05958000002006825", "bezeichnung": "Mariengasse" }, "geometry": { "type": "Point", "coordinates": [ 8.62237394597028, 51.110489563992793 ] } },
{ "type": "Feature", "properties": { "strassenschluessel": "05958000002006826", "bezeichnung": "Nothelferweg" }, "geometry": { "type": "Point", "coordinates": [ 8.618910598366908, 51.110373099673097 ] } },
{ "type": "Feature", "properties": { "strassenschluessel": "05958000002006827", "bezeichnung": "Ortstraße" }, "geometry": { "type": "Point", "coordinates": [ 8.621478188597807, 51.109724051834988 ] } },
{ "type": "Feature", "properties": { "strassenschluessel": "05958000002006828", "bezeichnung": "Petrusstraße" }, "geometry": { "type": "Point", "coordinates": [ 8.623234628647204, 51.109769362633699 ] } },
{ "type": "Feature", "properties": { "strassenschluessel": "05958000002006829", "bezeichnung": "Portstraße" }, "geometry": { "type": "Point", "coordinates": [ 8.620341421653171, 51.111054034125914 ] } },
{ "type": "Feature", "properties": { "strassenschluessel": "05958000002006830", "bezeichnung": "Ringweg" }, "geometry": { "type": "Point", "coordinates": [ 8.621647328347997, 51.106878575799172 ] } },
{ "type": "Feature", "properties": { "strassenschluessel": "05958000002006831", "bezeichnung": "Röhrenweg" }, "geometry": { "type": "Point", "coordinates": [ 8.615917157734213, 51.11030899194526 ] } },
{ "type": "Feature", "properties": { "strassenschluessel": "05958000002006832", "bezeichnung": "Rathausplatz" }, "geometry": { "type": "Point", "coordinates": [ 8.620989369909948, 51.110040321863814 ] } },
{ "type": "Feature", "properties": { "strassenschluessel": "05958000002006833", "bezeichnung": "Am Kump" }, "geometry": { "type": "Point", "coordinates": [ 8.621463684042693, 51.110018478075851 ] } },
{ "type": "Feature", "properties": { "strassenschluessel": "05958000002006834", "bezeichnung": "Trambach" }, "geometry": { "type": "Point", "coordinates": [ 8.560983011011745, 51.105320803841494 ] } },
{ "type": "Feature", "properties": { "strassenschluessel": "05958000002006835", "bezeichnung": "Urberg" }, "geometry": { "type": "Point", "coordinates": [ 8.614308191841117, 51.109317079919187 ] } },
{ "type": "Feature", "properties": { "strassenschluessel": "05958000002006836", "bezeichnung": "Vogelecke" }, "geometry": { "type": "Point", "coordinates": [ 8.62138658205027, 51.109489414052362 ] } },
{ "type": "Feature", "properties": { "strassenschluessel": "05958000002006837", "bezeichnung": "Wallstraße" }, "geometry": { "type": "Point", "coordinates": [ 8.620503943291959, 51.111457329910436 ] } },
{ "type": "Feature", "properties": { "strassenschluessel": "05958000002006838", "bezeichnung": "Weiferweg" }, "geometry": { "type": "Point", "coordinates": [ 8.622560900220174, 51.107977707737426 ] } },
{ "type": "Feature", "properties": { "strassenschluessel": "05958000002006839", "bezeichnung": "Winterhöfe" }, "geometry": { "type": "Point", "coordinates": [ 8.625357280746826, 51.108385467241796 ] } },
{ "type": "Feature", "properties": { "strassenschluessel": "05958000002006840", "bezeichnung": "Winterseite" }, "geometry": { "type": "Point", "coordinates": [ 8.584603329330033, 51.102438820654612 ] } },
{ "type": "Feature", "properties": { "strassenschluessel": "05958000002006841", "bezeichnung": "Wunderthauser Straße" }, "geometry": { "type": "Point", "coordinates": [ 8.613944732707642, 51.111399772950669 ] } },
{ "type": "Feature", "properties": { "strassenschluessel": "05958000002006842", "bezeichnung": "Franz-Mörchen-Weg" }, "geometry": { "type": "Point", "coordinates": [ 8.613959210000742, 51.107918243460638 ] } },
{ "type": "Feature", "properties": { "strassenschluessel": "05958000002006843", "bezeichnung": "Bornhöfchen" }, "geometry": { "type": "Point", "coordinates": [ 8.613339172797575, 51.108939509212505 ] } },
{ "type": "Feature", "properties": { "strassenschluessel": "05958000002006844", "bezeichnung": "Grottenweg" }, "geometry": { "type": "Point", "coordinates": [ 8.614350707444196, 51.105811578042982 ] } },
{ "type": "Feature", "properties": { "strassenschluessel": "05958000002006845", "bezeichnung": "Tannenweg" }, "geometry": { "type": "Point", "coordinates": [ 8.613566202988389, 51.105509739648276 ] } },
{ "type": "Feature", "properties": { "strassenschluessel": "05958000002006846", "bezeichnung": "Zum Brauhof" }, "geometry": { "type": "Point", "coordinates": [ 8.622195812400417, 51.109373143227266 ] } },
{ "type": "Feature", "properties": { "strassenschluessel": "05958000002006891", "bezeichnung": "Am Scheidt" }, "geometry": { "type": "Point", "coordinates": [ 8.628877776878145, 51.106372213360764 ] } },
{ "type": "Feature", "properties": { "strassenschluessel": "05958000002006892", "bezeichnung": "An der Hardt" }, "geometry": { "type": "Point", "coordinates": [ 8.616499134475127, 51.123939815097529 ] } },
{ "type": "Feature", "properties": { "strassenschluessel": "05958000002006893", "bezeichnung": "An der Heide" }, "geometry": { "type": "Point", "coordinates": [ 8.605854319124539, 51.114998255206572 ] } },
{ "type": "Feature", "properties": { "strassenschluessel": "05958000002006894", "bezeichnung": "Aue" }, "geometry": { "type": "Point", "coordinates": [ 8.628481473423436, 51.109473701293723 ] } },
{ "type": "Feature", "properties": { "strassenschluessel": "05958000002006895", "bezeichnung": "Auf der Halle" }, "geometry": { "type": "Point", "coordinates": [ 8.613307105313206, 51.112294358348471 ] } },
{ "type": "Feature", "properties": { "strassenschluessel": "05958000002006896", "bezeichnung": "Bahnhofstraße" }, "geometry": { "type": "Point", "coordinates": [ 8.620399533864871, 51.115554560536978 ] } },
{ "type": "Feature", "properties": { "strassenschluessel": "05958000002006897", "bezeichnung": "Braunshauser Straße" }, "geometry": { "type": "Point", "coordinates": [ 8.637370693548014, 51.105855055027298 ] } },
{ "type": "Feature", "properties": { "strassenschluessel": "05958000002006898", "bezeichnung": "Brunshelle" }, "geometry": { "type": "Point", "coordinates": [ 8.611773455966754, 51.121805804310448 ] } },
{ "type": "Feature", "properties": { "strassenschluessel": "05958000002006899", "bezeichnung": "Dreisbach" }, "geometry": { "type": "Point", "coordinates": [ 8.647533612319176, 51.117661558179499 ] } },
{ "type": "Feature", "properties": { "strassenschluessel": "05958000002006900", "bezeichnung": "Eichenweg" }, "geometry": { "type": "Point", "coordinates": [ 8.62687985899866, 51.111954632167183 ] } },
{ "type": "Feature", "properties": { "strassenschluessel": "05958000002006901", "bezeichnung": "Elbersbach" }, "geometry": { "type": "Point", "coordinates": [ 8.615746040988491, 51.114404687678729 ] } },
{ "type": "Feature", "properties": { "strassenschluessel": "05958000002006902", "bezeichnung": "Falkenhorst" }, "geometry": { "type": "Point", "coordinates": [ 8.612182361785997, 51.12737154691132 ] } },
{ "type": "Feature", "properties": { "strassenschluessel": "05958000002006903", "bezeichnung": "Freilichtbühnenweg" }, "geometry": { "type": "Point", "coordinates": [ 8.613238734518145, 51.119006123047981 ] } },
{ "type": "Feature", "properties": { "strassenschluessel": "05958000002006904", "bezeichnung": "Gundringhausen" }, "geometry": { "type": "Point", "coordinates": [ 8.619524885895286, 51.117895765939615 ] } },
{ "type": "Feature", "properties": { "strassenschluessel": "05958000002006905", "bezeichnung": "Heideweg" }, "geometry": { "type": "Point", "coordinates": [ 8.613253785058749, 51.113143942905104 ] } },
{ "type": "Feature", "properties": { "strassenschluessel": "05958000002006906", "bezeichnung": "Heiligenhaus" }, "geometry": { "type": "Point", "coordinates": [ 8.615553281239988, 51.112938702953073 ] } },
{ "type": "Feature", "properties": { "strassenschluessel": "05958000002006907", "bezeichnung": "Hoger" }, "geometry": { "type": "Point", "coordinates": [ 8.638412268865936, 51.108981547045687 ] } },
{ "type": "Feature", "properties": { "strassenschluessel": "05958000002006908", "bezeichnung": "Im Tempel" }, "geometry": { "type": "Point", "coordinates": [ 8.609132500379896, 51.118993765553206 ] } },
{ "type": "Feature", "properties": { "strassenschluessel": "05958000002006909", "bezeichnung": "Klosterweg" }, "geometry": { "type": "Point", "coordinates": [ 8.628391139114477, 51.110536699050208 ] } },
{ "type": "Feature", "properties": { "strassenschluessel": "05958000002006910", "bezeichnung": "Langenbach" }, "geometry": { "type": "Point", "coordinates": [ 8.587933697519432, 51.128791883284869 ] } },
{ "type": "Feature", "properties": { "strassenschluessel": "05958000002006911", "bezeichnung": "Merklinghauser Straße" }, "geometry": { "type": "Point", "coordinates": [ 8.625390341947165, 51.108951849841354 ] } },
{ "type": "Feature", "properties": { "strassenschluessel": "05958000002006912", "bezeichnung": "Mühlenstraße" }, "geometry": { "type": "Point", "coordinates": [ 8.623970399372146, 51.110535830681904 ] } },
{ "type": "Feature", "properties": { "strassenschluessel": "05958000002006913", "bezeichnung": "Mühlenweg" }, "geometry": { "type": "Point", "coordinates": [ 8.62542716957806, 51.11098919836693 ] } },
{ "type": "Feature", "properties": { "strassenschluessel": "05958000002006914", "bezeichnung": "Nuhnestraße" }, "geometry": { "type": "Point", "coordinates": [ 8.611984395149777, 51.124467161865219 ] } },
{ "type": "Feature", "properties": { "strassenschluessel": "05958000002006915", "bezeichnung": "Parlamentsweg" }, "geometry": { "type": "Point", "coordinates": [ 8.621081487182002, 51.117777786539257 ] } },
{ "type": "Feature", "properties": { "strassenschluessel": "05958000002006916", "bezeichnung": "Rückenweg" }, "geometry": { "type": "Point", "coordinates": [ 8.617091694541539, 51.11502157162721 ] } },
{ "type": "Feature", "properties": { "strassenschluessel": "05958000002006917", "bezeichnung": "Schlade" }, "geometry": { "type": "Point", "coordinates": [ 8.620000258929029, 51.118719644845847 ] } },
{ "type": "Feature", "properties": { "strassenschluessel": "05958000002006918", "bezeichnung": "Schlenke" }, "geometry": { "type": "Point", "coordinates": [ 8.643253166052526, 51.112037418274127 ] } },
{ "type": "Feature", "properties": { "strassenschluessel": "05958000002006919", "bezeichnung": "Schulpfad" }, "geometry": { "type": "Point", "coordinates": [ 8.617349159030647, 51.113422600565819 ] } },
{ "type": "Feature", "properties": { "strassenschluessel": "05958000002006920", "bezeichnung": "Siegelsberg" }, "geometry": { "type": "Point", "coordinates": [ 8.623059152802755, 51.116895031307585 ] } },
{ "type": "Feature", "properties": { "strassenschluessel": "05958000002006921", "bezeichnung": "Somplarer Straße" }, "geometry": { "type": "Point", "coordinates": [ 8.636985754251288, 51.105345215930754 ] } },
{ "type": "Feature", "properties": { "strassenschluessel": "05958000002006922", "bezeichnung": "Talweg" }, "geometry": { "type": "Point", "coordinates": [ 8.624227386074189, 51.1138250396709 ] } },
{ "type": "Feature", "properties": { "strassenschluessel": "05958000002006923", "bezeichnung": "Taubenböhl" }, "geometry": { "type": "Point", "coordinates": [ 8.62177512825375, 51.119811216808692 ] } },
{ "type": "Feature", "properties": { "strassenschluessel": "05958000002006924", "bezeichnung": "Vor der Stimmbach" }, "geometry": { "type": "Point", "coordinates": [ 8.616572626015426, 51.117473697829297 ] } },
{ "type": "Feature", "properties": { "strassenschluessel": "05958000002006925", "bezeichnung": "Siegelsbach" }, "geometry": { "type": "Point", "coordinates": [ 8.621601336431644, 51.118869190789525 ] } },
{ "type": "Feature", "properties": { "strassenschluessel": "05958000002006926", "bezeichnung": "Alte-Feld" }, "geometry": { "type": "Point", "coordinates": [ 8.633982615852608, 51.126080545078601 ] } },
{ "type": "Feature", "properties": { "strassenschluessel": "05958000002006927", "bezeichnung": "Pastorenweg" }, "geometry": { "type": "Point", "coordinates": [ 8.619120056262044, 51.113804298823212 ] } },
{ "type": "Feature", "properties": { "strassenschluessel": "05958000002006928", "bezeichnung": "Landwehr" }, "geometry": { "type": "Point", "coordinates": [ 8.645071121989167, 51.108221203603051 ] } },
{ "type": "Feature", "properties": { "strassenschluessel": "05958000002006929", "bezeichnung": "Industriestraße" }, "geometry": { "type": "Point", "coordinates": [ 8.641880453215167, 51.104154233716976 ] } },
{ "type": "Feature", "properties": { "strassenschluessel": "05958000002006930", "bezeichnung": "Ernst-Kusch-Weg" }, "geometry": { "type": "Point", "coordinates": [ 8.642449843000152, 51.106349710845194 ] } },
{ "type": "Feature", "properties": { "strassenschluessel": "05958000002006931", "bezeichnung": "Lehmbachstraße" }, "geometry": { "type": "Point", "coordinates": [ 8.648429849829986, 51.108590316394597 ] } },
{ "type": "Feature", "properties": { "strassenschluessel": "05958000002006932", "bezeichnung": "Schickeweg" }, "geometry": { "type": "Point", "coordinates": [ 8.630857640818505, 51.110002127538856 ] } },
{ "type": "Feature", "properties": { "strassenschluessel": "05958000002006933", "bezeichnung": "Sonnenhang" }, "geometry": { "type": "Point", "coordinates": [ 8.630865858963901, 51.112011749860535 ] } },
{ "type": "Feature", "properties": { "strassenschluessel": "05958000002006934", "bezeichnung": "Specklandwehr" }, "geometry": { "type": "Point", "coordinates": [ 8.65213373748435, 51.109236992112265 ] } },
{ "type": "Feature", "properties": { "strassenschluessel": "05958000002007000", "bezeichnung": "Braunshausen" }, "geometry": { "type": "Point", "coordinates": [ 8.669907028288776, 51.133392195823085 ] } },
{ "type": "Feature", "properties": { "strassenschluessel": "05958000002007001", "bezeichnung": "An der Mühle" }, "geometry": { "type": "Point", "coordinates": [ 8.688939090853657, 51.109179826122606 ] } },
{ "type": "Feature", "properties": { "strassenschluessel": "05958000002007002", "bezeichnung": "Bachstraße" }, "geometry": { "type": "Point", "coordinates": [ 8.679718537939532, 51.115032222227192 ] } },
{ "type": "Feature", "properties": { "strassenschluessel": "05958000002007003", "bezeichnung": "Brunnenweg" }, "geometry": { "type": "Point", "coordinates": [ 8.680824080617729, 51.113810252667371 ] } },
{ "type": "Feature", "properties": { "strassenschluessel": "05958000002007004", "bezeichnung": "Ederstraße" }, "geometry": { "type": "Point", "coordinates": [ 8.680446980413093, 51.113354758220545 ] } },
{ "type": "Feature", "properties": { "strassenschluessel": "05958000002007005", "bezeichnung": "Hirtenweg" }, "geometry": { "type": "Point", "coordinates": [ 8.678895181240017, 51.114167390840237 ] } },
{ "type": "Feature", "properties": { "strassenschluessel": "05958000002007006", "bezeichnung": "Höfestraße" }, "geometry": { "type": "Point", "coordinates": [ 8.670167115820275, 51.120072115159644 ] } },
{ "type": "Feature", "properties": { "strassenschluessel": "05958000002007007", "bezeichnung": "Hohlweg" }, "geometry": { "type": "Point", "coordinates": [ 8.682944004615969, 51.113366581753716 ] } },
{ "type": "Feature", "properties": { "strassenschluessel": "05958000002007008", "bezeichnung": "Kampstraße" }, "geometry": { "type": "Point", "coordinates": [ 8.677006587534382, 51.114304556655874 ] } },
{ "type": "Feature", "properties": { "strassenschluessel": "05958000002007009", "bezeichnung": "Kapellenweg" }, "geometry": { "type": "Point", "coordinates": [ 8.682104355518327, 51.114828140364281 ] } },
{ "type": "Feature", "properties": { "strassenschluessel": "05958000002007010", "bezeichnung": "Nägelsbach" }, "geometry": { "type": "Point", "coordinates": [ 8.67912583810258, 51.111056030424436 ] } },
{ "type": "Feature", "properties": { "strassenschluessel": "05958000002007011", "bezeichnung": "Pfarrweg" }, "geometry": { "type": "Point", "coordinates": [ 8.678960984057795, 51.1132189860583 ] } },
{ "type": "Feature", "properties": { "strassenschluessel": "05958000002007012", "bezeichnung": "Kornweg" }, "geometry": { "type": "Point", "coordinates": [ 8.675667476093144, 51.114262785674491 ] } },
{ "type": "Feature", "properties": { "strassenschluessel": "05958000002007013", "bezeichnung": "Zum Biedenfeld" }, "geometry": { "type": "Point", "coordinates": [ 8.681827448755179, 51.112307567891492 ] } },
{ "type": "Feature", "properties": { "strassenschluessel": "05958000002007015", "bezeichnung": "Hesborn" }, "geometry": { "type": "Point", "coordinates": [ 8.637187904279477, 51.14562284076122 ] } },
{ "type": "Feature", "properties": { "strassenschluessel": "05958000002007017", "bezeichnung": "Am Bückling" }, "geometry": { "type": "Point", "coordinates": [ 8.625814030061903, 51.158509050439932 ] } },
{ "type": "Feature", "properties": { "strassenschluessel": "05958000002007018", "bezeichnung": "Am Keller" }, "geometry": { "type": "Point", "coordinates": [ 8.63309860650458, 51.149149836490338 ] } },
{ "type": "Feature", "properties": { "strassenschluessel": "05958000002007019", "bezeichnung": "Am Rain" }, "geometry": { "type": "Point", "coordinates": [ 8.62848620703897, 51.14687589673904 ] } },
{ "type": "Feature", "properties": { "strassenschluessel": "05958000002007020", "bezeichnung": "Am Steinbruch" }, "geometry": { "type": "Point", "coordinates": [ 8.628455822547473, 51.151641292605447 ] } },
{ "type": "Feature", "properties": { "strassenschluessel": "05958000002007021", "bezeichnung": "An der Stede" }, "geometry": { "type": "Point", "coordinates": [ 8.627591630814809, 51.152520311941046 ] } },
{ "type": "Feature", "properties": { "strassenschluessel": "05958000002007022", "bezeichnung": "Auf der Breide" }, "geometry": { "type": "Point", "coordinates": [ 8.630326137187929, 51.143934467990697 ] } },
{ "type": "Feature", "properties": { "strassenschluessel": "05958000002007023", "bezeichnung": "Auf der Kuhle" }, "geometry": { "type": "Point", "coordinates": [ 8.633842760413437, 51.142558104782267 ] } },
{ "type": "Feature", "properties": { "strassenschluessel": "05958000002007024", "bezeichnung": "Auf der Tränke" }, "geometry": { "type": "Point", "coordinates": [ 8.634021067715231, 51.147255915451495 ] } },
{ "type": "Feature", "properties": { "strassenschluessel": "05958000002007025", "bezeichnung": "Bollerbergstraße" }, "geometry": { "type": "Point", "coordinates": [ 8.627620532874282, 51.150112435136137 ] } },
{ "type": "Feature", "properties": { "strassenschluessel": "05958000002007026", "bezeichnung": "Buchhagenweg" }, "geometry": null },
{ "type": "Feature", "properties": { "strassenschluessel": "05958000002007027", "bezeichnung": "Feldbergweg" }, "geometry": { "type": "Point", "coordinates": [ 8.63801152329879, 51.147992060964185 ] } },
{ "type": "Feature", "properties": { "strassenschluessel": "05958000002007028", "bezeichnung": "Friedhofsweg" }, "geometry": { "type": "Point", "coordinates": [ 8.631688155522987, 51.146963284795945 ] } },
{ "type": "Feature", "properties": { "strassenschluessel": "05958000002007029", "bezeichnung": "Froschewiese" }, "geometry": { "type": "Point", "coordinates": [ 8.629256729925748, 51.147630440534911 ] } },
{ "type": "Feature", "properties": { "strassenschluessel": "05958000002007030", "bezeichnung": "Hauptstraße" }, "geometry": { "type": "Point", "coordinates": [ 8.629989036005151, 51.144359835748695 ] } },
{ "type": "Feature", "properties": { "strassenschluessel": "05958000002007031", "bezeichnung": "Im Tal" }, "geometry": { "type": "Point", "coordinates": [ 8.629901463022927, 51.152795011074225 ] } },
{ "type": "Feature", "properties": { "strassenschluessel": "05958000002007032", "bezeichnung": "Kaltenborn" }, "geometry": { "type": "Point", "coordinates": [ 8.621171295168843, 51.14928914455426 ] } },
{ "type": "Feature", "properties": { "strassenschluessel": "05958000002007033", "bezeichnung": "Kirchweg" }, "geometry": { "type": "Point", "coordinates": [ 8.626168683759685, 51.150068426855015 ] } },
{ "type": "Feature", "properties": { "strassenschluessel": "05958000002007034", "bezeichnung": "Kreuzbergstraße" }, "geometry": { "type": "Point", "coordinates": [ 8.620218058330629, 51.150872665635212 ] } },
{ "type": "Feature", "properties": { "strassenschluessel": "05958000002007035", "bezeichnung": "Oberstraße" }, "geometry": { "type": "Point", "coordinates": [ 8.629663094129153, 51.14926910166421 ] } },
{ "type": "Feature", "properties": { "strassenschluessel": "05958000002007036", "bezeichnung": "Ölfestraße" }, "geometry": { "type": "Point", "coordinates": [ 8.620090654610905, 51.150010357040166 ] } },
{ "type": "Feature", "properties": { "strassenschluessel": "05958000002007037", "bezeichnung": "Roteland" }, "geometry": { "type": "Point", "coordinates": [ 8.64369561044556, 51.154942911624424 ] } },
{ "type": "Feature", "properties": { "strassenschluessel": "05958000002007038", "bezeichnung": "Schmiedeborn" }, "geometry": { "type": "Point", "coordinates": [ 8.625868507506208, 51.148478993560374 ] } },
{ "type": "Feature", "properties": { "strassenschluessel": "05958000002007039", "bezeichnung": "Unter der Helle" }, "geometry": { "type": "Point", "coordinates": [ 8.637263734818797, 51.147805473977279 ] } },
{ "type": "Feature", "properties": { "strassenschluessel": "05958000002007040", "bezeichnung": "Unterstraße" }, "geometry": { "type": "Point", "coordinates": [ 8.633755056934778, 51.148236134942202 ] } },
{ "type": "Feature", "properties": { "strassenschluessel": "05958000002007041", "bezeichnung": "Wolfeslau" }, "geometry": { "type": "Point", "coordinates": [ 8.62126799904936, 51.151392516068356 ] } },
{ "type": "Feature", "properties": { "strassenschluessel": "05958000002007042", "bezeichnung": "Ahelle" }, "geometry": { "type": "Point", "coordinates": [ 8.628220493500143, 51.15373558091899 ] } },
{ "type": "Feature", "properties": { "strassenschluessel": "05958000002007043", "bezeichnung": "Peter-Wilhelm-Borbet-Platz" }, "geometry": { "type": "Point", "coordinates": [ 8.626051402704405, 51.149222702957424 ] } },
{ "type": "Feature", "properties": { "strassenschluessel": "05958000002007044", "bezeichnung": "In der Dapemark" }, "geometry": { "type": "Point", "coordinates": [ 8.626627349432855, 51.151091993482787 ] } },
{ "type": "Feature", "properties": { "strassenschluessel": "05958000002007065", "bezeichnung": "Liesen" }, "geometry": { "type": "Point", "coordinates": [ 8.623764085429439, 51.128926432322174 ] } },
{ "type": "Feature", "properties": { "strassenschluessel": "05958000002007066", "bezeichnung": "Am Berg" }, "geometry": { "type": "Point", "coordinates": [ 8.61584455438669, 51.138042377369118 ] } },
{ "type": "Feature", "properties": { "strassenschluessel": "05958000002007067", "bezeichnung": "Am Mühlenbach" }, "geometry": { "type": "Point", "coordinates": [ 8.614793938944398, 51.138782605535141 ] } },
{ "type": "Feature", "properties": { "strassenschluessel": "05958000002007068", "bezeichnung": "Birkenstraße" }, "geometry": { "type": "Point", "coordinates": [ 8.615460310178349, 51.136087746588245 ] } },
{ "type": "Feature", "properties": { "strassenschluessel": "05958000002007069", "bezeichnung": "Breidenweg" }, "geometry": { "type": "Point", "coordinates": [ 8.603910227841055, 51.134717086083192 ] } },
{ "type": "Feature", "properties": { "strassenschluessel": "05958000002007070", "bezeichnung": "Dorfstraße" }, "geometry": { "type": "Point", "coordinates": [ 8.614558545751521, 51.1375192260383 ] } },
{ "type": "Feature", "properties": { "strassenschluessel": "05958000002007071", "bezeichnung": "Im Dorf" }, "geometry": { "type": "Point", "coordinates": [ 8.617823752356379, 51.135470688008517 ] } },
{ "type": "Feature", "properties": { "strassenschluessel": "05958000002007072", "bezeichnung": "Im Hagen" }, "geometry": { "type": "Point", "coordinates": [ 8.625077822315998, 51.131331686831331 ] } },
{ "type": "Feature", "properties": { "strassenschluessel": "05958000002007073", "bezeichnung": "Kleeacker" }, "geometry": { "type": "Point", "coordinates": [ 8.616167369840369, 51.130735573347074 ] } },
{ "type": "Feature", "properties": { "strassenschluessel": "05958000002007074", "bezeichnung": "Lieserfeld" }, "geometry": { "type": "Point", "coordinates": [ 8.613557780618669, 51.131632652393165 ] } },
{ "type": "Feature", "properties": { "strassenschluessel": "05958000002007075", "bezeichnung": "Lieser Garten" }, "geometry": { "type": "Point", "coordinates": [ 8.615899639638565, 51.131472228131265 ] } },
{ "type": "Feature", "properties": { "strassenschluessel": "05958000002007076", "bezeichnung": "Liesetal" }, "geometry": { "type": "Point", "coordinates": [ 8.600479742244543, 51.160017859824904 ] } },
{ "type": "Feature", "properties": { "strassenschluessel": "05958000002007077", "bezeichnung": "Marienweg" }, "geometry": { "type": "Point", "coordinates": [ 8.617034605818601, 51.133311627922687 ] } },
{ "type": "Feature", "properties": { "strassenschluessel": "05958000002007078", "bezeichnung": "Neuer Weg" }, "geometry": { "type": "Point", "coordinates": [ 8.618468622635088, 51.134343068549825 ] } },
{ "type": "Feature", "properties": { "strassenschluessel": "05958000002007079", "bezeichnung": "Neustadt" }, "geometry": { "type": "Point", "coordinates": [ 8.616411865432257, 51.134910564562638 ] } },
{ "type": "Feature", "properties": { "strassenschluessel": "05958000002007080", "bezeichnung": "Schützenstraße" }, "geometry": { "type": "Point", "coordinates": [ 8.614778856855253, 51.134888903267402 ] } },
{ "type": "Feature", "properties": { "strassenschluessel": "05958000002007081", "bezeichnung": "Steinschab" }, "geometry": { "type": "Point", "coordinates": [ 8.611198234017236, 51.12858047456406 ] } },
{ "type": "Feature", "properties": { "strassenschluessel": "05958000002007082", "bezeichnung": "Stoßweg" }, "geometry": { "type": "Point", "coordinates": [ 8.615117525613327, 51.132134370637509 ] } },
{ "type": "Feature", "properties": { "strassenschluessel": "05958000002007083", "bezeichnung": "Trift" }, "geometry": { "type": "Point", "coordinates": [ 8.617837626096081, 51.1359785663333 ] } },
{ "type": "Feature", "properties": { "strassenschluessel": "05958000002007099", "bezeichnung": "Hallenberg" }, "geometry": { "type": "Point", "coordinates": [ 8.540759854047366, 51.119276431238738 ] } },
{ "type": "Feature", "properties": { "strassenschluessel": "05958000002007100", "bezeichnung": "Hallenberg" }, "geometry": null }
]
}
