{
"type": "FeatureCollection",
"features": [
{ "type": "Feature", "properties": { "strassenschluessel": "05562000001600020", "bezeichnung": "Aalweg" }, "geometry": { "type": "Point", "coordinates": [ 7.261596678143127, 51.743639438926955 ] } },
{ "type": "Feature", "properties": { "strassenschluessel": "05562000001600040", "bezeichnung": "Achter De Hüser" }, "geometry": { "type": "Point", "coordinates": [ 7.232941102253841, 51.718555825835104 ] } },
{ "type": "Feature", "properties": { "strassenschluessel": "05562000001600050", "bezeichnung": "Ackerweg" }, "geometry": { "type": "Point", "coordinates": [ 7.225040909382951, 51.774015360994348 ] } },
{ "type": "Feature", "properties": { "strassenschluessel": "05562000001600060", "bezeichnung": "Adalbert-Stifter-Straße" }, "geometry": { "type": "Point", "coordinates": [ 7.180390248260728, 51.752780341235542 ] } },
{ "type": "Feature", "properties": { "strassenschluessel": "05562000001600080", "bezeichnung": "Adolf-Kallhoff-Straße" }, "geometry": { "type": "Point", "coordinates": [ 7.178014256484352, 51.74458766725261 ] } },
{ "type": "Feature", "properties": { "strassenschluessel": "05562000001600100", "bezeichnung": "Ahornstraße" }, "geometry": { "type": "Point", "coordinates": [ 7.167068343848225, 51.744362409572304 ] } },
{ "type": "Feature", "properties": { "strassenschluessel": "05562000001600120", "bezeichnung": "Akazienweg" }, "geometry": { "type": "Point", "coordinates": [ 7.173092105170809, 51.746515953761424 ] } },
{ "type": "Feature", "properties": { "strassenschluessel": "05562000001600130", "bezeichnung": "Albert-Ferdinand-Leich-Straße" }, "geometry": null },
{ "type": "Feature", "properties": { "strassenschluessel": "05562000001600140", "bezeichnung": "Albert-Schweitzer-Straße" }, "geometry": { "type": "Point", "coordinates": [ 7.226776445564626, 51.717595151919092 ] } },
{ "type": "Feature", "properties": { "strassenschluessel": "05562000001600180", "bezeichnung": "Alisowall" }, "geometry": { "type": "Point", "coordinates": [ 7.183738720931042, 51.744320832876966 ] } },
{ "type": "Feature", "properties": { "strassenschluessel": "05562000001600200", "bezeichnung": "Alte Ringstraße" }, "geometry": { "type": "Point", "coordinates": [ 7.18450001351584, 51.751861733563025 ] } },
{ "type": "Feature", "properties": { "strassenschluessel": "05562000001600220", "bezeichnung": "Alter Kapellenweg" }, "geometry": { "type": "Point", "coordinates": [ 7.218052629312386, 51.773287939942328 ] } },
{ "type": "Feature", "properties": { "strassenschluessel": "05562000001600240", "bezeichnung": "Alter Postweg" }, "geometry": { "type": "Point", "coordinates": [ 7.296217099381524, 51.733706367217735 ] } },
{ "type": "Feature", "properties": { "strassenschluessel": "05562000001600250", "bezeichnung": "Alter Recklinghäuser Weg" }, "geometry": null },
{ "type": "Feature", "properties": { "strassenschluessel": "05562000001600260", "bezeichnung": "Alter Weseler Weg" }, "geometry": { "type": "Point", "coordinates": [ 7.11439785957874, 51.743546145429512 ] } },
{ "type": "Feature", "properties": { "strassenschluessel": "05562000001600280", "bezeichnung": "Am Feldlager" }, "geometry": { "type": "Point", "coordinates": [ 7.169194472197042, 51.7445933544277 ] } },
{ "type": "Feature", "properties": { "strassenschluessel": "05562000001600300", "bezeichnung": "Am Fliederbusch" }, "geometry": { "type": "Point", "coordinates": [ 7.17569521369928, 51.7498885162832 ] } },
{ "type": "Feature", "properties": { "strassenschluessel": "05562000001600320", "bezeichnung": "Am Friedhof" }, "geometry": { "type": "Point", "coordinates": [ 7.162027209288912, 51.788017924642759 ] } },
{ "type": "Feature", "properties": { "strassenschluessel": "05562000001600340", "bezeichnung": "Am Galgenberg" }, "geometry": { "type": "Point", "coordinates": [ 7.118705968219908, 51.723201029532405 ] } },
{ "type": "Feature", "properties": { "strassenschluessel": "05562000001600360", "bezeichnung": "Am Hämmken" }, "geometry": { "type": "Point", "coordinates": [ 7.172987283332366, 51.72024646550738 ] } },
{ "type": "Feature", "properties": { "strassenschluessel": "05562000001600380", "bezeichnung": "Am Heidwinkel" }, "geometry": { "type": "Point", "coordinates": [ 7.165913815222717, 51.73655275135657 ] } },
{ "type": "Feature", "properties": { "strassenschluessel": "05562000001600390", "bezeichnung": "Am Holzplatz" }, "geometry": { "type": "Point", "coordinates": [ 7.185860360838997, 51.735461909534457 ] } },
{ "type": "Feature", "properties": { "strassenschluessel": "05562000001600395", "bezeichnung": "Am Kanal" }, "geometry": { "type": "Point", "coordinates": [ 7.181359758989035, 51.727036651933865 ] } },
{ "type": "Feature", "properties": { "strassenschluessel": "05562000001600400", "bezeichnung": "Am Knapp" }, "geometry": { "type": "Point", "coordinates": [ 7.29107908272652, 51.735863050807652 ] } },
{ "type": "Feature", "properties": { "strassenschluessel": "05562000001600420", "bezeichnung": "Am Loh" }, "geometry": { "type": "Point", "coordinates": [ 7.286873115528301, 51.738383867163073 ] } },
{ "type": "Feature", "properties": { "strassenschluessel": "05562000001600440", "bezeichnung": "Am Mühlenbach" }, "geometry": { "type": "Point", "coordinates": [ 7.223378405911603, 51.764559876932083 ] } },
{ "type": "Feature", "properties": { "strassenschluessel": "05562000001600460", "bezeichnung": "Am Mühlenberg" }, "geometry": { "type": "Point", "coordinates": [ 7.158751523815572, 51.782174839929652 ] } },
{ "type": "Feature", "properties": { "strassenschluessel": "05562000001600480", "bezeichnung": "Am Paschenberg" }, "geometry": { "type": "Point", "coordinates": [ 7.23406986315907, 51.716823043552864 ] } },
{ "type": "Feature", "properties": { "strassenschluessel": "05562000001600500", "bezeichnung": "Am Riethgraben" }, "geometry": { "type": "Point", "coordinates": [ 7.216316919222175, 51.770358231328544 ] } },
{ "type": "Feature", "properties": { "strassenschluessel": "05562000001600520", "bezeichnung": "Am Römerlager" }, "geometry": { "type": "Point", "coordinates": [ 7.168757242086224, 51.745668229924554 ] } },
{ "type": "Feature", "properties": { "strassenschluessel": "05562000001600540", "bezeichnung": "Am Schiötten" }, "geometry": { "type": "Point", "coordinates": [ 7.210248193830934, 51.778757454082999 ] } },
{ "type": "Feature", "properties": { "strassenschluessel": "05562000001600560", "bezeichnung": "Am Schmöningsberg" }, "geometry": { "type": "Point", "coordinates": [ 7.112072085811985, 51.719910209730259 ] } },
{ "type": "Feature", "properties": { "strassenschluessel": "05562000001600580", "bezeichnung": "Am Schulten Hof" }, "geometry": { "type": "Point", "coordinates": [ 7.292702416654333, 51.736972361570032 ] } },
{ "type": "Feature", "properties": { "strassenschluessel": "05562000001600600", "bezeichnung": "Amselweg" }, "geometry": { "type": "Point", "coordinates": [ 7.159930430369775, 51.741159272403713 ] } },
{ "type": "Feature", "properties": { "strassenschluessel": "05562000001600620", "bezeichnung": "Am Sohlbaum" }, "geometry": { "type": "Point", "coordinates": [ 7.083431141552599, 51.720545997931076 ] } },
{ "type": "Feature", "properties": { "strassenschluessel": "05562000001600640", "bezeichnung": "Am Thie" }, "geometry": { "type": "Point", "coordinates": [ 7.221989175628702, 51.770487020900141 ] } },
{ "type": "Feature", "properties": { "strassenschluessel": "05562000001600650", "bezeichnung": "Am Thiershof" }, "geometry": { "type": "Point", "coordinates": [ 7.100240946693179, 51.715627155635119 ] } },
{ "type": "Feature", "properties": { "strassenschluessel": "05562000001600660", "bezeichnung": "Am Treckeberg" }, "geometry": { "type": "Point", "coordinates": [ 7.172346930346871, 51.768361160129992 ] } },
{ "type": "Feature", "properties": { "strassenschluessel": "05562000001600680", "bezeichnung": "Am Tulpenfeld" }, "geometry": { "type": "Point", "coordinates": [ 7.174863123471383, 51.749646486264119 ] } },
{ "type": "Feature", "properties": { "strassenschluessel": "05562000001600700", "bezeichnung": "Am Uferkastell" }, "geometry": { "type": "Point", "coordinates": [ 7.178520440783605, 51.739827747896868 ] } },
{ "type": "Feature", "properties": { "strassenschluessel": "05562000001600720", "bezeichnung": "Am Wacholderbusch" }, "geometry": { "type": "Point", "coordinates": [ 7.171769737325867, 51.72057818395578 ] } },
{ "type": "Feature", "properties": { "strassenschluessel": "05562000001600740", "bezeichnung": "Am Waldrand" }, "geometry": { "type": "Point", "coordinates": [ 7.298958333865786, 51.73460671104904 ] } },
{ "type": "Feature", "properties": { "strassenschluessel": "05562000001600760", "bezeichnung": "Am Wehr" }, "geometry": { "type": "Point", "coordinates": [ 7.224511420774827, 51.768850269202865 ] } },
{ "type": "Feature", "properties": { "strassenschluessel": "05562000001600780", "bezeichnung": "Am Wiegel" }, "geometry": { "type": "Point", "coordinates": [ 7.17012508911617, 51.737415342947308 ] } },
{ "type": "Feature", "properties": { "strassenschluessel": "05562000001600783", "bezeichnung": "An den Hestern" }, "geometry": { "type": "Point", "coordinates": [ 7.185484566239621, 51.725126442126573 ] } },
{ "type": "Feature", "properties": { "strassenschluessel": "05562000001600785", "bezeichnung": "An den Koppeln" }, "geometry": { "type": "Point", "coordinates": [ 7.174991021886486, 51.747740661868583 ] } },
{ "type": "Feature", "properties": { "strassenschluessel": "05562000001600790", "bezeichnung": "An den Stellkämpen" }, "geometry": { "type": "Point", "coordinates": [ 7.247347520854121, 51.715225690933181 ] } },
{ "type": "Feature", "properties": { "strassenschluessel": "05562000001600800", "bezeichnung": "An der Bleiche" }, "geometry": { "type": "Point", "coordinates": [ 7.224948180657749, 51.7838638545932 ] } },
{ "type": "Feature", "properties": { "strassenschluessel": "05562000001600820", "bezeichnung": "An der Brennerei" }, "geometry": { "type": "Point", "coordinates": [ 7.28734484066123, 51.736583571472181 ] } },
{ "type": "Feature", "properties": { "strassenschluessel": "05562000001600825", "bezeichnung": "An der Brinkwiese" }, "geometry": { "type": "Point", "coordinates": [ 7.199804748439138, 51.759470687088275 ] } },
{ "type": "Feature", "properties": { "strassenschluessel": "05562000001600830", "bezeichnung": "An der Kahrstege" }, "geometry": { "type": "Point", "coordinates": [ 7.170944434365309, 51.748101814762755 ] } },
{ "type": "Feature", "properties": { "strassenschluessel": "05562000001600840", "bezeichnung": "An der Kirche" }, "geometry": { "type": "Point", "coordinates": [ 7.223500240712191, 51.773445000015862 ] } },
{ "type": "Feature", "properties": { "strassenschluessel": "05562000001600860", "bezeichnung": "An der Landwehr" }, "geometry": { "type": "Point", "coordinates": [ 7.168225848757621, 51.744110085441392 ] } },
{ "type": "Feature", "properties": { "strassenschluessel": "05562000001600865", "bezeichnung": "An der Marienkirche" }, "geometry": { "type": "Point", "coordinates": [ 7.185920141104964, 51.746629824817298 ] } },
{ "type": "Feature", "properties": { "strassenschluessel": "05562000001600870", "bezeichnung": "An der Mühlenstege" }, "geometry": { "type": "Point", "coordinates": [ 7.195673021155141, 51.747701136385778 ] } },
{ "type": "Feature", "properties": { "strassenschluessel": "05562000001600880", "bezeichnung": "An der Stever" }, "geometry": { "type": "Point", "coordinates": [ 7.263070381184716, 51.746188980434837 ] } },
{ "type": "Feature", "properties": { "strassenschluessel": "05562000001600900", "bezeichnung": "An der Trappstiege" }, "geometry": { "type": "Point", "coordinates": [ 7.184338396672387, 51.740622865507675 ] } },
{ "type": "Feature", "properties": { "strassenschluessel": "05562000001600910", "bezeichnung": "An der Wohrt" }, "geometry": { "type": "Point", "coordinates": [ 7.2996028300005, 51.735699817261121 ] } },
{ "type": "Feature", "properties": { "strassenschluessel": "05562000001600915", "bezeichnung": "An der Ziegelei" }, "geometry": { "type": "Point", "coordinates": [ 7.198737035497067, 51.755620925193973 ] } },
{ "type": "Feature", "properties": { "strassenschluessel": "05562000001600920", "bezeichnung": "Andreasstraße" }, "geometry": { "type": "Point", "coordinates": [ 7.291258144156233, 51.736500870607578 ] } },
{ "type": "Feature", "properties": { "strassenschluessel": "05562000001600940", "bezeichnung": "Annaberg" }, "geometry": { "type": "Point", "coordinates": [ 7.155187772437505, 51.725659072919157 ] } },
{ "type": "Feature", "properties": { "strassenschluessel": "05562000001600960", "bezeichnung": "Annabergstraße" }, "geometry": { "type": "Point", "coordinates": [ 7.180942955370593, 51.737869061713177 ] } },
{ "type": "Feature", "properties": { "strassenschluessel": "05562000001600980", "bezeichnung": "Antoniusstraße" }, "geometry": { "type": "Point", "coordinates": [ 7.162720541805403, 51.781906245712435 ] } },
{ "type": "Feature", "properties": { "strassenschluessel": "05562000001601000", "bezeichnung": "Antoniusweg" }, "geometry": { "type": "Point", "coordinates": [ 7.087246651669846, 51.721617699532224 ] } },
{ "type": "Feature", "properties": { "strassenschluessel": "05562000001601020", "bezeichnung": "Antruper Straße" }, "geometry": { "type": "Point", "coordinates": [ 7.288507769696941, 51.73401008800225 ] } },
{ "type": "Feature", "properties": { "strassenschluessel": "05562000001601040", "bezeichnung": "Arenbergstraße" }, "geometry": { "type": "Point", "coordinates": [ 7.228523629067639, 51.720197165149337 ] } },
{ "type": "Feature", "properties": { "strassenschluessel": "05562000001601060", "bezeichnung": "Arminiusstraße" }, "geometry": { "type": "Point", "coordinates": [ 7.172309224777143, 51.739630478801082 ] } },
{ "type": "Feature", "properties": { "strassenschluessel": "05562000001601080", "bezeichnung": "Auf dem Berge" }, "geometry": { "type": "Point", "coordinates": [ 7.153903918479075, 51.780448688170971 ] } },
{ "type": "Feature", "properties": { "strassenschluessel": "05562000001601100", "bezeichnung": "Auf dem Hassel" }, "geometry": { "type": "Point", "coordinates": [ 7.164064021739027, 51.716294832210757 ] } },
{ "type": "Feature", "properties": { "strassenschluessel": "05562000001601110", "bezeichnung": "Auf dem Sporkel" }, "geometry": { "type": "Point", "coordinates": [ 7.183620149607056, 51.724997374199411 ] } },
{ "type": "Feature", "properties": { "strassenschluessel": "05562000001601120", "bezeichnung": "Auf der Heide" }, "geometry": { "type": "Point", "coordinates": [ 7.171396406376211, 51.746491258256235 ] } },
{ "type": "Feature", "properties": { "strassenschluessel": "05562000001601140", "bezeichnung": "Auf der Höhe" }, "geometry": { "type": "Point", "coordinates": [ 7.185482463422218, 51.728220801848153 ] } },
{ "type": "Feature", "properties": { "strassenschluessel": "05562000001601160", "bezeichnung": "Auf der Hovestatt" }, "geometry": { "type": "Point", "coordinates": [ 7.178720182713243, 51.741098684616063 ] } },
{ "type": "Feature", "properties": { "strassenschluessel": "05562000001601170", "bezeichnung": "Auf der Lings" }, "geometry": { "type": "Point", "coordinates": [ 7.165566620315082, 51.735445263107081 ] } },
{ "type": "Feature", "properties": { "strassenschluessel": "05562000001601175", "bezeichnung": "August-Stieren-Straße" }, "geometry": { "type": "Point", "coordinates": [ 7.176375678449739, 51.737027025793004 ] } },
{ "type": "Feature", "properties": { "strassenschluessel": "05562000001601180", "bezeichnung": "Augustusstraße" }, "geometry": { "type": "Point", "coordinates": [ 7.172407672435964, 51.743325457523817 ] } },
{ "type": "Feature", "properties": { "strassenschluessel": "05562000001601200", "bezeichnung": "Bachstraße" }, "geometry": { "type": "Point", "coordinates": [ 7.095665079919299, 51.703708258594013 ] } },
{ "type": "Feature", "properties": { "strassenschluessel": "05562000001601220", "bezeichnung": "Bahnhof" }, "geometry": null },
{ "type": "Feature", "properties": { "strassenschluessel": "05562000001601240", "bezeichnung": "Bahnhofstraße" }, "geometry": { "type": "Point", "coordinates": [ 7.186066900959437, 51.740886324481828 ] } },
{ "type": "Feature", "properties": { "strassenschluessel": "05562000001601280", "bezeichnung": "Bahnhofszufuhrweg" }, "geometry": { "type": "Point", "coordinates": [ 7.187093549558217, 51.739502753824837 ] } },
{ "type": "Feature", "properties": { "strassenschluessel": "05562000001601300", "bezeichnung": "Bahnweg" }, "geometry": { "type": "Point", "coordinates": [ 7.221282812329589, 51.768506518965168 ] } },
{ "type": "Feature", "properties": { "strassenschluessel": "05562000001601305", "bezeichnung": "Balkenackersweg" }, "geometry": null },
{ "type": "Feature", "properties": { "strassenschluessel": "05562000001601310", "bezeichnung": "Balsters Feld" }, "geometry": { "type": "Point", "coordinates": [ 7.181946254022354, 51.72440777323817 ] } },
{ "type": "Feature", "properties": { "strassenschluessel": "05562000001601320", "bezeichnung": "Bergbossendorf" }, "geometry": { "type": "Point", "coordinates": [ 7.147658959327835, 51.722125244975878 ] } },
{ "type": "Feature", "properties": { "strassenschluessel": "05562000001601330", "bezeichnung": "Bergenfahrerstraße" }, "geometry": { "type": "Point", "coordinates": [ 7.186672048475645, 51.754082058455445 ] } },
{ "type": "Feature", "properties": { "strassenschluessel": "05562000001601340", "bezeichnung": "Berghaltern" }, "geometry": { "type": "Point", "coordinates": [ 7.16995215832858, 51.728315606538494 ] } },
{ "type": "Feature", "properties": { "strassenschluessel": "05562000001601360", "bezeichnung": "Bergstraße" }, "geometry": { "type": "Point", "coordinates": [ 7.165338049417008, 51.784177483150692 ] } },
{ "type": "Feature", "properties": { "strassenschluessel": "05562000001601380", "bezeichnung": "Birkenallee" }, "geometry": { "type": "Point", "coordinates": [ 7.090999056754684, 51.714566595178304 ] } },
{ "type": "Feature", "properties": { "strassenschluessel": "05562000001601400", "bezeichnung": "Birkenkamp" }, "geometry": { "type": "Point", "coordinates": [ 7.23067922071739, 51.77267438494539 ] } },
{ "type": "Feature", "properties": { "strassenschluessel": "05562000001601420", "bezeichnung": "Birkenrith" }, "geometry": { "type": "Point", "coordinates": [ 7.295067202080557, 51.73376118448472 ] } },
{ "type": "Feature", "properties": { "strassenschluessel": "05562000001601440", "bezeichnung": "Birkenstraße" }, "geometry": { "type": "Point", "coordinates": [ 7.173061488161079, 51.745406065838914 ] } },
{ "type": "Feature", "properties": { "strassenschluessel": "05562000001601460", "bezeichnung": "Blaufärberweg" }, "geometry": { "type": "Point", "coordinates": [ 7.196477308293013, 51.747814522359789 ] } },
{ "type": "Feature", "properties": { "strassenschluessel": "05562000001601480", "bezeichnung": "Blombrink" }, "geometry": { "type": "Point", "coordinates": [ 7.186669768174998, 51.742299649953367 ] } },
{ "type": "Feature", "properties": { "strassenschluessel": "05562000001601500", "bezeichnung": "Blumenstraße" }, "geometry": { "type": "Point", "coordinates": [ 7.222506557820755, 51.763886836353862 ] } },
{ "type": "Feature", "properties": { "strassenschluessel": "05562000001601520", "bezeichnung": "Bodelschwinghstraße" }, "geometry": { "type": "Point", "coordinates": [ 7.23054649881041, 51.717282978207457 ] } },
{ "type": "Feature", "properties": { "strassenschluessel": "05562000001601540", "bezeichnung": "Borkenbergestraße" }, "geometry": { "type": "Point", "coordinates": [ 7.28797536714212, 51.738262180022019 ] } },
{ "type": "Feature", "properties": { "strassenschluessel": "05562000001601560", "bezeichnung": "Bornweg" }, "geometry": { "type": "Point", "coordinates": [ 7.104328543422641, 51.732786567769452 ] } },
{ "type": "Feature", "properties": { "strassenschluessel": "05562000001601570", "bezeichnung": "Bossendorfer Damm" }, "geometry": null },
{ "type": "Feature", "properties": { "strassenschluessel": "05562000001601580", "bezeichnung": "Bossendorfer Weg" }, "geometry": { "type": "Point", "coordinates": [ 7.194526159540171, 51.72871785094798 ] } },
{ "type": "Feature", "properties": { "strassenschluessel": "05562000001601590", "bezeichnung": "Brachweg" }, "geometry": { "type": "Point", "coordinates": [ 7.226448000065516, 51.773976794765368 ] } },
{ "type": "Feature", "properties": { "strassenschluessel": "05562000001601600", "bezeichnung": "Braukstraße" }, "geometry": { "type": "Point", "coordinates": [ 7.116158106026185, 51.716975012524749 ] } },
{ "type": "Feature", "properties": { "strassenschluessel": "05562000001601620", "bezeichnung": "Breitenweg" }, "geometry": { "type": "Point", "coordinates": [ 7.20202302800155, 51.7529055470416 ] } },
{ "type": "Feature", "properties": { "strassenschluessel": "05562000001601640", "bezeichnung": "Breslauer Straße" }, "geometry": { "type": "Point", "coordinates": [ 7.195735088552436, 51.743373226496601 ] } },
{ "type": "Feature", "properties": { "strassenschluessel": "05562000001601660", "bezeichnung": "Brinkweg" }, "geometry": { "type": "Point", "coordinates": [ 7.217668836577023, 51.782852921298094 ] } },
{ "type": "Feature", "properties": { "strassenschluessel": "05562000001601670", "bezeichnung": "Brookweg" }, "geometry": { "type": "Point", "coordinates": [ 7.236335387481636, 51.779820546020503 ] } },
{ "type": "Feature", "properties": { "strassenschluessel": "05562000001601675", "bezeichnung": "Bruktererstraße" }, "geometry": { "type": "Point", "coordinates": [ 7.162377825172626, 51.744929568033427 ] } },
{ "type": "Feature", "properties": { "strassenschluessel": "05562000001601680", "bezeichnung": "Brunnenweg" }, "geometry": { "type": "Point", "coordinates": [ 7.133635606055073, 51.753484474144756 ] } },
{ "type": "Feature", "properties": { "strassenschluessel": "05562000001601700", "bezeichnung": "Buchenhof" }, "geometry": { "type": "Point", "coordinates": [ 7.228933111187636, 51.772446405954682 ] } },
{ "type": "Feature", "properties": { "strassenschluessel": "05562000001601720", "bezeichnung": "Buchenstraße" }, "geometry": { "type": "Point", "coordinates": [ 7.148739302652576, 51.779383560452771 ] } },
{ "type": "Feature", "properties": { "strassenschluessel": "05562000001601740", "bezeichnung": "Büttnerstraße" }, "geometry": { "type": "Point", "coordinates": [ 7.190120166910274, 51.741608233694585 ] } },
{ "type": "Feature", "properties": { "strassenschluessel": "05562000001601760", "bezeichnung": "Burbrockstraße" }, "geometry": { "type": "Point", "coordinates": [ 7.171736818574753, 51.737136867515204 ] } },
{ "type": "Feature", "properties": { "strassenschluessel": "05562000001601780", "bezeichnung": "Burgstraße" }, "geometry": { "type": "Point", "coordinates": [ 7.118641536019548, 51.716252220521895 ] } },
{ "type": "Feature", "properties": { "strassenschluessel": "05562000001601800", "bezeichnung": "Buschkamp" }, "geometry": { "type": "Point", "coordinates": [ 7.084675190123709, 51.71428816179499 ] } },
{ "type": "Feature", "properties": { "strassenschluessel": "05562000001601820", "bezeichnung": "Buttstraße" }, "geometry": { "type": "Point", "coordinates": [ 7.286210325135064, 51.735965884791781 ] } },
{ "type": "Feature", "properties": { "strassenschluessel": "05562000001601830", "bezeichnung": "Clemens-Sebbel-Straße" }, "geometry": { "type": "Point", "coordinates": [ 7.184343545383793, 51.753401798616487 ] } },
{ "type": "Feature", "properties": { "strassenschluessel": "05562000001601840", "bezeichnung": "Conzeallee" }, "geometry": { "type": "Point", "coordinates": [ 7.178824844389385, 51.738191827417573 ] } },
{ "type": "Feature", "properties": { "strassenschluessel": "05562000001601860", "bezeichnung": "Dachsbau" }, "geometry": { "type": "Point", "coordinates": [ 7.221832575176613, 51.763020624386662 ] } },
{ "type": "Feature", "properties": { "strassenschluessel": "05562000001601880", "bezeichnung": "Dachsweg" }, "geometry": { "type": "Point", "coordinates": [ 7.293811345759416, 51.734107159990799 ] } },
{ "type": "Feature", "properties": { "strassenschluessel": "05562000001601900", "bezeichnung": "Dahlienstraße" }, "geometry": { "type": "Point", "coordinates": [ 7.176587350456621, 51.751588313112173 ] } },
{ "type": "Feature", "properties": { "strassenschluessel": "05562000001601940", "bezeichnung": "Dammstraße" }, "geometry": { "type": "Point", "coordinates": [ 7.096637251893236, 51.70902360960855 ] } },
{ "type": "Feature", "properties": { "strassenschluessel": "05562000001601960", "bezeichnung": "Danziger Straße" }, "geometry": { "type": "Point", "coordinates": [ 7.194774593082407, 51.744327457520903 ] } },
{ "type": "Feature", "properties": { "strassenschluessel": "05562000001601970", "bezeichnung": "Deventerstraße" }, "geometry": { "type": "Point", "coordinates": [ 7.188438889422636, 51.753109707658233 ] } },
{ "type": "Feature", "properties": { "strassenschluessel": "05562000001601980", "bezeichnung": "Diegerot" }, "geometry": { "type": "Point", "coordinates": [ 7.160626125856462, 51.742001183233789 ] } },
{ "type": "Feature", "properties": { "strassenschluessel": "05562000001601990", "bezeichnung": "Dietrich-Bonhoeffer-Weg" }, "geometry": { "type": "Point", "coordinates": [ 7.2244486722196, 51.776958393693839 ] } },
{ "type": "Feature", "properties": { "strassenschluessel": "05562000001602000", "bezeichnung": "Dillenweg" }, "geometry": { "type": "Point", "coordinates": [ 7.143312625821, 51.768927455151086 ] } },
{ "type": "Feature", "properties": { "strassenschluessel": "05562000001602020", "bezeichnung": "Disselhof" }, "geometry": { "type": "Point", "coordinates": [ 7.186043751257399, 51.74465351358046 ] } },
{ "type": "Feature", "properties": { "strassenschluessel": "05562000001602040", "bezeichnung": "Dorfstraße" }, "geometry": { "type": "Point", "coordinates": [ 7.21919183426762, 51.772430595529123 ] } },
{ "type": "Feature", "properties": { "strassenschluessel": "05562000001602060", "bezeichnung": "Dorstener Straße" }, "geometry": null },
{ "type": "Feature", "properties": { "strassenschluessel": "05562000001602080", "bezeichnung": "Dorstener Straße" }, "geometry": { "type": "Point", "coordinates": [ 7.095633281790207, 51.714884121578542 ] } },
{ "type": "Feature", "properties": { "strassenschluessel": "05562000001602100", "bezeichnung": "Dragendorffstraße" }, "geometry": { "type": "Point", "coordinates": [ 7.173138147185056, 51.736205440985955 ] } },
{ "type": "Feature", "properties": { "strassenschluessel": "05562000001602120", "bezeichnung": "Dr.-Conrads-Straße" }, "geometry": { "type": "Point", "coordinates": [ 7.18199225520639, 51.743106996964663 ] } },
{ "type": "Feature", "properties": { "strassenschluessel": "05562000001602140", "bezeichnung": "Dr.-Hermann-Grochtmann-Straße" }, "geometry": { "type": "Point", "coordinates": [ 7.230230293423195, 51.716023399199479 ] } },
{ "type": "Feature", "properties": { "strassenschluessel": "05562000001602160", "bezeichnung": "Drosselweg" }, "geometry": { "type": "Point", "coordinates": [ 7.157681262094509, 51.74041869610295 ] } },
{ "type": "Feature", "properties": { "strassenschluessel": "05562000001602180", "bezeichnung": "Droste-Hülshoff-Straße" }, "geometry": { "type": "Point", "coordinates": [ 7.176516090376532, 51.752551300466656 ] } },
{ "type": "Feature", "properties": { "strassenschluessel": "05562000001602200", "bezeichnung": "Drususstraße" }, "geometry": { "type": "Point", "coordinates": [ 7.176607364681708, 51.744334845957951 ] } },
{ "type": "Feature", "properties": { "strassenschluessel": "05562000001602220", "bezeichnung": "Dülmener Straße" }, "geometry": { "type": "Point", "coordinates": [ 7.228374279554617, 51.780403215575902 ] } },
{ "type": "Feature", "properties": { "strassenschluessel": "05562000001602240", "bezeichnung": "Dürnberg" }, "geometry": { "type": "Point", "coordinates": [ 7.225161931306102, 51.716744837130356 ] } },
{ "type": "Feature", "properties": { "strassenschluessel": "05562000001602260", "bezeichnung": "Düsternweg" }, "geometry": { "type": "Point", "coordinates": [ 7.219432395638994, 51.77215464202483 ] } },
{ "type": "Feature", "properties": { "strassenschluessel": "05562000001602270", "bezeichnung": "Ecksteins Hof" }, "geometry": { "type": "Point", "coordinates": [ 7.182525279027879, 51.724380933679271 ] } },
{ "type": "Feature", "properties": { "strassenschluessel": "05562000001602280", "bezeichnung": "Eichendorffstraße" }, "geometry": { "type": "Point", "coordinates": [ 7.184535908865193, 51.752601372700951 ] } },
{ "type": "Feature", "properties": { "strassenschluessel": "05562000001602300", "bezeichnung": "Eichenhof" }, "geometry": { "type": "Point", "coordinates": [ 7.228309767460717, 51.771713183812203 ] } },
{ "type": "Feature", "properties": { "strassenschluessel": "05562000001602320", "bezeichnung": "Eichenstraße" }, "geometry": { "type": "Point", "coordinates": [ 7.168640815829403, 51.746363021952874 ] } },
{ "type": "Feature", "properties": { "strassenschluessel": "05562000001602340", "bezeichnung": "Eduard-Mörike-Straße" }, "geometry": { "type": "Point", "coordinates": [ 7.176960915037002, 51.752320371501128 ] } },
{ "type": "Feature", "properties": { "strassenschluessel": "05562000001602350", "bezeichnung": "Elsa-Brandström-Straße" }, "geometry": { "type": "Point", "coordinates": [ 7.182469947930605, 51.753070518867986 ] } },
{ "type": "Feature", "properties": { "strassenschluessel": "05562000001602355", "bezeichnung": "Eltritt" }, "geometry": { "type": "Point", "coordinates": [ 7.219247194146705, 51.778449768030633 ] } },
{ "type": "Feature", "properties": { "strassenschluessel": "05562000001602358", "bezeichnung": "Emilie-Schindler-Weg" }, "geometry": { "type": "Point", "coordinates": [ 7.228799491231586, 51.777051061898369 ] } },
{ "type": "Feature", "properties": { "strassenschluessel": "05562000001602360", "bezeichnung": "Eppendorfer Straße" }, "geometry": { "type": "Point", "coordinates": [ 7.111776935058374, 51.727227702650744 ] } },
{ "type": "Feature", "properties": { "strassenschluessel": "05562000001602380", "bezeichnung": "Erikastraße" }, "geometry": { "type": "Point", "coordinates": [ 7.217529743802988, 51.785130865737365 ] } },
{ "type": "Feature", "properties": { "strassenschluessel": "05562000001602400", "bezeichnung": "Erlenhof" }, "geometry": { "type": "Point", "coordinates": [ 7.169617614102573, 51.747142732438135 ] } },
{ "type": "Feature", "properties": { "strassenschluessel": "05562000001602420", "bezeichnung": "Erlenstraße" }, "geometry": { "type": "Point", "coordinates": [ 7.230042257626679, 51.771617199013932 ] } },
{ "type": "Feature", "properties": { "strassenschluessel": "05562000001602430", "bezeichnung": "Ernst-August-Schmale-Platz" }, "geometry": { "type": "Point", "coordinates": [ 7.197294567733066, 51.741214539215974 ] } },
{ "type": "Feature", "properties": { "strassenschluessel": "05562000001602440", "bezeichnung": "Erzbischof-Buddenbrock-Straße" }, "geometry": { "type": "Point", "coordinates": [ 7.097892868318884, 51.717141036234473 ] } },
{ "type": "Feature", "properties": { "strassenschluessel": "05562000001602460", "bezeichnung": "Eschweg" }, "geometry": { "type": "Point", "coordinates": [ 7.226377407212412, 51.772594636105694 ] } },
{ "type": "Feature", "properties": { "strassenschluessel": "05562000001602480", "bezeichnung": "Fackertstraße" }, "geometry": { "type": "Point", "coordinates": [ 7.172691347990706, 51.734996843810308 ] } },
{ "type": "Feature", "properties": { "strassenschluessel": "05562000001602500", "bezeichnung": "Falkenstraße" }, "geometry": { "type": "Point", "coordinates": [ 7.093748137915006, 51.706136763700485 ] } },
{ "type": "Feature", "properties": { "strassenschluessel": "05562000001602520", "bezeichnung": "Fasanenweg" }, "geometry": { "type": "Point", "coordinates": [ 7.220904880941688, 51.761100388770046 ] } },
{ "type": "Feature", "properties": { "strassenschluessel": "05562000001602540", "bezeichnung": "Feldmarkstraße" }, "geometry": { "type": "Point", "coordinates": [ 7.118394531131654, 51.714336643546893 ] } },
{ "type": "Feature", "properties": { "strassenschluessel": "05562000001602560", "bezeichnung": "Feldstraße" }, "geometry": { "type": "Point", "coordinates": [ 7.196269988063337, 51.746010147561861 ] } },
{ "type": "Feature", "properties": { "strassenschluessel": "05562000001602580", "bezeichnung": "Fichtenstraße" }, "geometry": { "type": "Point", "coordinates": [ 7.145485447143416, 51.784137314158578 ] } },
{ "type": "Feature", "properties": { "strassenschluessel": "05562000001602600", "bezeichnung": "Finkenstraße" }, "geometry": { "type": "Point", "coordinates": [ 7.094310332211627, 51.70586741378289 ] } },
{ "type": "Feature", "properties": { "strassenschluessel": "05562000001602620", "bezeichnung": "Finkenweg" }, "geometry": { "type": "Point", "coordinates": [ 7.156941091258667, 51.741285783894533 ] } },
{ "type": "Feature", "properties": { "strassenschluessel": "05562000001602630", "bezeichnung": "Flaesheimer Damm" }, "geometry": { "type": "Point", "coordinates": [ 7.233367342582302, 51.731721350205653 ] } },
{ "type": "Feature", "properties": { "strassenschluessel": "05562000001602640", "bezeichnung": "Flaesheimer Straße" }, "geometry": null },
{ "type": "Feature", "properties": { "strassenschluessel": "05562000001602660", "bezeichnung": "Flaesheimer Straße" }, "geometry": { "type": "Point", "coordinates": [ 7.242769741707205, 51.715678986407944 ] } },
{ "type": "Feature", "properties": { "strassenschluessel": "05562000001602680", "bezeichnung": "Flasskamp" }, "geometry": { "type": "Point", "coordinates": [ 7.222279347757699, 51.769540993913786 ] } },
{ "type": "Feature", "properties": { "strassenschluessel": "05562000001602700", "bezeichnung": "Flavusstraße" }, "geometry": { "type": "Point", "coordinates": [ 7.174348672506741, 51.743520319482997 ] } },
{ "type": "Feature", "properties": { "strassenschluessel": "05562000001602720", "bezeichnung": "Flurstraße" }, "geometry": { "type": "Point", "coordinates": [ 7.212916438402187, 51.775819958928167 ] } },
{ "type": "Feature", "properties": { "strassenschluessel": "05562000001602740", "bezeichnung": "Fohrenbreide" }, "geometry": { "type": "Point", "coordinates": [ 7.116735396772377, 51.727568005437057 ] } },
{ "type": "Feature", "properties": { "strassenschluessel": "05562000001602760", "bezeichnung": "Forellenweg" }, "geometry": { "type": "Point", "coordinates": [ 7.259321258345477, 51.742335893444711 ] } },
{ "type": "Feature", "properties": { "strassenschluessel": "05562000001602770", "bezeichnung": "Frankenbogen" }, "geometry": { "type": "Point", "coordinates": [ 7.233812085920174, 51.71538044968753 ] } },
{ "type": "Feature", "properties": { "strassenschluessel": "05562000001602780", "bezeichnung": "Franz-Nigge-Straße" }, "geometry": { "type": "Point", "coordinates": [ 7.16406191906905, 51.777963007089291 ] } },
{ "type": "Feature", "properties": { "strassenschluessel": "05562000001602800", "bezeichnung": "Franz-Pohlmann-Straße" }, "geometry": { "type": "Point", "coordinates": [ 7.181408880322095, 51.746459779419723 ] } },
{ "type": "Feature", "properties": { "strassenschluessel": "05562000001602820", "bezeichnung": "Freiheiter Weg" }, "geometry": { "type": "Point", "coordinates": [ 7.116138722653293, 51.721458469246187 ] } },
{ "type": "Feature", "properties": { "strassenschluessel": "05562000001602840", "bezeichnung": "Freistraße" }, "geometry": { "type": "Point", "coordinates": [ 7.207836175331608, 51.765872190624883 ] } },
{ "type": "Feature", "properties": { "strassenschluessel": "05562000001602860", "bezeichnung": "Friedhofsweg" }, "geometry": null },
{ "type": "Feature", "properties": { "strassenschluessel": "05562000001602870", "bezeichnung": "Friedrich-Carl-Büttner-Platz" }, "geometry": null },
{ "type": "Feature", "properties": { "strassenschluessel": "05562000001602880", "bezeichnung": "Friedrich-Ebert-Wall" }, "geometry": { "type": "Point", "coordinates": [ 7.190424579161158, 51.742173067820566 ] } },
{ "type": "Feature", "properties": { "strassenschluessel": "05562000001602900", "bezeichnung": "Friedrich-Hebbel-Straße" }, "geometry": { "type": "Point", "coordinates": [ 7.17632695561695, 51.752195683388805 ] } },
{ "type": "Feature", "properties": { "strassenschluessel": "05562000001602920", "bezeichnung": "Friedrich-Ludwig-Jahn-Straße" }, "geometry": { "type": "Point", "coordinates": [ 7.186372043148419, 51.748941578399354 ] } },
{ "type": "Feature", "properties": { "strassenschluessel": "05562000001602940", "bezeichnung": "Friethweg" }, "geometry": { "type": "Point", "coordinates": [ 7.218530444665594, 51.769594221483764 ] } },
{ "type": "Feature", "properties": { "strassenschluessel": "05562000001602960", "bezeichnung": "Fuchsbau" }, "geometry": { "type": "Point", "coordinates": [ 7.225073896215451, 51.763858727404298 ] } },
{ "type": "Feature", "properties": { "strassenschluessel": "05562000001603000", "bezeichnung": "Gantepoth" }, "geometry": { "type": "Point", "coordinates": [ 7.185991353377974, 51.74351061591684 ] } },
{ "type": "Feature", "properties": { "strassenschluessel": "05562000001603020", "bezeichnung": "Gartenstraße" }, "geometry": { "type": "Point", "coordinates": [ 7.19236776278092, 51.744970306822132 ] } },
{ "type": "Feature", "properties": { "strassenschluessel": "05562000001603040", "bezeichnung": "Gaststiege" }, "geometry": { "type": "Point", "coordinates": [ 7.184495808897588, 51.743923792645752 ] } },
{ "type": "Feature", "properties": { "strassenschluessel": "05562000001603060", "bezeichnung": "Gecksbachstraße" }, "geometry": null },
{ "type": "Feature", "properties": { "strassenschluessel": "05562000001603080", "bezeichnung": "Geheimrat-König-Straße" }, "geometry": { "type": "Point", "coordinates": [ 7.170715032047349, 51.762950930658242 ] } },
{ "type": "Feature", "properties": { "strassenschluessel": "05562000001603090", "bezeichnung": "Gerhart-Hauptmann-Straße" }, "geometry": { "type": "Point", "coordinates": [ 7.190372222771929, 51.748595833501774 ] } },
{ "type": "Feature", "properties": { "strassenschluessel": "05562000001603100", "bezeichnung": "Germanikusstraße" }, "geometry": { "type": "Point", "coordinates": [ 7.171699253616771, 51.742971438625403 ] } },
{ "type": "Feature", "properties": { "strassenschluessel": "05562000001603120", "bezeichnung": "Gildenstraße" }, "geometry": { "type": "Point", "coordinates": [ 7.185976081610871, 51.747418557213983 ] } },
{ "type": "Feature", "properties": { "strassenschluessel": "05562000001603140", "bezeichnung": "Ginsterstraße" }, "geometry": { "type": "Point", "coordinates": [ 7.21685097173848, 51.784807916897634 ] } },
{ "type": "Feature", "properties": { "strassenschluessel": "05562000001603150", "bezeichnung": "Goethestraße" }, "geometry": { "type": "Point", "coordinates": [ 7.181211962577617, 51.75392313664841 ] } },
{ "type": "Feature", "properties": { "strassenschluessel": "05562000001603160", "bezeichnung": "Goldammerweg" }, "geometry": { "type": "Point", "coordinates": [ 7.204329699742932, 51.751637671534098 ] } },
{ "type": "Feature", "properties": { "strassenschluessel": "05562000001603180", "bezeichnung": "Goldstraße" }, "geometry": { "type": "Point", "coordinates": [ 7.186970335250364, 51.743497885482675 ] } },
{ "type": "Feature", "properties": { "strassenschluessel": "05562000001603200", "bezeichnung": "Gottfried-Keller-Straße" }, "geometry": { "type": "Point", "coordinates": [ 7.179625847928615, 51.751894746809981 ] } },
{ "type": "Feature", "properties": { "strassenschluessel": "05562000001603220", "bezeichnung": "Grabenstiege" }, "geometry": { "type": "Point", "coordinates": [ 7.186274699542928, 51.745330879135565 ] } },
{ "type": "Feature", "properties": { "strassenschluessel": "05562000001603240", "bezeichnung": "Granatstraße" }, "geometry": null },
{ "type": "Feature", "properties": { "strassenschluessel": "05562000001603260", "bezeichnung": "Granatstraße" }, "geometry": { "type": "Point", "coordinates": [ 7.098545162253717, 51.778631418653937 ] } },
{ "type": "Feature", "properties": { "strassenschluessel": "05562000001603280", "bezeichnung": "Grotekamp" }, "geometry": { "type": "Point", "coordinates": [ 7.231180646560186, 51.771972178542967 ] } },
{ "type": "Feature", "properties": { "strassenschluessel": "05562000001603300", "bezeichnung": "Haardstraße" }, "geometry": { "type": "Point", "coordinates": [ 7.232488536699089, 51.717251650398104 ] } },
{ "type": "Feature", "properties": { "strassenschluessel": "05562000001603320", "bezeichnung": "Haardweg" }, "geometry": { "type": "Point", "coordinates": [ 7.173673921149925, 51.720076627994317 ] } },
{ "type": "Feature", "properties": { "strassenschluessel": "05562000001603340", "bezeichnung": "Hammer Weg" }, "geometry": { "type": "Point", "coordinates": [ 7.17028549259115, 51.720581873144603 ] } },
{ "type": "Feature", "properties": { "strassenschluessel": "05562000001603350", "bezeichnung": "Hansestraße" }, "geometry": { "type": "Point", "coordinates": [ 7.188698865164077, 51.754490862810002 ] } },
{ "type": "Feature", "properties": { "strassenschluessel": "05562000001603360", "bezeichnung": "Hasenweg" }, "geometry": { "type": "Point", "coordinates": [ 7.219190737791362, 51.7611430823288 ] } },
{ "type": "Feature", "properties": { "strassenschluessel": "05562000001603380", "bezeichnung": "Hauptstraße" }, "geometry": { "type": "Point", "coordinates": [ 7.287835851183589, 51.736909576398148 ] } },
{ "type": "Feature", "properties": { "strassenschluessel": "05562000001603390", "bezeichnung": "Heckenweg" }, "geometry": { "type": "Point", "coordinates": [ 7.226086413065988, 51.77377394755289 ] } },
{ "type": "Feature", "properties": { "strassenschluessel": "05562000001603400", "bezeichnung": "Heerstraße" }, "geometry": { "type": "Point", "coordinates": [ 7.121379463976513, 51.716149631863857 ] } },
{ "type": "Feature", "properties": { "strassenschluessel": "05562000001603410", "bezeichnung": "Hegenhoff" }, "geometry": { "type": "Point", "coordinates": [ 7.29169097161881, 51.732613554868443 ] } },
{ "type": "Feature", "properties": { "strassenschluessel": "05562000001603420", "bezeichnung": "Hegewinkel" }, "geometry": { "type": "Point", "coordinates": [ 7.218980181557871, 51.768657850580468 ] } },
{ "type": "Feature", "properties": { "strassenschluessel": "05562000001603440", "bezeichnung": "Heidbrink" }, "geometry": { "type": "Point", "coordinates": [ 7.148865610596609, 51.777452490498234 ] } },
{ "type": "Feature", "properties": { "strassenschluessel": "05562000001603460", "bezeichnung": "Heideweg" }, "geometry": { "type": "Point", "coordinates": [ 7.171453717441841, 51.719874237313427 ] } },
{ "type": "Feature", "properties": { "strassenschluessel": "05562000001603470", "bezeichnung": "Heidgarten" }, "geometry": { "type": "Point", "coordinates": [ 7.294022223580334, 51.732022544114933 ] } },
{ "type": "Feature", "properties": { "strassenschluessel": "05562000001603480", "bezeichnung": "Heidkantweg" }, "geometry": { "type": "Point", "coordinates": [ 7.079428084186267, 51.71752603178107 ] } },
{ "type": "Feature", "properties": { "strassenschluessel": "05562000001603500", "bezeichnung": "Heidland" }, "geometry": { "type": "Point", "coordinates": [ 7.222494039435368, 51.786229060593193 ] } },
{ "type": "Feature", "properties": { "strassenschluessel": "05562000001603520", "bezeichnung": "Heinrich-Rumpf-Straße" }, "geometry": { "type": "Point", "coordinates": [ 7.181556838952124, 51.748396082842767 ] } },
{ "type": "Feature", "properties": { "strassenschluessel": "05562000001603540", "bezeichnung": "Heinrich-von-Kleist-Straße" }, "geometry": { "type": "Point", "coordinates": [ 7.177799035514094, 51.752637233518286 ] } },
{ "type": "Feature", "properties": { "strassenschluessel": "05562000001603560", "bezeichnung": "Heitkamp" }, "geometry": { "type": "Point", "coordinates": [ 7.131770438621087, 51.753779336136411 ] } },
{ "type": "Feature", "properties": { "strassenschluessel": "05562000001603580", "bezeichnung": "Heitken" }, "geometry": { "type": "Point", "coordinates": [ 7.227720979760156, 51.78840002603247 ] } },
{ "type": "Feature", "properties": { "strassenschluessel": "05562000001603600", "bezeichnung": "Helenenhöhe" }, "geometry": { "type": "Point", "coordinates": [ 7.176640919540788, 51.759693962711772 ] } },
{ "type": "Feature", "properties": { "strassenschluessel": "05562000001603620", "bezeichnung": "Hellweg" }, "geometry": { "type": "Point", "coordinates": [ 7.220851151001176, 51.773110951389448 ] } },
{ "type": "Feature", "properties": { "strassenschluessel": "05562000001603640", "bezeichnung": "Hennewiger Weg" }, "geometry": null },
{ "type": "Feature", "properties": { "strassenschluessel": "05562000001603660", "bezeichnung": "Hennewiger Weg" }, "geometry": { "type": "Point", "coordinates": [ 7.161109198047422, 51.777757573051559 ] } },
{ "type": "Feature", "properties": { "strassenschluessel": "05562000001603670", "bezeichnung": "Herderstraße" }, "geometry": { "type": "Point", "coordinates": [ 7.198860889001931, 51.749755363145283 ] } },
{ "type": "Feature", "properties": { "strassenschluessel": "05562000001603680", "bezeichnung": "Hetfeld" }, "geometry": { "type": "Point", "coordinates": [ 7.206576278414018, 51.754130852838863 ] } },
{ "type": "Feature", "properties": { "strassenschluessel": "05562000001603700", "bezeichnung": "Hilgenweg" }, "geometry": { "type": "Point", "coordinates": [ 7.227321010961228, 51.775525636099218 ] } },
{ "type": "Feature", "properties": { "strassenschluessel": "05562000001603720", "bezeichnung": "Hirschgraben" }, "geometry": { "type": "Point", "coordinates": [ 7.220141355329218, 51.762397661789279 ] } },
{ "type": "Feature", "properties": { "strassenschluessel": "05562000001603740", "bezeichnung": "Hochstraße" }, "geometry": { "type": "Point", "coordinates": [ 7.152866239662843, 51.779895907902059 ] } },
{ "type": "Feature", "properties": { "strassenschluessel": "05562000001603760", "bezeichnung": "Hohemarkenweg" }, "geometry": { "type": "Point", "coordinates": [ 7.146906983127892, 51.768109854011634 ] } },
{ "type": "Feature", "properties": { "strassenschluessel": "05562000001603780", "bezeichnung": "Hohes Ufer" }, "geometry": { "type": "Point", "coordinates": [ 7.216326207529593, 51.723754670618625 ] } },
{ "type": "Feature", "properties": { "strassenschluessel": "05562000001603800", "bezeichnung": "Holtkampweg" }, "geometry": { "type": "Point", "coordinates": [ 7.19117526626588, 51.725746559145279 ] } },
{ "type": "Feature", "properties": { "strassenschluessel": "05562000001603820", "bezeichnung": "Holtweg" }, "geometry": { "type": "Point", "coordinates": [ 7.114488413264969, 51.718505233779531 ] } },
{ "type": "Feature", "properties": { "strassenschluessel": "05562000001603840", "bezeichnung": "Holtwicker Straße" }, "geometry": null },
{ "type": "Feature", "properties": { "strassenschluessel": "05562000001603841", "bezeichnung": "Holtwicker Straße" }, "geometry": { "type": "Point", "coordinates": [ 7.156149167273679, 51.747888445056759 ] } },
{ "type": "Feature", "properties": { "strassenschluessel": "05562000001603860", "bezeichnung": "Hülstener Weg" }, "geometry": { "type": "Point", "coordinates": [ 7.166074015141285, 51.787850569728867 ] } },
{ "type": "Feature", "properties": { "strassenschluessel": "05562000001603870", "bezeichnung": "Hullerner Damm" }, "geometry": null },
{ "type": "Feature", "properties": { "strassenschluessel": "05562000001603880", "bezeichnung": "Hullerner Straße" }, "geometry": { "type": "Point", "coordinates": [ 7.202999102620377, 51.742820808693274 ] } },
{ "type": "Feature", "properties": { "strassenschluessel": "05562000001603900", "bezeichnung": "Humbusch" }, "geometry": { "type": "Point", "coordinates": [ 7.213430850393304, 51.782305271105663 ] } },
{ "type": "Feature", "properties": { "strassenschluessel": "05562000001603920", "bezeichnung": "Igelweg" }, "geometry": { "type": "Point", "coordinates": [ 7.218755943320228, 51.760663055172557 ] } },
{ "type": "Feature", "properties": { "strassenschluessel": "05562000001603940", "bezeichnung": "Iltisweg" }, "geometry": { "type": "Point", "coordinates": [ 7.223901058622925, 51.764137044450884 ] } },
{ "type": "Feature", "properties": { "strassenschluessel": "05562000001603960", "bezeichnung": "Im Baaken" }, "geometry": { "type": "Point", "coordinates": [ 7.189034612290876, 51.746618922083051 ] } },
{ "type": "Feature", "properties": { "strassenschluessel": "05562000001603970", "bezeichnung": "Im Boecken" }, "geometry": { "type": "Point", "coordinates": [ 7.18417802230813, 51.726149592260597 ] } },
{ "type": "Feature", "properties": { "strassenschluessel": "05562000001603980", "bezeichnung": "Im Bromkamp" }, "geometry": { "type": "Point", "coordinates": [ 7.221624360291051, 51.775226334281619 ] } },
{ "type": "Feature", "properties": { "strassenschluessel": "05562000001604000", "bezeichnung": "Im Brook" }, "geometry": { "type": "Point", "coordinates": [ 7.171499243343431, 51.736526307494948 ] } },
{ "type": "Feature", "properties": { "strassenschluessel": "05562000001604020", "bezeichnung": "Im Dahläckern" }, "geometry": { "type": "Point", "coordinates": [ 7.187242188118689, 51.751898358552431 ] } },
{ "type": "Feature", "properties": { "strassenschluessel": "05562000001604040", "bezeichnung": "Im Geun" }, "geometry": { "type": "Point", "coordinates": [ 7.107844913178205, 51.728786102865101 ] } },
{ "type": "Feature", "properties": { "strassenschluessel": "05562000001604060", "bezeichnung": "Im Greinenkamp" }, "geometry": { "type": "Point", "coordinates": [ 7.25981897686309, 51.745543244449287 ] } },
{ "type": "Feature", "properties": { "strassenschluessel": "05562000001604080", "bezeichnung": "Im Grünen Winkel" }, "geometry": { "type": "Point", "coordinates": [ 7.161840861785763, 51.73457259503823 ] } },
{ "type": "Feature", "properties": { "strassenschluessel": "05562000001604100", "bezeichnung": "Im Grund" }, "geometry": { "type": "Point", "coordinates": [ 7.120918077775857, 51.717104091512461 ] } },
{ "type": "Feature", "properties": { "strassenschluessel": "05562000001604120", "bezeichnung": "Im Hadkamp" }, "geometry": { "type": "Point", "coordinates": [ 7.162219443029255, 51.783212683108168 ] } },
{ "type": "Feature", "properties": { "strassenschluessel": "05562000001604130", "bezeichnung": "Im Höffken" }, "geometry": { "type": "Point", "coordinates": [ 7.190240897230588, 51.726827490824242 ] } },
{ "type": "Feature", "properties": { "strassenschluessel": "05562000001604140", "bezeichnung": "Im Hohen Winkel" }, "geometry": { "type": "Point", "coordinates": [ 7.166958717894934, 51.737038768874619 ] } },
{ "type": "Feature", "properties": { "strassenschluessel": "05562000001604160", "bezeichnung": "Im Holt" }, "geometry": { "type": "Point", "coordinates": [ 7.085371083492932, 51.745330438654378 ] } },
{ "type": "Feature", "properties": { "strassenschluessel": "05562000001604170", "bezeichnung": "Im Hundel" }, "geometry": { "type": "Point", "coordinates": [ 7.100865832830634, 51.717059394117364 ] } },
{ "type": "Feature", "properties": { "strassenschluessel": "05562000001604180", "bezeichnung": "Im Lindenkamp" }, "geometry": { "type": "Point", "coordinates": [ 7.287027301841417, 51.737711234410718 ] } },
{ "type": "Feature", "properties": { "strassenschluessel": "05562000001604200", "bezeichnung": "Im Lohgarten" }, "geometry": { "type": "Point", "coordinates": [ 7.183772507548852, 51.748629280817141 ] } },
{ "type": "Feature", "properties": { "strassenschluessel": "05562000001604220", "bezeichnung": "Im Mühlbachtal" }, "geometry": { "type": "Point", "coordinates": [ 7.211746963699742, 51.75830194767844 ] } },
{ "type": "Feature", "properties": { "strassenschluessel": "05562000001604240", "bezeichnung": "Im Nelkengarten" }, "geometry": { "type": "Point", "coordinates": [ 7.177020586355369, 51.750120578116984 ] } },
{ "type": "Feature", "properties": { "strassenschluessel": "05562000001604260", "bezeichnung": "Im Norden" }, "geometry": { "type": "Point", "coordinates": [ 7.224086878359181, 51.775301831268557 ] } },
{ "type": "Feature", "properties": { "strassenschluessel": "05562000001604280", "bezeichnung": "Im Oer" }, "geometry": { "type": "Point", "coordinates": [ 7.230498678289472, 51.773867347128082 ] } },
{ "type": "Feature", "properties": { "strassenschluessel": "05562000001604300", "bezeichnung": "Im Rosendahl" }, "geometry": { "type": "Point", "coordinates": [ 7.212854683615361, 51.775343838481852 ] } },
{ "type": "Feature", "properties": { "strassenschluessel": "05562000001604320", "bezeichnung": "Im Schabbrink" }, "geometry": { "type": "Point", "coordinates": [ 7.082681974474995, 51.722234615301197 ] } },
{ "type": "Feature", "properties": { "strassenschluessel": "05562000001604340", "bezeichnung": "Im Strieken" }, "geometry": { "type": "Point", "coordinates": [ 7.158785558705819, 51.739816229674062 ] } },
{ "type": "Feature", "properties": { "strassenschluessel": "05562000001604360", "bezeichnung": "Im Ternäckern" }, "geometry": { "type": "Point", "coordinates": [ 7.197032210287339, 51.744003288954652 ] } },
{ "type": "Feature", "properties": { "strassenschluessel": "05562000001604370", "bezeichnung": "Im Tiefen Winkel" }, "geometry": { "type": "Point", "coordinates": [ 7.162768163364475, 51.736285033759096 ] } },
{ "type": "Feature", "properties": { "strassenschluessel": "05562000001604380", "bezeichnung": "Im Wienäckern" }, "geometry": { "type": "Point", "coordinates": [ 7.194054392303484, 51.749507353436442 ] } },
{ "type": "Feature", "properties": { "strassenschluessel": "05562000001604400", "bezeichnung": "Im Winkel" }, "geometry": { "type": "Point", "coordinates": [ 7.097512626582777, 51.706457989211074 ] } },
{ "type": "Feature", "properties": { "strassenschluessel": "05562000001604420", "bezeichnung": "In de Bucht" }, "geometry": { "type": "Point", "coordinates": [ 7.229363111702496, 51.773438082419524 ] } },
{ "type": "Feature", "properties": { "strassenschluessel": "05562000001604440", "bezeichnung": "In de Floge" }, "geometry": { "type": "Point", "coordinates": [ 7.220490026916385, 51.769157701644097 ] } },
{ "type": "Feature", "properties": { "strassenschluessel": "05562000001604460", "bezeichnung": "In de Krümm" }, "geometry": { "type": "Point", "coordinates": [ 7.224089012055232, 51.771343680013594 ] } },
{ "type": "Feature", "properties": { "strassenschluessel": "05562000001604480", "bezeichnung": "In der Borg" }, "geometry": { "type": "Point", "coordinates": [ 7.190365194498144, 51.74917577026482 ] } },
{ "type": "Feature", "properties": { "strassenschluessel": "05562000001604500", "bezeichnung": "In der Groll" }, "geometry": { "type": "Point", "coordinates": [ 7.159660375756516, 51.778729804201483 ] } },
{ "type": "Feature", "properties": { "strassenschluessel": "05562000001604520", "bezeichnung": "In der Strünkede" }, "geometry": { "type": "Point", "coordinates": [ 7.174912355285232, 51.782368722860959 ] } },
{ "type": "Feature", "properties": { "strassenschluessel": "05562000001604540", "bezeichnung": "In der Thiebrei" }, "geometry": { "type": "Point", "coordinates": [ 7.13338188376939, 51.751907835358402 ] } },
{ "type": "Feature", "properties": { "strassenschluessel": "05562000001604550", "bezeichnung": "In der Wiem" }, "geometry": { "type": "Point", "coordinates": [ 7.095820590267282, 51.712534428674495 ] } },
{ "type": "Feature", "properties": { "strassenschluessel": "05562000001604560", "bezeichnung": "Inselweg" }, "geometry": { "type": "Point", "coordinates": [ 7.128956720485211, 51.718805526983367 ] } },
{ "type": "Feature", "properties": { "strassenschluessel": "05562000001604580", "bezeichnung": "Jahnstraße" }, "geometry": { "type": "Point", "coordinates": [ 7.083170176747162, 51.72125020929105 ] } },
{ "type": "Feature", "properties": { "strassenschluessel": "05562000001604600", "bezeichnung": "Johannes-Grüter-Straße" }, "geometry": { "type": "Point", "coordinates": [ 7.178252887881218, 51.751614119517832 ] } },
{ "type": "Feature", "properties": { "strassenschluessel": "05562000001604620", "bezeichnung": "Johannesstraße" }, "geometry": { "type": "Point", "coordinates": [ 7.198363883499918, 51.747398808521922 ] } },
{ "type": "Feature", "properties": { "strassenschluessel": "05562000001604630", "bezeichnung": "Johann-Trage-Straße" }, "geometry": { "type": "Point", "coordinates": [ 7.187839406663921, 51.751451818071523 ] } },
{ "type": "Feature", "properties": { "strassenschluessel": "05562000001604638", "bezeichnung": "Josef-Paris-Straße" }, "geometry": { "type": "Point", "coordinates": [ 7.187365612334616, 51.747632474068382 ] } },
{ "type": "Feature", "properties": { "strassenschluessel": "05562000001604640", "bezeichnung": "Josef-Starkmann-Straße" }, "geometry": { "type": "Point", "coordinates": [ 7.175753933089871, 51.740348705425752 ] } },
{ "type": "Feature", "properties": { "strassenschluessel": "05562000001604650", "bezeichnung": "Kampweg" }, "geometry": { "type": "Point", "coordinates": [ 7.09537445465503, 51.712982407480091 ] } },
{ "type": "Feature", "properties": { "strassenschluessel": "05562000001604655", "bezeichnung": "Kämpchenheide" }, "geometry": { "type": "Point", "coordinates": [ 7.226579165091732, 51.789688332574066 ] } },
{ "type": "Feature", "properties": { "strassenschluessel": "05562000001604660", "bezeichnung": "Kanalstraße" }, "geometry": { "type": "Point", "coordinates": [ 7.23188228619279, 51.722049719449039 ] } },
{ "type": "Feature", "properties": { "strassenschluessel": "05562000001604670", "bezeichnung": "Kantstraße" }, "geometry": { "type": "Point", "coordinates": [ 7.199769157631575, 51.748597907759617 ] } },
{ "type": "Feature", "properties": { "strassenschluessel": "05562000001604680", "bezeichnung": "Kapellenstraße" }, "geometry": { "type": "Point", "coordinates": [ 7.162219322012715, 51.779409148924209 ] } },
{ "type": "Feature", "properties": { "strassenschluessel": "05562000001604700", "bezeichnung": "Kapellenweg" }, "geometry": { "type": "Point", "coordinates": [ 7.188418510925354, 51.728411636527184 ] } },
{ "type": "Feature", "properties": { "strassenschluessel": "05562000001604710", "bezeichnung": "Kardinal-von-Galen-Platz" }, "geometry": null },
{ "type": "Feature", "properties": { "strassenschluessel": "05562000001604720", "bezeichnung": "Kardinal-von-Galen-Straße" }, "geometry": { "type": "Point", "coordinates": [ 7.229467122424014, 51.720052205468591 ] } },
{ "type": "Feature", "properties": { "strassenschluessel": "05562000001604725", "bezeichnung": "Karl-Homann-Weg" }, "geometry": null },
{ "type": "Feature", "properties": { "strassenschluessel": "05562000001604730", "bezeichnung": "Kärntner Platz" }, "geometry": null },
{ "type": "Feature", "properties": { "strassenschluessel": "05562000001604740", "bezeichnung": "Karpfenweg" }, "geometry": { "type": "Point", "coordinates": [ 7.261850191605481, 51.744907310783574 ] } },
{ "type": "Feature", "properties": { "strassenschluessel": "05562000001604760", "bezeichnung": "Kastanienstraße" }, "geometry": { "type": "Point", "coordinates": [ 7.161574231772561, 51.779393026449583 ] } },
{ "type": "Feature", "properties": { "strassenschluessel": "05562000001604780", "bezeichnung": "Kettelerstraße" }, "geometry": { "type": "Point", "coordinates": [ 7.231519229111116, 51.718959310587785 ] } },
{ "type": "Feature", "properties": { "strassenschluessel": "05562000001604800", "bezeichnung": "Kiefernweg" }, "geometry": { "type": "Point", "coordinates": [ 7.170701824886358, 51.745434476033097 ] } },
{ "type": "Feature", "properties": { "strassenschluessel": "05562000001604820", "bezeichnung": "Kirchgasse" }, "geometry": { "type": "Point", "coordinates": [ 7.187939752666539, 51.742328729721486 ] } },
{ "type": "Feature", "properties": { "strassenschluessel": "05562000001604840", "bezeichnung": "Kirchstraße" }, "geometry": { "type": "Point", "coordinates": [ 7.188135719631435, 51.742616253331349 ] } },
{ "type": "Feature", "properties": { "strassenschluessel": "05562000001604860", "bezeichnung": "Kirchweg" }, "geometry": { "type": "Point", "coordinates": [ 7.169911008962495, 51.721511218686985 ] } },
{ "type": "Feature", "properties": { "strassenschluessel": "05562000001604880", "bezeichnung": "Klauskamp" }, "geometry": { "type": "Point", "coordinates": [ 7.226805235464391, 51.787642274053653 ] } },
{ "type": "Feature", "properties": { "strassenschluessel": "05562000001604900", "bezeichnung": "Kleine Brede" }, "geometry": { "type": "Point", "coordinates": [ 7.186441825891813, 51.751274939954904 ] } },
{ "type": "Feature", "properties": { "strassenschluessel": "05562000001604920", "bezeichnung": "Koeppstraße" }, "geometry": { "type": "Point", "coordinates": [ 7.185023313661585, 51.741787056226237 ] } },
{ "type": "Feature", "properties": { "strassenschluessel": "05562000001604930", "bezeichnung": "Koggestraße" }, "geometry": { "type": "Point", "coordinates": [ 7.189763809146534, 51.751018426203643 ] } },
{ "type": "Feature", "properties": { "strassenschluessel": "05562000001604940", "bezeichnung": "Kolkstraße" }, "geometry": { "type": "Point", "coordinates": [ 7.097092591754482, 51.704959949191476 ] } },
{ "type": "Feature", "properties": { "strassenschluessel": "05562000001604960", "bezeichnung": "Kolpingstraße" }, "geometry": { "type": "Point", "coordinates": [ 7.226232740065063, 51.718283548151554 ] } },
{ "type": "Feature", "properties": { "strassenschluessel": "05562000001604965", "bezeichnung": "Kontorstraße" }, "geometry": { "type": "Point", "coordinates": [ 7.190065838079374, 51.75021512182591 ] } },
{ "type": "Feature", "properties": { "strassenschluessel": "05562000001604970", "bezeichnung": "Kopernikusstraße" }, "geometry": { "type": "Point", "coordinates": [ 7.199784739449256, 51.749713632850288 ] } },
{ "type": "Feature", "properties": { "strassenschluessel": "05562000001604980", "bezeichnung": "Kortenberg" }, "geometry": { "type": "Point", "coordinates": [ 7.118017590293491, 51.719156799221444 ] } },
{ "type": "Feature", "properties": { "strassenschluessel": "05562000001604990", "bezeichnung": "Kreienbrand" }, "geometry": { "type": "Point", "coordinates": [ 7.18292558988803, 51.723834712028015 ] } },
{ "type": "Feature", "properties": { "strassenschluessel": "05562000001604998", "bezeichnung": "Krumme Meer" }, "geometry": { "type": "Point", "coordinates": [ 7.168726910055641, 51.733040448114799 ] } },
{ "type": "Feature", "properties": { "strassenschluessel": "05562000001605000", "bezeichnung": "Krummstiege" }, "geometry": { "type": "Point", "coordinates": [ 7.287357554511982, 51.738054069019427 ] } },
{ "type": "Feature", "properties": { "strassenschluessel": "05562000001605020", "bezeichnung": "Kuhlenweg" }, "geometry": { "type": "Point", "coordinates": [ 7.223537471356455, 51.785263442463737 ] } },
{ "type": "Feature", "properties": { "strassenschluessel": "05562000001605040", "bezeichnung": "Kuhkamp" }, "geometry": { "type": "Point", "coordinates": [ 7.234477579963905, 51.719097850653924 ] } },
{ "type": "Feature", "properties": { "strassenschluessel": "05562000001605060", "bezeichnung": "Kurze Straße" }, "geometry": { "type": "Point", "coordinates": [ 7.218055884506743, 51.775046824382294 ] } },
{ "type": "Feature", "properties": { "strassenschluessel": "05562000001605080", "bezeichnung": "Kusenhorster Straße" }, "geometry": { "type": "Point", "coordinates": [ 7.059700157143651, 51.702388598185465 ] } },
{ "type": "Feature", "properties": { "strassenschluessel": "05562000001605100", "bezeichnung": "Lärchenweg" }, "geometry": null },
{ "type": "Feature", "properties": { "strassenschluessel": "05562000001605110", "bezeichnung": "Lambertusweg" }, "geometry": { "type": "Point", "coordinates": [ 7.096006120180548, 51.712178588415185 ] } },
{ "type": "Feature", "properties": { "strassenschluessel": "05562000001605115", "bezeichnung": "Laurenzstiege" }, "geometry": { "type": "Point", "coordinates": [ 7.173203097775872, 51.752748617154552 ] } },
{ "type": "Feature", "properties": { "strassenschluessel": "05562000001605120", "bezeichnung": "Lavesumer Straße" }, "geometry": null },
{ "type": "Feature", "properties": { "strassenschluessel": "05562000001605140", "bezeichnung": "Lavesumer Straße" }, "geometry": { "type": "Point", "coordinates": [ 7.174169255896342, 51.767463936166678 ] } },
{ "type": "Feature", "properties": { "strassenschluessel": "05562000001605160", "bezeichnung": "Lehmbrakener Straße" }, "geometry": { "type": "Point", "coordinates": [ 7.223769582626529, 51.776351196265153 ] } },
{ "type": "Feature", "properties": { "strassenschluessel": "05562000001605180", "bezeichnung": "Lembecker Straße" }, "geometry": { "type": "Point", "coordinates": [ 7.095522111632908, 51.715925058933735 ] } },
{ "type": "Feature", "properties": { "strassenschluessel": "05562000001605220", "bezeichnung": "Lerchenweg" }, "geometry": { "type": "Point", "coordinates": [ 7.161559836017423, 51.743210369024951 ] } },
{ "type": "Feature", "properties": { "strassenschluessel": "05562000001605230", "bezeichnung": "Lilienstraße" }, "geometry": { "type": "Point", "coordinates": [ 7.163920739609392, 51.782280037564902 ] } },
{ "type": "Feature", "properties": { "strassenschluessel": "05562000001605240", "bezeichnung": "Lindenstraße" }, "geometry": { "type": "Point", "coordinates": [ 7.174525508536581, 51.745341027082027 ] } },
{ "type": "Feature", "properties": { "strassenschluessel": "05562000001605250", "bezeichnung": "Lippeblick" }, "geometry": { "type": "Point", "coordinates": [ 7.179598228212154, 51.727008164857068 ] } },
{ "type": "Feature", "properties": { "strassenschluessel": "05562000001605260", "bezeichnung": "Lippetal" }, "geometry": { "type": "Point", "coordinates": [ 7.183505429637742, 51.729632913554184 ] } },
{ "type": "Feature", "properties": { "strassenschluessel": "05562000001605280", "bezeichnung": "Lippmauer" }, "geometry": { "type": "Point", "coordinates": [ 7.189498519280065, 51.744094873982995 ] } },
{ "type": "Feature", "properties": { "strassenschluessel": "05562000001605290", "bezeichnung": "Lippramsdorfer Straße" }, "geometry": null },
{ "type": "Feature", "properties": { "strassenschluessel": "05562000001605300", "bezeichnung": "Lippspieker" }, "geometry": { "type": "Point", "coordinates": [ 7.193857928237328, 51.741388433069645 ] } },
{ "type": "Feature", "properties": { "strassenschluessel": "05562000001605320", "bezeichnung": "Lippstraße" }, "geometry": { "type": "Point", "coordinates": [ 7.188799396280356, 51.743110483507699 ] } },
{ "type": "Feature", "properties": { "strassenschluessel": "05562000001605340", "bezeichnung": "Lochtruper Kirchweg" }, "geometry": { "type": "Point", "coordinates": [ 7.169609367843969, 51.766019489359678 ] } },
{ "type": "Feature", "properties": { "strassenschluessel": "05562000001605360", "bezeichnung": "Lochtruper Straße" }, "geometry": { "type": "Point", "coordinates": [ 7.14663731486286, 51.780667279617852 ] } },
{ "type": "Feature", "properties": { "strassenschluessel": "05562000001605380", "bezeichnung": "Lönsweg" }, "geometry": { "type": "Point", "coordinates": [ 7.229078176592613, 51.765149411955967 ] } },
{ "type": "Feature", "properties": { "strassenschluessel": "05562000001605400", "bezeichnung": "Lohausstraße" }, "geometry": { "type": "Point", "coordinates": [ 7.197854921798812, 51.748301302366819 ] } },
{ "type": "Feature", "properties": { "strassenschluessel": "05562000001605420", "bezeichnung": "Lohkamp" }, "geometry": { "type": "Point", "coordinates": [ 7.178780961138869, 51.749973611895037 ] } },
{ "type": "Feature", "properties": { "strassenschluessel": "05562000001605440", "bezeichnung": "Lohstraße" }, "geometry": { "type": "Point", "coordinates": [ 7.183704697952797, 51.747698589699937 ] } },
{ "type": "Feature", "properties": { "strassenschluessel": "05562000001605460", "bezeichnung": "Lorenkamp" }, "geometry": { "type": "Point", "coordinates": [ 7.187131362197217, 51.733853065115589 ] } },
{ "type": "Feature", "properties": { "strassenschluessel": "05562000001605480", "bezeichnung": "Lünzumer Weg" }, "geometry": { "type": "Point", "coordinates": [ 7.155878870997789, 51.749317731232232 ] } },
{ "type": "Feature", "properties": { "strassenschluessel": "05562000001605500", "bezeichnung": "Marderweg" }, "geometry": { "type": "Point", "coordinates": [ 7.222024495465565, 51.763136651687653 ] } },
{ "type": "Feature", "properties": { "strassenschluessel": "05562000001605510", "bezeichnung": "Marienhof" }, "geometry": null },
{ "type": "Feature", "properties": { "strassenschluessel": "05562000001605518", "bezeichnung": "Markenkamp" }, "geometry": { "type": "Point", "coordinates": [ 7.164959737772228, 51.743862259736638 ] } },
{ "type": "Feature", "properties": { "strassenschluessel": "05562000001605520", "bezeichnung": "Markenweg" }, "geometry": null },
{ "type": "Feature", "properties": { "strassenschluessel": "05562000001605540", "bezeichnung": "Markt" }, "geometry": { "type": "Point", "coordinates": [ 7.18749582094632, 51.742985647510991 ] } },
{ "type": "Feature", "properties": { "strassenschluessel": "05562000001605560", "bezeichnung": "Marktstraße" }, "geometry": { "type": "Point", "coordinates": [ 7.224334893491859, 51.772829212103069 ] } },
{ "type": "Feature", "properties": { "strassenschluessel": "05562000001605580", "bezeichnung": "Marler Straße" }, "geometry": { "type": "Point", "coordinates": [ 7.168223433536901, 51.720030009815964 ] } },
{ "type": "Feature", "properties": { "strassenschluessel": "05562000001605590", "bezeichnung": "Maximilian-Kolbe-Straße" }, "geometry": { "type": "Point", "coordinates": [ 7.220144306625063, 51.776765364966906 ] } },
{ "type": "Feature", "properties": { "strassenschluessel": "05562000001605600", "bezeichnung": "Meisenweg" }, "geometry": { "type": "Point", "coordinates": [ 7.159835390656258, 51.741750376364621 ] } },
{ "type": "Feature", "properties": { "strassenschluessel": "05562000001605620", "bezeichnung": "Melchersstraße" }, "geometry": { "type": "Point", "coordinates": [ 7.178768525550534, 51.748893746551772 ] } },
{ "type": "Feature", "properties": { "strassenschluessel": "05562000001605640", "bezeichnung": "Melkenweg" }, "geometry": { "type": "Point", "coordinates": [ 7.226989881795174, 51.776122154885876 ] } },
{ "type": "Feature", "properties": { "strassenschluessel": "05562000001605660", "bezeichnung": "Memelstraße" }, "geometry": { "type": "Point", "coordinates": [ 7.183463796380959, 51.750232771645742 ] } },
{ "type": "Feature", "properties": { "strassenschluessel": "05562000001605680", "bezeichnung": "Merfelder Straße" }, "geometry": { "type": "Point", "coordinates": [ 7.168644043901166, 51.787105894805947 ] } },
{ "type": "Feature", "properties": { "strassenschluessel": "05562000001605700", "bezeichnung": "Merschstraße" }, "geometry": { "type": "Point", "coordinates": [ 7.186745324124026, 51.742847652883214 ] } },
{ "type": "Feature", "properties": { "strassenschluessel": "05562000001605720", "bezeichnung": "Mosskamp" }, "geometry": { "type": "Point", "coordinates": [ 7.22085459055261, 51.776055618739043 ] } },
{ "type": "Feature", "properties": { "strassenschluessel": "05562000001605740", "bezeichnung": "Mühlenstraße" }, "geometry": { "type": "Point", "coordinates": [ 7.188050074119087, 51.743742993054234 ] } },
{ "type": "Feature", "properties": { "strassenschluessel": "05562000001605760", "bezeichnung": "Mühlenweg" }, "geometry": { "type": "Point", "coordinates": [ 7.112642339254353, 51.718475803775583 ] } },
{ "type": "Feature", "properties": { "strassenschluessel": "05562000001605780", "bezeichnung": "Münsterknapp" }, "geometry": { "type": "Point", "coordinates": [ 7.195880914222376, 51.752489066056853 ] } },
{ "type": "Feature", "properties": { "strassenschluessel": "05562000001605800", "bezeichnung": "Münsterstraße" }, "geometry": null },
{ "type": "Feature", "properties": { "strassenschluessel": "05562000001605820", "bezeichnung": "Münsterstraße" }, "geometry": { "type": "Point", "coordinates": [ 7.20586241485847, 51.778853394022974 ] } },
{ "type": "Feature", "properties": { "strassenschluessel": "05562000001605830", "bezeichnung": "Muttergottesstiege" }, "geometry": { "type": "Point", "coordinates": [ 7.183512218498552, 51.744549803037089 ] } },
{ "type": "Feature", "properties": { "strassenschluessel": "05562000001605840", "bezeichnung": "Nachtigallenweg" }, "geometry": { "type": "Point", "coordinates": [ 7.161910580300074, 51.742709564737524 ] } },
{ "type": "Feature", "properties": { "strassenschluessel": "05562000001605860", "bezeichnung": "Napoleonsweg" }, "geometry": { "type": "Point", "coordinates": [ 7.154013239292258, 51.780938529947363 ] } },
{ "type": "Feature", "properties": { "strassenschluessel": "05562000001605880", "bezeichnung": "Nelkenstraße" }, "geometry": { "type": "Point", "coordinates": [ 7.164147929888074, 51.780573003108358 ] } },
{ "type": "Feature", "properties": { "strassenschluessel": "05562000001605900", "bezeichnung": "Neuer Kamp" }, "geometry": { "type": "Point", "coordinates": [ 7.122213044863534, 51.725004366145996 ] } },
{ "type": "Feature", "properties": { "strassenschluessel": "05562000001605920", "bezeichnung": "Niehuser Weg" }, "geometry": { "type": "Point", "coordinates": [ 7.229420188129399, 51.785078792785605 ] } },
{ "type": "Feature", "properties": { "strassenschluessel": "05562000001605940", "bezeichnung": "Nordwall" }, "geometry": { "type": "Point", "coordinates": [ 7.188881772157862, 51.745589509115533 ] } },
{ "type": "Feature", "properties": { "strassenschluessel": "05562000001605960", "bezeichnung": "Oderstraße" }, "geometry": { "type": "Point", "coordinates": [ 7.183379127667889, 51.751032864834173 ] } },
{ "type": "Feature", "properties": { "strassenschluessel": "05562000001605980", "bezeichnung": "Oelder Weg" }, "geometry": { "type": "Point", "coordinates": [ 7.110334329705694, 51.705420199467049 ] } },
{ "type": "Feature", "properties": { "strassenschluessel": "05562000001606000", "bezeichnung": "Ölmühle" }, "geometry": { "type": "Point", "coordinates": [ 7.205078326388639, 51.752544685973085 ] } },
{ "type": "Feature", "properties": { "strassenschluessel": "05562000001606020", "bezeichnung": "Örter Pütt" }, "geometry": { "type": "Point", "coordinates": [ 7.218010203271721, 51.722666158859752 ] } },
{ "type": "Feature", "properties": { "strassenschluessel": "05562000001606040", "bezeichnung": "Offenbergstraße" }, "geometry": { "type": "Point", "coordinates": [ 7.181896811110022, 51.750165454199646 ] } },
{ "type": "Feature", "properties": { "strassenschluessel": "05562000001606060", "bezeichnung": "Ostendorfer Straße" }, "geometry": { "type": "Point", "coordinates": [ 7.112304369931409, 51.724152682457152 ] } },
{ "type": "Feature", "properties": { "strassenschluessel": "05562000001606080", "bezeichnung": "Otterweg" }, "geometry": { "type": "Point", "coordinates": [ 7.221207044363782, 51.762535328572802 ] } },
{ "type": "Feature", "properties": { "strassenschluessel": "05562000001606100", "bezeichnung": "Otto-von-Ravensberg-Straße" }, "geometry": { "type": "Point", "coordinates": [ 7.226850256672751, 51.718187812406612 ] } },
{ "type": "Feature", "properties": { "strassenschluessel": "05562000001606110", "bezeichnung": "Papenbrückstraße" }, "geometry": { "type": "Point", "coordinates": [ 7.189460296026263, 51.733619610192797 ] } },
{ "type": "Feature", "properties": { "strassenschluessel": "05562000001606120", "bezeichnung": "Parkstraße" }, "geometry": { "type": "Point", "coordinates": [ 7.115199770857382, 51.721079984478429 ] } },
{ "type": "Feature", "properties": { "strassenschluessel": "05562000001606140", "bezeichnung": "Pastoratsweg" }, "geometry": { "type": "Point", "coordinates": [ 7.096393916911919, 51.714391420214596 ] } },
{ "type": "Feature", "properties": { "strassenschluessel": "05562000001606150", "bezeichnung": "Pastors Gräfte" }, "geometry": { "type": "Point", "coordinates": [ 7.096087869811152, 51.712372848651484 ] } },
{ "type": "Feature", "properties": { "strassenschluessel": "05562000001606160", "bezeichnung": "Philippistraße" }, "geometry": { "type": "Point", "coordinates": [ 7.179213559451661, 51.73849417906186 ] } },
{ "type": "Feature", "properties": { "strassenschluessel": "05562000001606180", "bezeichnung": "Pirmasensstraße" }, "geometry": { "type": "Point", "coordinates": [ 7.159317898308503, 51.737918065865394 ] } },
{ "type": "Feature", "properties": { "strassenschluessel": "05562000001606200", "bezeichnung": "Pitter-Bey-Straße" }, "geometry": { "type": "Point", "coordinates": [ 7.173430099633232, 51.736158786324431 ] } },
{ "type": "Feature", "properties": { "strassenschluessel": "05562000001606210", "bezeichnung": "Plaggenheide" }, "geometry": { "type": "Point", "coordinates": [ 7.172549718052992, 51.749147295422269 ] } },
{ "type": "Feature", "properties": { "strassenschluessel": "05562000001606220", "bezeichnung": "Postweg" }, "geometry": { "type": "Point", "coordinates": [ 7.184846327299883, 51.741265451427324 ] } },
{ "type": "Feature", "properties": { "strassenschluessel": "05562000001606240", "bezeichnung": "Pregelstraße" }, "geometry": { "type": "Point", "coordinates": [ 7.18558401511017, 51.749927064852066 ] } },
{ "type": "Feature", "properties": { "strassenschluessel": "05562000001606260", "bezeichnung": "Prozessionsweg" }, "geometry": null },
{ "type": "Feature", "properties": { "strassenschluessel": "05562000001606280", "bezeichnung": "Prozessionsweg" }, "geometry": { "type": "Point", "coordinates": [ 7.189922421503193, 51.759035670086533 ] } },
{ "type": "Feature", "properties": { "strassenschluessel": "05562000001606290", "bezeichnung": "Quarzwerkstraße" }, "geometry": { "type": "Point", "coordinates": [ 7.256361664635938, 51.797282365027236 ] } },
{ "type": "Feature", "properties": { "strassenschluessel": "05562000001606295", "bezeichnung": "Raiffeisenplatz" }, "geometry": { "type": "Point", "coordinates": [ 7.189540347066088, 51.74548405214351 ] } },
{ "type": "Feature", "properties": { "strassenschluessel": "05562000001606300", "bezeichnung": "Rebhuhnweg" }, "geometry": { "type": "Point", "coordinates": [ 7.219427768523071, 51.760315206385364 ] } },
{ "type": "Feature", "properties": { "strassenschluessel": "05562000001606310", "bezeichnung": "Recklinghäuser Damm" }, "geometry": null },
{ "type": "Feature", "properties": { "strassenschluessel": "05562000001606320", "bezeichnung": "Recklinghäuser Straße" }, "geometry": null },
{ "type": "Feature", "properties": { "strassenschluessel": "05562000001606321", "bezeichnung": "Recklinghäuser Straße" }, "geometry": { "type": "Point", "coordinates": [ 7.190875507975929, 51.712990239272621 ] } },
{ "type": "Feature", "properties": { "strassenschluessel": "05562000001606340", "bezeichnung": "Rehweg" }, "geometry": { "type": "Point", "coordinates": [ 7.221521736818682, 51.763505589193585 ] } },
{ "type": "Feature", "properties": { "strassenschluessel": "05562000001606360", "bezeichnung": "Rehwinkel" }, "geometry": { "type": "Point", "coordinates": [ 7.298409501203968, 51.733977981370053 ] } },
{ "type": "Feature", "properties": { "strassenschluessel": "05562000001606380", "bezeichnung": "Reiherhorst" }, "geometry": { "type": "Point", "coordinates": [ 7.231663229351729, 51.771562862769251 ] } },
{ "type": "Feature", "properties": { "strassenschluessel": "05562000001606400", "bezeichnung": "Reinhard-Freericks-Straße" }, "geometry": { "type": "Point", "coordinates": [ 7.179656775188199, 51.748759999199429 ] } },
{ "type": "Feature", "properties": { "strassenschluessel": "05562000001606420", "bezeichnung": "Rekener Straße" }, "geometry": { "type": "Point", "coordinates": [ 7.130870949475034, 51.781336188771952 ] } },
{ "type": "Feature", "properties": { "strassenschluessel": "05562000001606440", "bezeichnung": "Rekumer Straße" }, "geometry": { "type": "Point", "coordinates": [ 7.185958868166278, 51.743913261679779 ] } },
{ "type": "Feature", "properties": { "strassenschluessel": "05562000001606460", "bezeichnung": "Richthof" }, "geometry": { "type": "Point", "coordinates": [ 7.188290584583961, 51.74191707227962 ] } },
{ "type": "Feature", "properties": { "strassenschluessel": "05562000001606480", "bezeichnung": "Ringstraße" }, "geometry": { "type": "Point", "coordinates": [ 7.288271587660471, 51.735593365296914 ] } },
{ "type": "Feature", "properties": { "strassenschluessel": "05562000001606500", "bezeichnung": "Ritterlingstraße" }, "geometry": { "type": "Point", "coordinates": [ 7.177352173916798, 51.740267452626924 ] } },
{ "type": "Feature", "properties": { "strassenschluessel": "05562000001606505", "bezeichnung": "Rochfordstraße" }, "geometry": { "type": "Point", "coordinates": [ 7.186128152985498, 51.741768777422543 ] } },
{ "type": "Feature", "properties": { "strassenschluessel": "05562000001606510", "bezeichnung": "Röhrkesweg" }, "geometry": { "type": "Point", "coordinates": [ 7.219097460745983, 51.781852213366101 ] } },
{ "type": "Feature", "properties": { "strassenschluessel": "05562000001606520", "bezeichnung": "Römerstraße" }, "geometry": { "type": "Point", "coordinates": [ 7.176045167788347, 51.744985021105492 ] } },
{ "type": "Feature", "properties": { "strassenschluessel": "05562000001606540", "bezeichnung": "Römerweg" }, "geometry": { "type": "Point", "coordinates": [ 7.190556105769607, 51.725056927676974 ] } },
{ "type": "Feature", "properties": { "strassenschluessel": "05562000001606550", "bezeichnung": "Roost-Warendin-Platz" }, "geometry": { "type": "Point", "coordinates": [ 7.184091668855086, 51.737943199482011 ] } },
{ "type": "Feature", "properties": { "strassenschluessel": "05562000001606560", "bezeichnung": "Rosenhof" }, "geometry": { "type": "Point", "coordinates": [ 7.176983634363339, 51.748510112902494 ] } },
{ "type": "Feature", "properties": { "strassenschluessel": "05562000001606580", "bezeichnung": "Rosenkamp" }, "geometry": { "type": "Point", "coordinates": [ 7.086814546017535, 51.721327262748915 ] } },
{ "type": "Feature", "properties": { "strassenschluessel": "05562000001606600", "bezeichnung": "Rosenstraße" }, "geometry": { "type": "Point", "coordinates": [ 7.163103431082067, 51.781473726142146 ] } },
{ "type": "Feature", "properties": { "strassenschluessel": "05562000001606620", "bezeichnung": "Rosenweg" }, "geometry": { "type": "Point", "coordinates": [ 7.228211725354685, 51.775615726365722 ] } },
{ "type": "Feature", "properties": { "strassenschluessel": "05562000001606640", "bezeichnung": "Rotdornweg" }, "geometry": { "type": "Point", "coordinates": [ 7.227155413693093, 51.77170711602988 ] } },
{ "type": "Feature", "properties": { "strassenschluessel": "05562000001606680", "bezeichnung": "Saarbrückenstraße" }, "geometry": { "type": "Point", "coordinates": [ 7.16021080392855, 51.738211716018057 ] } },
{ "type": "Feature", "properties": { "strassenschluessel": "05562000001606700", "bezeichnung": "Saarlauternstraße" }, "geometry": { "type": "Point", "coordinates": [ 7.160935393389662, 51.739184693205161 ] } },
{ "type": "Feature", "properties": { "strassenschluessel": "05562000001606720", "bezeichnung": "Saarplatz" }, "geometry": { "type": "Point", "coordinates": [ 7.16437946661536, 51.738144567928607 ] } },
{ "type": "Feature", "properties": { "strassenschluessel": "05562000001606730", "bezeichnung": "Sachsenbogen" }, "geometry": { "type": "Point", "coordinates": [ 7.234349479051843, 51.715899340516614 ] } },
{ "type": "Feature", "properties": { "strassenschluessel": "05562000001606740", "bezeichnung": "Sandstraße" }, "geometry": { "type": "Point", "coordinates": [ 7.082410179447463, 51.709716445004183 ] } },
{ "type": "Feature", "properties": { "strassenschluessel": "05562000001606760", "bezeichnung": "Sandweg" }, "geometry": null },
{ "type": "Feature", "properties": { "strassenschluessel": "05562000001606780", "bezeichnung": "Schalenweg" }, "geometry": { "type": "Point", "coordinates": [ 7.16885300526525, 51.736515066160734 ] } },
{ "type": "Feature", "properties": { "strassenschluessel": "05562000001606800", "bezeichnung": "Schalweg" }, "geometry": { "type": "Point", "coordinates": [ 7.225391431966343, 51.772601864780839 ] } },
{ "type": "Feature", "properties": { "strassenschluessel": "05562000001606820", "bezeichnung": "Schildstölken" }, "geometry": { "type": "Point", "coordinates": [ 7.182154774278341, 51.748180875549423 ] } },
{ "type": "Feature", "properties": { "strassenschluessel": "05562000001606825", "bezeichnung": "Schillerstraße" }, "geometry": { "type": "Point", "coordinates": [ 7.183989890115386, 51.753750274066043 ] } },
{ "type": "Feature", "properties": { "strassenschluessel": "05562000001606830", "bezeichnung": "Schleusenweg" }, "geometry": { "type": "Point", "coordinates": [ 7.242512665889806, 51.716812891799506 ] } },
{ "type": "Feature", "properties": { "strassenschluessel": "05562000001606835", "bezeichnung": "Schlingenkamp" }, "geometry": { "type": "Point", "coordinates": [ 7.218527555944062, 51.782453777089387 ] } },
{ "type": "Feature", "properties": { "strassenschluessel": "05562000001606840", "bezeichnung": "Schmeddingstraße" }, "geometry": { "type": "Point", "coordinates": [ 7.182974887101928, 51.742808919438076 ] } },
{ "type": "Feature", "properties": { "strassenschluessel": "05562000001606860", "bezeichnung": "Schmiedestraße" }, "geometry": { "type": "Point", "coordinates": [ 7.291012374597933, 51.733783682440801 ] } },
{ "type": "Feature", "properties": { "strassenschluessel": "05562000001606880", "bezeichnung": "Schuchhardtstraße" }, "geometry": { "type": "Point", "coordinates": [ 7.178333715270205, 51.740150189555095 ] } },
{ "type": "Feature", "properties": { "strassenschluessel": "05562000001606890", "bezeichnung": "Schürstatt" }, "geometry": { "type": "Point", "coordinates": [ 7.290261127796287, 51.737456895898788 ] } },
{ "type": "Feature", "properties": { "strassenschluessel": "05562000001606900", "bezeichnung": "Schüttenwall" }, "geometry": { "type": "Point", "coordinates": [ 7.190483137185998, 51.743583626697323 ] } },
{ "type": "Feature", "properties": { "strassenschluessel": "05562000001606920", "bezeichnung": "Schützenstraße" }, "geometry": { "type": "Point", "coordinates": [ 7.164345675136356, 51.78428245966473 ] } },
{ "type": "Feature", "properties": { "strassenschluessel": "05562000001606940", "bezeichnung": "Schulstraße" }, "geometry": { "type": "Point", "coordinates": [ 7.29384484935673, 51.737036831262067 ] } },
{ "type": "Feature", "properties": { "strassenschluessel": "05562000001606960", "bezeichnung": "Schultenbusch" }, "geometry": { "type": "Point", "coordinates": [ 7.19924593752562, 51.752733154496489 ] } },
{ "type": "Feature", "properties": { "strassenschluessel": "05562000001606980", "bezeichnung": "Schwalbenweg" }, "geometry": { "type": "Point", "coordinates": [ 7.160103437559378, 51.743057280793394 ] } },
{ "type": "Feature", "properties": { "strassenschluessel": "05562000001607000", "bezeichnung": "Seestraße" }, "geometry": { "type": "Point", "coordinates": [ 7.201662737204408, 51.749652924246803 ] } },
{ "type": "Feature", "properties": { "strassenschluessel": "05562000001607020", "bezeichnung": "Sixtusstraße" }, "geometry": { "type": "Point", "coordinates": [ 7.198565422789619, 51.747226987696877 ] } },
{ "type": "Feature", "properties": { "strassenschluessel": "05562000001607025", "bezeichnung": "Sophie-Scholl-Straße" }, "geometry": { "type": "Point", "coordinates": [ 7.226467224712344, 51.777655299085161 ] } },
{ "type": "Feature", "properties": { "strassenschluessel": "05562000001607030", "bezeichnung": "Speicherstraße" }, "geometry": { "type": "Point", "coordinates": [ 7.189531829666399, 51.752440199214398 ] } },
{ "type": "Feature", "properties": { "strassenschluessel": "05562000001607040", "bezeichnung": "Steffens Hof" }, "geometry": { "type": "Point", "coordinates": [ 7.225010250271381, 51.784986554257557 ] } },
{ "type": "Feature", "properties": { "strassenschluessel": "05562000001607060", "bezeichnung": "Stettiner Straße" }, "geometry": { "type": "Point", "coordinates": [ 7.194266948975133, 51.744105224597782 ] } },
{ "type": "Feature", "properties": { "strassenschluessel": "05562000001607080", "bezeichnung": "St.-Florian-Straße" }, "geometry": { "type": "Point", "coordinates": [ 7.093994456147674, 51.714775034678837 ] } },
{ "type": "Feature", "properties": { "strassenschluessel": "05562000001607100", "bezeichnung": "Stiftsplatz" }, "geometry": { "type": "Point", "coordinates": [ 7.233118800078794, 51.719969187322533 ] } },
{ "type": "Feature", "properties": { "strassenschluessel": "05562000001607120", "bezeichnung": "St.-Ingbert-Straße" }, "geometry": { "type": "Point", "coordinates": [ 7.165658340202648, 51.739980751449139 ] } },
{ "type": "Feature", "properties": { "strassenschluessel": "05562000001607140", "bezeichnung": "Stockwieser Damm" }, "geometry": { "type": "Point", "coordinates": [ 7.242347088283765, 51.746715652903227 ] } },
{ "type": "Feature", "properties": { "strassenschluessel": "05562000001607160", "bezeichnung": "Stockwieser Kamp" }, "geometry": { "type": "Point", "coordinates": [ 7.230423305437494, 51.767310097375081 ] } },
{ "type": "Feature", "properties": { "strassenschluessel": "05562000001607180", "bezeichnung": "Strandallee" }, "geometry": { "type": "Point", "coordinates": [ 7.209948476544597, 51.753299967357421 ] } },
{ "type": "Feature", "properties": { "strassenschluessel": "05562000001607220", "bezeichnung": "Strübings Heide" }, "geometry": { "type": "Point", "coordinates": [ 7.292652754482319, 51.734449913552794 ] } },
{ "type": "Feature", "properties": { "strassenschluessel": "05562000001607240", "bezeichnung": "Südwall" }, "geometry": { "type": "Point", "coordinates": [ 7.188239075593594, 51.741710711766522 ] } },
{ "type": "Feature", "properties": { "strassenschluessel": "05562000001607245", "bezeichnung": "Sundernkamp" }, "geometry": { "type": "Point", "coordinates": [ 7.173082279066614, 51.751861895302113 ] } },
{ "type": "Feature", "properties": { "strassenschluessel": "05562000001607250", "bezeichnung": "Sundernstege" }, "geometry": { "type": "Point", "coordinates": [ 7.173957971279538, 51.751769801114698 ] } },
{ "type": "Feature", "properties": { "strassenschluessel": "05562000001607260", "bezeichnung": "Sundernstraße" }, "geometry": { "type": "Point", "coordinates": [ 7.167558052163328, 51.75458088874759 ] } },
{ "type": "Feature", "properties": { "strassenschluessel": "05562000001607280", "bezeichnung": "Sundernweg" }, "geometry": { "type": "Point", "coordinates": [ 7.148476221179367, 51.776096993508737 ] } },
{ "type": "Feature", "properties": { "strassenschluessel": "05562000001607300", "bezeichnung": "Sythener Straße" }, "geometry": null },
{ "type": "Feature", "properties": { "strassenschluessel": "05562000001607320", "bezeichnung": "Sythener Straße" }, "geometry": { "type": "Point", "coordinates": [ 7.248650533538345, 51.769531736330045 ] } },
{ "type": "Feature", "properties": { "strassenschluessel": "05562000001607340", "bezeichnung": "Talstraße" }, "geometry": { "type": "Point", "coordinates": [ 7.156337558758795, 51.780170454994163 ] } },
{ "type": "Feature", "properties": { "strassenschluessel": "05562000001607360", "bezeichnung": "Tannenberger Weg" }, "geometry": { "type": "Point", "coordinates": [ 7.11205307878306, 51.745118974589744 ] } },
{ "type": "Feature", "properties": { "strassenschluessel": "05562000001607380", "bezeichnung": "Tannenstraße" }, "geometry": { "type": "Point", "coordinates": [ 7.171100278165251, 51.747011464616996 ] } },
{ "type": "Feature", "properties": { "strassenschluessel": "05562000001607400", "bezeichnung": "Terwellenweg" }, "geometry": { "type": "Point", "coordinates": [ 7.291085649574918, 51.736808353177928 ] } },
{ "type": "Feature", "properties": { "strassenschluessel": "05562000001607420", "bezeichnung": "Theodor-Körner-Straße" }, "geometry": { "type": "Point", "coordinates": [ 7.187470243227295, 51.749501277343285 ] } },
{ "type": "Feature", "properties": { "strassenschluessel": "05562000001607440", "bezeichnung": "Thiestraße" }, "geometry": { "type": "Point", "coordinates": [ 7.221743721520604, 51.771994206057336 ] } },
{ "type": "Feature", "properties": { "strassenschluessel": "05562000001607460", "bezeichnung": "Thusneldastraße" }, "geometry": { "type": "Point", "coordinates": [ 7.17126777476092, 51.742535677565229 ] } },
{ "type": "Feature", "properties": { "strassenschluessel": "05562000001607480", "bezeichnung": "Tiberiusstraße" }, "geometry": { "type": "Point", "coordinates": [ 7.174843647501862, 51.743977755797665 ] } },
{ "type": "Feature", "properties": { "strassenschluessel": "05562000001607500", "bezeichnung": "Tuchmacherweg" }, "geometry": { "type": "Point", "coordinates": [ 7.195917560969019, 51.748089387504578 ] } },
{ "type": "Feature", "properties": { "strassenschluessel": "05562000001607520", "bezeichnung": "Tulpenweg" }, "geometry": { "type": "Point", "coordinates": [ 7.22766766316522, 51.775171234578423 ] } },
{ "type": "Feature", "properties": { "strassenschluessel": "05562000001607530", "bezeichnung": "Tumulifeld" }, "geometry": { "type": "Point", "coordinates": [ 7.161149822066099, 51.736050057305043 ] } },
{ "type": "Feature", "properties": { "strassenschluessel": "05562000001607540", "bezeichnung": "Turmstraße" }, "geometry": { "type": "Point", "coordinates": [ 7.184320827561382, 51.743286396072357 ] } },
{ "type": "Feature", "properties": { "strassenschluessel": "05562000001607560", "bezeichnung": "Ulmenhof" }, "geometry": { "type": "Point", "coordinates": [ 7.16812838274851, 51.747099534237364 ] } },
{ "type": "Feature", "properties": { "strassenschluessel": "05562000001607580", "bezeichnung": "Uphuser Straße" }, "geometry": { "type": "Point", "coordinates": [ 7.2174277761201, 51.771541192318992 ] } },
{ "type": "Feature", "properties": { "strassenschluessel": "05562000001607600", "bezeichnung": "Varusstraße" }, "geometry": { "type": "Point", "coordinates": [ 7.172893971728595, 51.741492308709269 ] } },
{ "type": "Feature", "properties": { "strassenschluessel": "05562000001607620", "bezeichnung": "Viktorsweg" }, "geometry": { "type": "Point", "coordinates": [ 7.228787985474168, 51.765566131158607 ] } },
{ "type": "Feature", "properties": { "strassenschluessel": "05562000001607630", "bezeichnung": "Visbystraße" }, "geometry": { "type": "Point", "coordinates": [ 7.187136985812952, 51.753584255808896 ] } },
{ "type": "Feature", "properties": { "strassenschluessel": "05562000001607640", "bezeichnung": "Völklingenstraße" }, "geometry": { "type": "Point", "coordinates": [ 7.161892771745075, 51.737644495926247 ] } },
{ "type": "Feature", "properties": { "strassenschluessel": "05562000001607680", "bezeichnung": "Von-Galen-Straße" }, "geometry": { "type": "Point", "coordinates": [ 7.222505344158412, 51.774686471962134 ] } },
{ "type": "Feature", "properties": { "strassenschluessel": "05562000001607700", "bezeichnung": "Wacholderstraße" }, "geometry": { "type": "Point", "coordinates": [ 7.219357490172366, 51.785139927586805 ] } },
{ "type": "Feature", "properties": { "strassenschluessel": "05562000001607720", "bezeichnung": "Waldstraße" }, "geometry": { "type": "Point", "coordinates": [ 7.152499763361868, 51.750004268383073 ] } },
{ "type": "Feature", "properties": { "strassenschluessel": "05562000001607740", "bezeichnung": "Waldweg" }, "geometry": { "type": "Point", "coordinates": [ 7.106203374659983, 51.730031760525151 ] } },
{ "type": "Feature", "properties": { "strassenschluessel": "05562000001607760", "bezeichnung": "Wallweg" }, "geometry": { "type": "Point", "coordinates": [ 7.227522710935339, 51.765055255866187 ] } },
{ "type": "Feature", "properties": { "strassenschluessel": "05562000001607780", "bezeichnung": "Wasserwerkstraße" }, "geometry": { "type": "Point", "coordinates": [ 7.191342363403215, 51.737599654530847 ] } },
{ "type": "Feature", "properties": { "strassenschluessel": "05562000001607800", "bezeichnung": "Wehrstraße" }, "geometry": { "type": "Point", "coordinates": [ 7.188511582719637, 51.744807983624987 ] } },
{ "type": "Feature", "properties": { "strassenschluessel": "05562000001607810", "bezeichnung": "Weideweg" }, "geometry": { "type": "Point", "coordinates": [ 7.226449954398523, 51.773002012607741 ] } },
{ "type": "Feature", "properties": { "strassenschluessel": "05562000001607820", "bezeichnung": "Wellenbogen" }, "geometry": { "type": "Point", "coordinates": [ 7.227406507997149, 51.789215758718477 ] } },
{ "type": "Feature", "properties": { "strassenschluessel": "05562000001607840", "bezeichnung": "Werkstraße" }, "geometry": { "type": "Point", "coordinates": [ 7.21331461373276, 51.785179066222121 ] } },
{ "type": "Feature", "properties": { "strassenschluessel": "05562000001607860", "bezeichnung": "Weseler Straße" }, "geometry": null },
{ "type": "Feature", "properties": { "strassenschluessel": "05562000001607880", "bezeichnung": "Weseler Straße" }, "geometry": { "type": "Point", "coordinates": [ 7.117436621880463, 51.726907936018684 ] } },
{ "type": "Feature", "properties": { "strassenschluessel": "05562000001607900", "bezeichnung": "Westruper Straße" }, "geometry": { "type": "Point", "coordinates": [ 7.291065450075867, 51.727012235645752 ] } },
{ "type": "Feature", "properties": { "strassenschluessel": "05562000001607905", "bezeichnung": "Widukindstraße" }, "geometry": { "type": "Point", "coordinates": [ 7.231448677899526, 51.715318940174924 ] } },
{ "type": "Feature", "properties": { "strassenschluessel": "05562000001607910", "bezeichnung": "Wiechertstraße" }, "geometry": { "type": "Point", "coordinates": [ 7.19886102182892, 51.748576950021743 ] } },
{ "type": "Feature", "properties": { "strassenschluessel": "05562000001607915", "bezeichnung": "Wielandstraße" }, "geometry": { "type": "Point", "coordinates": [ 7.181632382237876, 51.753368571843424 ] } },
{ "type": "Feature", "properties": { "strassenschluessel": "05562000001607920", "bezeichnung": "Wieselweg" }, "geometry": { "type": "Point", "coordinates": [ 7.221586251724873, 51.762003119356798 ] } },
{ "type": "Feature", "properties": { "strassenschluessel": "05562000001607940", "bezeichnung": "Wiesenstraße" }, "geometry": { "type": "Point", "coordinates": [ 7.102069276681854, 51.71169358985054 ] } },
{ "type": "Feature", "properties": { "strassenschluessel": "05562000001607945", "bezeichnung": "Wilhelm-Koch-Straße" }, "geometry": null },
{ "type": "Feature", "properties": { "strassenschluessel": "05562000001607950", "bezeichnung": "Wulfener Straße" }, "geometry": null },
{ "type": "Feature", "properties": { "strassenschluessel": "05562000001607960", "bezeichnung": "Zaunstraße" }, "geometry": { "type": "Point", "coordinates": [ 7.185657097822572, 51.742661428186487 ] } },
{ "type": "Feature", "properties": { "strassenschluessel": "05562000001607980", "bezeichnung": "Zu den Lippewiesen" }, "geometry": { "type": "Point", "coordinates": [ 7.185876622545508, 51.732947728899774 ] } },
{ "type": "Feature", "properties": { "strassenschluessel": "05562000001608000", "bezeichnung": "Zu den Mühlen" }, "geometry": { "type": "Point", "coordinates": [ 7.199482801135082, 51.748250101328978 ] } },
{ "type": "Feature", "properties": { "strassenschluessel": "05562000001608020", "bezeichnung": "Zum alten Hof" }, "geometry": { "type": "Point", "coordinates": [ 7.291228082729785, 51.7328451554921 ] } },
{ "type": "Feature", "properties": { "strassenschluessel": "05562000001608040", "bezeichnung": "Zum Blickpunkt" }, "geometry": { "type": "Point", "coordinates": [ 7.219317669363388, 51.770976393218831 ] } },
{ "type": "Feature", "properties": { "strassenschluessel": "05562000001608060", "bezeichnung": "Zum Büning" }, "geometry": { "type": "Point", "coordinates": [ 7.121711721586863, 51.740206863040413 ] } },
{ "type": "Feature", "properties": { "strassenschluessel": "05562000001608080", "bezeichnung": "Zum Dachsberg" },