{
"type": "FeatureCollection",
"features": [
{ "type": "Feature", "properties": { "strassenschluessel": "05554000002806501", "bezeichnung": "Alter Sportplatz" }, "geometry": { "type": "Point", "coordinates": [ 6.940678013889152, 51.823312344543176 ] } },
{ "type": "Feature", "properties": { "strassenschluessel": "05554000002806502", "bezeichnung": "Am Branden" }, "geometry": { "type": "Point", "coordinates": [ 6.940048016598036, 51.829396532517855 ] } },
{ "type": "Feature", "properties": { "strassenschluessel": "05554000002806503", "bezeichnung": "Am Buschbaum" }, "geometry": { "type": "Point", "coordinates": [ 6.931475186121885, 51.830204035999856 ] } },
{ "type": "Feature", "properties": { "strassenschluessel": "05554000002806504", "bezeichnung": "Am Friedhof" }, "geometry": { "type": "Point", "coordinates": [ 6.937094050849563, 51.825269232557112 ] } },
{ "type": "Feature", "properties": { "strassenschluessel": "05554000002806505", "bezeichnung": "Am Sportzentrum" }, "geometry": { "type": "Point", "coordinates": [ 6.93776428436931, 51.822157896806338 ] } },
{ "type": "Feature", "properties": { "strassenschluessel": "05554000002806506", "bezeichnung": "Auf dem Lohkamp" }, "geometry": { "type": "Point", "coordinates": [ 6.92753561649424, 51.827527639532263 ] } },
{ "type": "Feature", "properties": { "strassenschluessel": "05554000002806507", "bezeichnung": "Auf der Höhe" }, "geometry": { "type": "Point", "coordinates": [ 6.945991152408033, 51.829696484871121 ] } },
{ "type": "Feature", "properties": { "strassenschluessel": "05554000002806508", "bezeichnung": "Augustin-Wibbelt-Straße" }, "geometry": { "type": "Point", "coordinates": [ 6.942039404152947, 51.824270423609931 ] } },
{ "type": "Feature", "properties": { "strassenschluessel": "05554000002806509", "bezeichnung": "Bahnhofstraße" }, "geometry": { "type": "Point", "coordinates": [ 6.930470343392283, 51.824197529824332 ] } },
{ "type": "Feature", "properties": { "strassenschluessel": "05554000002806510", "bezeichnung": "Barbarastraße" }, "geometry": { "type": "Point", "coordinates": [ 6.94062562788483, 51.826672948680269 ] } },
{ "type": "Feature", "properties": { "strassenschluessel": "05554000002806511", "bezeichnung": "Beethovenstraße" }, "geometry": { "type": "Point", "coordinates": [ 6.926774093342415, 51.825585127479073 ] } },
{ "type": "Feature", "properties": { "strassenschluessel": "05554000002806512", "bezeichnung": "Bergstraße" }, "geometry": { "type": "Point", "coordinates": [ 6.942478999621564, 51.827158066888153 ] } },
{ "type": "Feature", "properties": { "strassenschluessel": "05554000002806513", "bezeichnung": "Birkenweg" }, "geometry": { "type": "Point", "coordinates": [ 6.917125773683924, 51.813689842727449 ] } },
{ "type": "Feature", "properties": { "strassenschluessel": "05554000002806514", "bezeichnung": "Borkener Straße" }, "geometry": { "type": "Point", "coordinates": [ 6.898946598373053, 51.830994301565418 ] } },
{ "type": "Feature", "properties": { "strassenschluessel": "05554000002806515", "bezeichnung": "Brookstegge" }, "geometry": { "type": "Point", "coordinates": [ 6.933495569321104, 51.825497954967084 ] } },
{ "type": "Feature", "properties": { "strassenschluessel": "05554000002806516", "bezeichnung": "Eichendorffstraße" }, "geometry": { "type": "Point", "coordinates": [ 6.932181966163379, 51.830672033627565 ] } },
{ "type": "Feature", "properties": { "strassenschluessel": "05554000002806517", "bezeichnung": "Elisabethstraße" }, "geometry": { "type": "Point", "coordinates": [ 6.944454438831849, 51.828569592650666 ] } },
{ "type": "Feature", "properties": { "strassenschluessel": "05554000002806518", "bezeichnung": "Friesenstraße" }, "geometry": { "type": "Point", "coordinates": [ 6.943260350616335, 51.822792840903546 ] } },
{ "type": "Feature", "properties": { "strassenschluessel": "05554000002806519", "bezeichnung": "Gartenstraße" }, "geometry": { "type": "Point", "coordinates": [ 6.927596669723433, 51.82782485131078 ] } },
{ "type": "Feature", "properties": { "strassenschluessel": "05554000002806520", "bezeichnung": "Bischof-Ketteler-Straße" }, "geometry": { "type": "Point", "coordinates": [ 6.935435145585869, 51.83113279108909 ] } },
{ "type": "Feature", "properties": { "strassenschluessel": "05554000002806521", "bezeichnung": "Georgstraße" }, "geometry": { "type": "Point", "coordinates": [ 6.938412802027708, 51.825808440603005 ] } },
{ "type": "Feature", "properties": { "strassenschluessel": "05554000002806522", "bezeichnung": "Gräfte" }, "geometry": { "type": "Point", "coordinates": [ 6.930652396306978, 51.8211008914353 ] } },
{ "type": "Feature", "properties": { "strassenschluessel": "05554000002806523", "bezeichnung": "Hedwigstraße" }, "geometry": { "type": "Point", "coordinates": [ 6.944619605791934, 51.82808757304096 ] } },
{ "type": "Feature", "properties": { "strassenschluessel": "05554000002806524", "bezeichnung": "Hospitalstraße" }, "geometry": { "type": "Point", "coordinates": [ 6.93221539778248, 51.824501304431728 ] } },
{ "type": "Feature", "properties": { "strassenschluessel": "05554000002806525", "bezeichnung": "Im Kiwitt" }, "geometry": { "type": "Point", "coordinates": [ 6.943320448295593, 51.825008821712672 ] } },
{ "type": "Feature", "properties": { "strassenschluessel": "05554000002806526", "bezeichnung": "Industriestraße" }, "geometry": { "type": "Point", "coordinates": [ 6.947880125936691, 51.823707919828259 ] } },
{ "type": "Feature", "properties": { "strassenschluessel": "05554000002806527", "bezeichnung": "Jahnstraße" }, "geometry": { "type": "Point", "coordinates": [ 6.942847700352479, 51.823396371178582 ] } },
{ "type": "Feature", "properties": { "strassenschluessel": "05554000002806528", "bezeichnung": "Jägerstraße" }, "geometry": { "type": "Point", "coordinates": [ 6.930793540784882, 51.825265749188382 ] } },
{ "type": "Feature", "properties": { "strassenschluessel": "05554000002806529", "bezeichnung": "Johannesstraße" }, "geometry": { "type": "Point", "coordinates": [ 6.936490933135099, 51.826421373520148 ] } },
{ "type": "Feature", "properties": { "strassenschluessel": "05554000002806530", "bezeichnung": "Josefstraße" }, "geometry": { "type": "Point", "coordinates": [ 6.936617715330506, 51.828725739293304 ] } },
{ "type": "Feature", "properties": { "strassenschluessel": "05554000002806531", "bezeichnung": "Kampstraße" }, "geometry": { "type": "Point", "coordinates": [ 6.941958805408543, 51.829339637661882 ] } },
{ "type": "Feature", "properties": { "strassenschluessel": "05554000002806532", "bezeichnung": "Don-Bosco-Straße" }, "geometry": { "type": "Point", "coordinates": [ 6.936561154691285, 51.831035708250909 ] } },
{ "type": "Feature", "properties": { "strassenschluessel": "05554000002806533", "bezeichnung": "Kilianstraße" }, "geometry": { "type": "Point", "coordinates": [ 6.941801643466149, 51.82635649071289 ] } },
{ "type": "Feature", "properties": { "strassenschluessel": "05554000002806534", "bezeichnung": "Bernhard-Letterhaus-Straße" }, "geometry": { "type": "Point", "coordinates": [ 6.937594837456337, 51.83231386855536 ] } },
{ "type": "Feature", "properties": { "strassenschluessel": "05554000002806535", "bezeichnung": "Knufdrees" }, "geometry": { "type": "Point", "coordinates": [ 6.939463082125281, 51.828248953702996 ] } },
{ "type": "Feature", "properties": { "strassenschluessel": "05554000002806536", "bezeichnung": "Kreuzweg" }, "geometry": { "type": "Point", "coordinates": [ 6.94687180992249, 51.829791379030368 ] } },
{ "type": "Feature", "properties": { "strassenschluessel": "05554000002806537", "bezeichnung": "Lembecker Straße" }, "geometry": { "type": "Point", "coordinates": [ 6.936958365241421, 51.824352349267301 ] } },
{ "type": "Feature", "properties": { "strassenschluessel": "05554000002806538", "bezeichnung": "Lindenstraße" }, "geometry": { "type": "Point", "coordinates": [ 6.929988158219238, 51.826541624164179 ] } },
{ "type": "Feature", "properties": { "strassenschluessel": "05554000002806539", "bezeichnung": "Lohauser Esch" }, "geometry": { "type": "Point", "coordinates": [ 6.923455504833003, 51.826268450790714 ] } },
{ "type": "Feature", "properties": { "strassenschluessel": "05554000002806540", "bezeichnung": "Luisenstraße" }, "geometry": { "type": "Point", "coordinates": [ 6.943189493142266, 51.828195770438093 ] } },
{ "type": "Feature", "properties": { "strassenschluessel": "05554000002806541", "bezeichnung": "Marienstraße" }, "geometry": { "type": "Point", "coordinates": [ 6.940201257903841, 51.82665010129746 ] } },
{ "type": "Feature", "properties": { "strassenschluessel": "05554000002806542", "bezeichnung": "Mergelkuhle" }, "geometry": { "type": "Point", "coordinates": [ 6.945084515097027, 51.829448337051986 ] } },
{ "type": "Feature", "properties": { "strassenschluessel": "05554000002806543", "bezeichnung": "Mozartstraße" }, "geometry": { "type": "Point", "coordinates": [ 6.932726119556634, 51.829709835479107 ] } },
{ "type": "Feature", "properties": { "strassenschluessel": "05554000002806544", "bezeichnung": "Mühlenweg" }, "geometry": { "type": "Point", "coordinates": [ 6.940781679328058, 51.824380187591643 ] } },
{ "type": "Feature", "properties": { "strassenschluessel": "05554000002806545", "bezeichnung": "Parkstraße" }, "geometry": { "type": "Point", "coordinates": [ 6.934211678828128, 51.824364306667029 ] } },
{ "type": "Feature", "properties": { "strassenschluessel": "05554000002806546", "bezeichnung": "Pastoratsweg" }, "geometry": { "type": "Point", "coordinates": [ 6.932367023889733, 51.823426450004803 ] } },
{ "type": "Feature", "properties": { "strassenschluessel": "05554000002806547", "bezeichnung": "Rathausplatz" }, "geometry": { "type": "Point", "coordinates": [ 6.933851779230868, 51.826022009575219 ] } },
{ "type": "Feature", "properties": { "strassenschluessel": "05554000002806548", "bezeichnung": "Rekener Straße" }, "geometry": { "type": "Point", "coordinates": [ 6.941129756879367, 51.825325092528686 ] } },
{ "type": "Feature", "properties": { "strassenschluessel": "05554000002806549", "bezeichnung": "Adolf-Kolping-Straße" }, "geometry": { "type": "Point", "coordinates": [ 6.934680415977469, 51.832209402255309 ] } },
{ "type": "Feature", "properties": { "strassenschluessel": "05554000002806550", "bezeichnung": "Sandstraße" }, "geometry": { "type": "Point", "coordinates": [ 6.943902799911983, 51.82910773923129 ] } },
{ "type": "Feature", "properties": { "strassenschluessel": "05554000002806551", "bezeichnung": "Schubertstraße" }, "geometry": { "type": "Point", "coordinates": [ 6.927657100765978, 51.825165983461659 ] } },
{ "type": "Feature", "properties": { "strassenschluessel": "05554000002806552", "bezeichnung": "Steinstraße" }, "geometry": { "type": "Point", "coordinates": [ 6.942357562099612, 51.829474095869074 ] } },
{ "type": "Feature", "properties": { "strassenschluessel": "05554000002806553", "bezeichnung": "Up de Worte" }, "geometry": { "type": "Point", "coordinates": [ 6.931839925009587, 51.828409873066228 ] } },
{ "type": "Feature", "properties": { "strassenschluessel": "05554000002806554", "bezeichnung": "Velener Straße" }, "geometry": { "type": "Point", "coordinates": [ 6.932392912007982, 51.827446680607395 ] } },
{ "type": "Feature", "properties": { "strassenschluessel": "05554000002806555", "bezeichnung": "Wilhelmstraße" }, "geometry": { "type": "Point", "coordinates": [ 6.941701372687628, 51.827582880366812 ] } },
{ "type": "Feature", "properties": { "strassenschluessel": "05554000002806556", "bezeichnung": "Alter Kirchplatz" }, "geometry": { "type": "Point", "coordinates": [ 6.931639351326274, 51.826126566830382 ] } },
{ "type": "Feature", "properties": { "strassenschluessel": "05554000002806557", "bezeichnung": "Akazienstraße" }, "geometry": { "type": "Point", "coordinates": [ 6.932753136739378, 51.828507397461784 ] } },
{ "type": "Feature", "properties": { "strassenschluessel": "05554000002806558", "bezeichnung": "Bloden Acker" }, "geometry": { "type": "Point", "coordinates": [ 6.914739807018695, 51.821995571980466 ] } },
{ "type": "Feature", "properties": { "strassenschluessel": "05554000002806559", "bezeichnung": "Bökenholt" }, "geometry": { "type": "Point", "coordinates": [ 6.977846114055044, 51.816647801715327 ] } },
{ "type": "Feature", "properties": { "strassenschluessel": "05554000002806560", "bezeichnung": "Böster Hook" }, "geometry": { "type": "Point", "coordinates": [ 6.955087403812289, 51.800659121865017 ] } },
{ "type": "Feature", "properties": { "strassenschluessel": "05554000002806561", "bezeichnung": "Buchenstraße" }, "geometry": { "type": "Point", "coordinates": [ 6.930871230827137, 51.828460561404199 ] } },
{ "type": "Feature", "properties": { "strassenschluessel": "05554000002806562", "bezeichnung": "Buschhausen" }, "geometry": { "type": "Point", "coordinates": [ 6.932637084823583, 51.806382354319588 ] } },
{ "type": "Feature", "properties": { "strassenschluessel": "05554000002806563", "bezeichnung": "Deel" }, "geometry": { "type": "Point", "coordinates": [ 6.949649124828334, 51.834728594193322 ] } },
{ "type": "Feature", "properties": { "strassenschluessel": "05554000002806564", "bezeichnung": "Dorstener Landweg" }, "geometry": { "type": "Point", "coordinates": [ 6.942373895503574, 51.803050658349747 ] } },
{ "type": "Feature", "properties": { "strassenschluessel": "05554000002806565", "bezeichnung": "Drögen Bokelt" }, "geometry": { "type": "Point", "coordinates": [ 6.973785355358019, 51.81801683708909 ] } },
{ "type": "Feature", "properties": { "strassenschluessel": "05554000002806566", "bezeichnung": "Düwelsteensweg" }, "geometry": null },
{ "type": "Feature", "properties": { "strassenschluessel": "05554000002806567", "bezeichnung": "Elven" }, "geometry": null },
{ "type": "Feature", "properties": { "strassenschluessel": "05554000002806568", "bezeichnung": "Gemener Straße" }, "geometry": { "type": "Point", "coordinates": [ 6.924039164727042, 51.831754377126835 ] } },
{ "type": "Feature", "properties": { "strassenschluessel": "05554000002806569", "bezeichnung": "Grenzweg" }, "geometry": { "type": "Point", "coordinates": [ 6.922462858943444, 51.792416035342256 ] } },
{ "type": "Feature", "properties": { "strassenschluessel": "05554000002806570", "bezeichnung": "Halterner Straße" }, "geometry": { "type": "Point", "coordinates": [ 6.972720376294474, 51.810427158737632 ] } },
{ "type": "Feature", "properties": { "strassenschluessel": "05554000002806571", "bezeichnung": "Holthusen" }, "geometry": { "type": "Point", "coordinates": [ 6.974381186090596, 51.803912197828446 ] } },
{ "type": "Feature", "properties": { "strassenschluessel": "05554000002806572", "bezeichnung": "Hünenweg" }, "geometry": { "type": "Point", "coordinates": [ 6.981702262642153, 51.843383143029996 ] } },
{ "type": "Feature", "properties": { "strassenschluessel": "05554000002806573", "bezeichnung": "Im Grunewald" }, "geometry": null },
{ "type": "Feature", "properties": { "strassenschluessel": "05554000002806574", "bezeichnung": "Kalter Bach" }, "geometry": { "type": "Point", "coordinates": [ 6.955864307252162, 51.771987290308964 ] } },
{ "type": "Feature", "properties": { "strassenschluessel": "05554000002806575", "bezeichnung": "Lammersfeld" }, "geometry": { "type": "Point", "coordinates": [ 6.899164249870102, 51.839551591013723 ] } },
{ "type": "Feature", "properties": { "strassenschluessel": "05554000002806576", "bezeichnung": "Landwehr Kämpe" }, "geometry": { "type": "Point", "coordinates": [ 6.926226522253041, 51.797659796801035 ] } },
{ "type": "Feature", "properties": { "strassenschluessel": "05554000002806577", "bezeichnung": "Lanver" }, "geometry": { "type": "Point", "coordinates": [ 6.958167234458124, 51.801749678929866 ] } },
{ "type": "Feature", "properties": { "strassenschluessel": "05554000002806578", "bezeichnung": "Leblicher Straße" }, "geometry": { "type": "Point", "coordinates": [ 6.967418646013373, 51.80580348273066 ] } },
{ "type": "Feature", "properties": { "strassenschluessel": "05554000002806579", "bezeichnung": "Lehmkuhle" }, "geometry": { "type": "Point", "coordinates": [ 6.985476923081022, 51.824593426711509 ] } },
{ "type": "Feature", "properties": { "strassenschluessel": "05554000002806580", "bezeichnung": "Neuer Weg" }, "geometry": { "type": "Point", "coordinates": [ 6.948673827141223, 51.796054109131575 ] } },
{ "type": "Feature", "properties": { "strassenschluessel": "05554000002806581", "bezeichnung": "Nordring" }, "geometry": { "type": "Point", "coordinates": [ 6.932925079979202, 51.832405330364004 ] } },
{ "type": "Feature", "properties": { "strassenschluessel": "05554000002806582", "bezeichnung": "Olle Borg" }, "geometry": { "type": "Point", "coordinates": [ 6.91636311001334, 51.815565654124306 ] } },
{ "type": "Feature", "properties": { "strassenschluessel": "05554000002806583", "bezeichnung": "Ostricker Berg" }, "geometry": { "type": "Point", "coordinates": [ 6.968343559573446, 51.832294817816354 ] } },
{ "type": "Feature", "properties": { "strassenschluessel": "05554000002806584", "bezeichnung": "Ostring" }, "geometry": { "type": "Point", "coordinates": [ 6.949772703749884, 51.83008176902063 ] } },
{ "type": "Feature", "properties": { "strassenschluessel": "05554000002806585", "bezeichnung": "Raesfelder Weg" }, "geometry": null },
{ "type": "Feature", "properties": { "strassenschluessel": "05554000002806586", "bezeichnung": "Ramsdorfer Straße" }, "geometry": { "type": "Point", "coordinates": [ 6.934503775850506, 51.832309893952512 ] } },
{ "type": "Feature", "properties": { "strassenschluessel": "05554000002806587", "bezeichnung": "Reitweg" }, "geometry": { "type": "Point", "coordinates": [ 6.948210917199936, 51.836183727848649 ] } },
{ "type": "Feature", "properties": { "strassenschluessel": "05554000002806588", "bezeichnung": "Rhader Weg" }, "geometry": { "type": "Point", "coordinates": [ 6.93694636543077, 51.775392350534339 ] } },
{ "type": "Feature", "properties": { "strassenschluessel": "05554000002806589", "bezeichnung": "Römerseestraße" }, "geometry": { "type": "Point", "coordinates": [ 6.907006313663439, 51.839074910051885 ] } },
{ "type": "Feature", "properties": { "strassenschluessel": "05554000002806590", "bezeichnung": "Sachsenstraße" }, "geometry": { "type": "Point", "coordinates": [ 6.934713342398065, 51.82766615688756 ] } },
{ "type": "Feature", "properties": { "strassenschluessel": "05554000002806591", "bezeichnung": "Salteweg" }, "geometry": { "type": "Point", "coordinates": [ 6.96134316568103, 51.839705413329384 ] } },
{ "type": "Feature", "properties": { "strassenschluessel": "05554000002806592", "bezeichnung": "Schafsweg" }, "geometry": { "type": "Point", "coordinates": [ 6.950350705623383, 51.815702038958307 ] } },
{ "type": "Feature", "properties": { "strassenschluessel": "05554000002806593", "bezeichnung": "Schilfweg" }, "geometry": null },
{ "type": "Feature", "properties": { "strassenschluessel": "05554000002806594", "bezeichnung": "Schlickenbrook" }, "geometry": null },
{ "type": "Feature", "properties": { "strassenschluessel": "05554000002806595", "bezeichnung": "Sölling" }, "geometry": { "type": "Point", "coordinates": [ 6.983170963174459, 51.819748394613462 ] } },
{ "type": "Feature", "properties": { "strassenschluessel": "05554000002806596", "bezeichnung": "Stegge" }, "geometry": { "type": "Point", "coordinates": [ 6.938373617805381, 51.849411694863022 ] } },
{ "type": "Feature", "properties": { "strassenschluessel": "05554000002806597", "bezeichnung": "Stegger Straße" }, "geometry": { "type": "Point", "coordinates": [ 6.950942855676447, 51.844309232759606 ] } },
{ "type": "Feature", "properties": { "strassenschluessel": "05554000002806598", "bezeichnung": "Südring" }, "geometry": null },
{ "type": "Feature", "properties": { "strassenschluessel": "05554000002806599", "bezeichnung": "Surker Weg" }, "geometry": { "type": "Point", "coordinates": [ 6.94812593956004, 51.812784851098016 ] } },
{ "type": "Feature", "properties": { "strassenschluessel": "05554000002806600", "bezeichnung": "Uhlenweg" }, "geometry": { "type": "Point", "coordinates": [ 6.967677004361016, 51.835691518452691 ] } },
{ "type": "Feature", "properties": { "strassenschluessel": "05554000002806601", "bezeichnung": "Vennhues Berge" }, "geometry": null },
{ "type": "Feature", "properties": { "strassenschluessel": "05554000002806602", "bezeichnung": "Vogelstange" }, "geometry": { "type": "Point", "coordinates": [ 6.951467805152487, 51.814982876627433 ] } },
{ "type": "Feature", "properties": { "strassenschluessel": "05554000002806603", "bezeichnung": "Waterberg" }, "geometry": { "type": "Point", "coordinates": [ 6.971344750889087, 51.850561074126837 ] } },
{ "type": "Feature", "properties": { "strassenschluessel": "05554000002806605", "bezeichnung": "Westring" }, "geometry": null },
{ "type": "Feature", "properties": { "strassenschluessel": "05554000002806606", "bezeichnung": "Pelsterweg" }, "geometry": { "type": "Point", "coordinates": [ 6.965424527393254, 51.802853299949945 ] } },
{ "type": "Feature", "properties": { "strassenschluessel": "05554000002806607", "bezeichnung": "Venneweg" }, "geometry": null },
{ "type": "Feature", "properties": { "strassenschluessel": "05554000002806608", "bezeichnung": "Gildestraße" }, "geometry": { "type": "Point", "coordinates": [ 6.928620589323186, 51.823486173805748 ] } },
{ "type": "Feature", "properties": { "strassenschluessel": "05554000002806609", "bezeichnung": "Brook" }, "geometry": { "type": "Point", "coordinates": [ 6.928971798877914, 51.814637788872339 ] } },
{ "type": "Feature", "properties": { "strassenschluessel": "05554000002806610", "bezeichnung": "Dalbroms Krüüs" }, "geometry": { "type": "Point", "coordinates": [ 6.927489962962505, 51.830558170516198 ] } },
{ "type": "Feature", "properties": { "strassenschluessel": "05554000002806611", "bezeichnung": "Händelstraße" }, "geometry": { "type": "Point", "coordinates": [ 6.927077133212098, 51.829292350512169 ] } },
{ "type": "Feature", "properties": { "strassenschluessel": "05554000002806612", "bezeichnung": "Florianweg" }, "geometry": { "type": "Point", "coordinates": [ 6.938572819526117, 51.827041433452216 ] } },
{ "type": "Feature", "properties": { "strassenschluessel": "05554000002806613", "bezeichnung": "Theodor-Storm-Straße" }, "geometry": { "type": "Point", "coordinates": [ 6.929790625121057, 51.831814412228248 ] } },
{ "type": "Feature", "properties": { "strassenschluessel": "05554000002806614", "bezeichnung": "Gerhart-Hauptmann-Straße" }, "geometry": { "type": "Point", "coordinates": [ 6.932563827146126, 51.832189523161119 ] } },
{ "type": "Feature", "properties": { "strassenschluessel": "05554000002806615", "bezeichnung": "Immanuel-Kant-Straße" }, "geometry": { "type": "Point", "coordinates": [ 6.932777758500734, 51.832026615951669 ] } },
{ "type": "Feature", "properties": { "strassenschluessel": "05554000002806616", "bezeichnung": "Droste-Hülshoff-Straße" }, "geometry": { "type": "Point", "coordinates": [ 6.930947563366366, 51.831005650800016 ] } },
{ "type": "Feature", "properties": { "strassenschluessel": "05554000002806617", "bezeichnung": "Nelly-Sachs-Straße" }, "geometry": { "type": "Point", "coordinates": [ 6.932136948623573, 51.831029893662929 ] } },
{ "type": "Feature", "properties": { "strassenschluessel": "05554000002806618", "bezeichnung": "Raiffeisenstraße" }, "geometry": { "type": "Point", "coordinates": [ 6.945043807155768, 51.820180582877249 ] } },
{ "type": "Feature", "properties": { "strassenschluessel": "05554000002806619", "bezeichnung": "Schützenstraße" }, "geometry": { "type": "Point", "coordinates": [ 6.927749778362016, 51.823031313929711 ] } },
{ "type": "Feature", "properties": { "strassenschluessel": "05554000002806620", "bezeichnung": "Im Lücking" }, "geometry": { "type": "Point", "coordinates": [ 6.924139048036611, 51.823808793234065 ] } },
{ "type": "Feature", "properties": { "strassenschluessel": "05554000002806621", "bezeichnung": "Am Elschatt" }, "geometry": { "type": "Point", "coordinates": [ 6.923471404913665, 51.824989585872629 ] } },
{ "type": "Feature", "properties": { "strassenschluessel": "05554000002806622", "bezeichnung": "Schulze-Delitzsch-Straße" }, "geometry": { "type": "Point", "coordinates": [ 6.94876285601906, 51.819999880417313 ] } },
{ "type": "Feature", "properties": { "strassenschluessel": "05554000002806624", "bezeichnung": "Wilhelm-Haas-Straße" }, "geometry": { "type": "Point", "coordinates": [ 6.942515858519068, 51.821390673958753 ] } },
{ "type": "Feature", "properties": { "strassenschluessel": "05554000002806625", "bezeichnung": "Heiligenstädter Straße" }, "geometry": { "type": "Point", "coordinates": [ 6.929506042899348, 51.821506229407554 ] } },
{ "type": "Feature", "properties": { "strassenschluessel": "05554000002806626", "bezeichnung": "Eichsfelder Weg" }, "geometry": { "type": "Point", "coordinates": [ 6.928953908125952, 51.821184532360256 ] } },
{ "type": "Feature", "properties": { "strassenschluessel": "05554000002806627", "bezeichnung": "Thüringer Weg" }, "geometry": { "type": "Point", "coordinates": [ 6.929985013993449, 51.820312009624971 ] } },
{ "type": "Feature", "properties": { "strassenschluessel": "05554000002806628", "bezeichnung": "Amselweg" }, "geometry": { "type": "Point", "coordinates": [ 6.944936191103159, 51.831985573226369 ] } },
{ "type": "Feature", "properties": { "strassenschluessel": "05554000002806629", "bezeichnung": "Finkenweg" }, "geometry": { "type": "Point", "coordinates": [ 6.944857972378158, 51.831674483614691 ] } },
{ "type": "Feature", "properties": { "strassenschluessel": "05554000002806630", "bezeichnung": "Sperlingsweg" }, "geometry": { "type": "Point", "coordinates": [ 6.945001905519567, 51.830445744245154 ] } },
{ "type": "Feature", "properties": { "strassenschluessel": "05554000002806631", "bezeichnung": "Drosselweg" }, "geometry": { "type": "Point", "coordinates": [ 6.944724491208422, 51.830392074463212 ] } },
{ "type": "Feature", "properties": { "strassenschluessel": "05554000002806632", "bezeichnung": "Meisenweg" }, "geometry": { "type": "Point", "coordinates": [ 6.945487576622012, 51.830484536938215 ] } },
{ "type": "Feature", "properties": { "strassenschluessel": "05554000002806633", "bezeichnung": "Lerchenweg" }, "geometry": { "type": "Point", "coordinates": [ 6.942945409522148, 51.830166406903579 ] } },
{ "type": "Feature", "properties": { "strassenschluessel": "05554000002806634", "bezeichnung": "Pastor-Blume-Weg" }, "geometry": { "type": "Point", "coordinates": [ 6.931802197442188, 51.826628305341302 ] } },
{ "type": "Feature", "properties": { "strassenschluessel": "05554000002806635", "bezeichnung": "Siemensstraße" }, "geometry": { "type": "Point", "coordinates": [ 6.952197140243394, 51.82162858837998 ] } },
{ "type": "Feature", "properties": { "strassenschluessel": "05554000002806636", "bezeichnung": "Lancasterweg" }, "geometry": { "type": "Point", "coordinates": [ 6.945248563964148, 51.827676940423892 ] } },
{ "type": "Feature", "properties": { "strassenschluessel": "05554000002806637", "bezeichnung": "Schmeltings Wiese" }, "geometry": { "type": "Point", "coordinates": [ 6.934826547327433, 51.824363490506393 ] } },
{ "type": "Feature", "properties": { "strassenschluessel": "05554000002806638", "bezeichnung": "Auf der Weide" }, "geometry": { "type": "Point", "coordinates": [ 6.931041491498789, 51.821202593663791 ] } },
{ "type": "Feature", "properties": { "strassenschluessel": "05554000002806639", "bezeichnung": "Franziskusstraße" }, "geometry": { "type": "Point", "coordinates": [ 6.936714526727355, 51.826903110350102 ] } },
{ "type": "Feature", "properties": { "strassenschluessel": "05554000002806640", "bezeichnung": "Antoniusstraße" }, "geometry": { "type": "Point", "coordinates": [ 6.942814196339435, 51.825642404247411 ] } },
{ "type": "Feature", "properties": { "strassenschluessel": "05554000002806641", "bezeichnung": "Holunderweg" }, "geometry": { "type": "Point", "coordinates": [ 6.94687926036249, 51.829074638621499 ] } },
{ "type": "Feature", "properties": { "strassenschluessel": "05554000002806642", "bezeichnung": "Rosenweg" }, "geometry": { "type": "Point", "coordinates": [ 6.946881579237112, 51.828555258639803 ] } },
{ "type": "Feature", "properties": { "strassenschluessel": "05554000002806643", "bezeichnung": "Sonnenblumenweg" }, "geometry": { "type": "Point", "coordinates": [ 6.946621016519982, 51.829141421933016 ] } },
{ "type": "Feature", "properties": { "strassenschluessel": "05554000002806644", "bezeichnung": "Mohnblumenweg" }, "geometry": { "type": "Point", "coordinates": [ 6.945104690524691, 51.825773779868456 ] } },
{ "type": "Feature", "properties": { "strassenschluessel": "05554000002806645", "bezeichnung": "Fliederweg" }, "geometry": { "type": "Point", "coordinates": [ 6.944846581238598, 51.825671249112219 ] } },
{ "type": "Feature", "properties": { "strassenschluessel": "05554000002806646", "bezeichnung": "Tulpenweg" }, "geometry": { "type": "Point", "coordinates": [ 6.946323430463711, 51.826353442441274 ] } },
{ "type": "Feature", "properties": { "strassenschluessel": "05554000002806647", "bezeichnung": "Kornblumenweg" }, "geometry": { "type": "Point", "coordinates": [ 6.947341934273012, 51.827214058755175 ] } },
{ "type": "Feature", "properties": { "strassenschluessel": "05554000002806648", "bezeichnung": "Heideweg" }, "geometry": { "type": "Point", "coordinates": [ 6.94924953903245, 51.826137870218602 ] } },
{ "type": "Feature", "properties": { "strassenschluessel": "05554000002806649", "bezeichnung": "Nelkenweg" }, "geometry": { "type": "Point", "coordinates": [ 6.948397843797113, 51.826367375636508 ] } },
{ "type": "Feature", "properties": { "strassenschluessel": "05554000002806650", "bezeichnung": "Boschstraße" }, "geometry": null },
{ "type": "Feature", "properties": { "strassenschluessel": "05554000002806761", "bezeichnung": "Nordick" }, "geometry": { "type": "Point", "coordinates": [ 6.988663036302545, 51.858860848146385 ] } }
]
}
