{
"type": "FeatureCollection",
"features": [
{ "type": "Feature", "properties": { "strassenschluessel": "05770000001207201", "bezeichnung": "Am Bahndamm" }, "geometry": { "type": "Point", "coordinates": [ 8.73312569786007, 52.303139880900822 ] } },
{ "type": "Feature", "properties": { "strassenschluessel": "05770000001207202", "bezeichnung": "Am Ellernkamp" }, "geometry": { "type": "Point", "coordinates": [ 8.725318161121818, 52.296714795654545 ] } },
{ "type": "Feature", "properties": { "strassenschluessel": "05770000001207203", "bezeichnung": "Am Kirchacker" }, "geometry": { "type": "Point", "coordinates": [ 8.743635120615352, 52.305521225902503 ] } },
{ "type": "Feature", "properties": { "strassenschluessel": "05770000001207204", "bezeichnung": "Am Steinkamp" }, "geometry": { "type": "Point", "coordinates": [ 8.723256977798419, 52.297904034355085 ] } },
{ "type": "Feature", "properties": { "strassenschluessel": "05770000001207205", "bezeichnung": "Am Schobbruch" }, "geometry": { "type": "Point", "coordinates": [ 8.736811404162959, 52.310920241204535 ] } },
{ "type": "Feature", "properties": { "strassenschluessel": "05770000001207207", "bezeichnung": "Am Weihenfeld" }, "geometry": { "type": "Point", "coordinates": [ 8.731375779866458, 52.297484075991811 ] } },
{ "type": "Feature", "properties": { "strassenschluessel": "05770000001207210", "bezeichnung": "Bienenweg" }, "geometry": { "type": "Point", "coordinates": [ 8.73032671828854, 52.298884540232343 ] } },
{ "type": "Feature", "properties": { "strassenschluessel": "05770000001207211", "bezeichnung": "Burgstädt" }, "geometry": { "type": "Point", "coordinates": [ 8.740556445756397, 52.310808646332461 ] } },
{ "type": "Feature", "properties": { "strassenschluessel": "05770000001207218", "bezeichnung": "Eckernkamp" }, "geometry": { "type": "Point", "coordinates": [ 8.728323361705705, 52.301281659865744 ] } },
{ "type": "Feature", "properties": { "strassenschluessel": "05770000001207219", "bezeichnung": "Eickhorster Dorfstraße" }, "geometry": { "type": "Point", "coordinates": [ 8.729063843140507, 52.300841116897537 ] } },
{ "type": "Feature", "properties": { "strassenschluessel": "05770000001207220", "bezeichnung": "Elstersiek" }, "geometry": { "type": "Point", "coordinates": [ 8.718642696484245, 52.295136330407345 ] } },
{ "type": "Feature", "properties": { "strassenschluessel": "05770000001207222", "bezeichnung": "Friedhofstraße" }, "geometry": { "type": "Point", "coordinates": [ 8.738768674727917, 52.305107995645677 ] } },
{ "type": "Feature", "properties": { "strassenschluessel": "05770000001207225", "bezeichnung": "Gänsebrink" }, "geometry": { "type": "Point", "coordinates": [ 8.738179190438597, 52.303704682568636 ] } },
{ "type": "Feature", "properties": { "strassenschluessel": "05770000001207226", "bezeichnung": "Goldregenweg" }, "geometry": { "type": "Point", "coordinates": [ 8.726030253149776, 52.29910661725058 ] } },
{ "type": "Feature", "properties": { "strassenschluessel": "05770000001207231", "bezeichnung": "Hiller Straße" }, "geometry": { "type": "Point", "coordinates": [ 8.735502660041787, 52.303553900327849 ] } },
{ "type": "Feature", "properties": { "strassenschluessel": "05770000001207232", "bezeichnung": "Hohlweg" }, "geometry": { "type": "Point", "coordinates": [ 8.727165566924056, 52.295822703694768 ] } },
{ "type": "Feature", "properties": { "strassenschluessel": "05770000001207233", "bezeichnung": "Holtschlagstraße" }, "geometry": { "type": "Point", "coordinates": [ 8.726206182570712, 52.298747664874668 ] } },
{ "type": "Feature", "properties": { "strassenschluessel": "05770000001207234", "bezeichnung": "Holzweg" }, "geometry": { "type": "Point", "coordinates": [ 8.727121459460323, 52.300763813294068 ] } },
{ "type": "Feature", "properties": { "strassenschluessel": "05770000001207235", "bezeichnung": "Hubertusstraße" }, "geometry": { "type": "Point", "coordinates": [ 8.726523167042291, 52.299988111741911 ] } },
{ "type": "Feature", "properties": { "strassenschluessel": "05770000001207236", "bezeichnung": "Holunderweg" }, "geometry": { "type": "Point", "coordinates": [ 8.732032185761376, 52.301898107069675 ] } },
{ "type": "Feature", "properties": { "strassenschluessel": "05770000001207238", "bezeichnung": "Im Mühlengarten" }, "geometry": { "type": "Point", "coordinates": [ 8.746487323569367, 52.304745692547904 ] } },
{ "type": "Feature", "properties": { "strassenschluessel": "05770000001207239", "bezeichnung": "Im Tackelbusch" }, "geometry": { "type": "Point", "coordinates": [ 8.726606625479354, 52.301945352953418 ] } },
{ "type": "Feature", "properties": { "strassenschluessel": "05770000001207243", "bezeichnung": "Klein Holland" }, "geometry": { "type": "Point", "coordinates": [ 8.727202932561573, 52.29618972051307 ] } },
{ "type": "Feature", "properties": { "strassenschluessel": "05770000001207244", "bezeichnung": "Klosterweg" }, "geometry": { "type": "Point", "coordinates": [ 8.735536886651806, 52.30560010144071 ] } },
{ "type": "Feature", "properties": { "strassenschluessel": "05770000001207252", "bezeichnung": "Neustadt" }, "geometry": { "type": "Point", "coordinates": [ 8.745708503505568, 52.307002246249397 ] } },
{ "type": "Feature", "properties": { "strassenschluessel": "05770000001207253", "bezeichnung": "Nettelstedter Straße" }, "geometry": { "type": "Point", "coordinates": [ 8.720952985743931, 52.295745291724842 ] } },
{ "type": "Feature", "properties": { "strassenschluessel": "05770000001207257", "bezeichnung": "Röthe" }, "geometry": { "type": "Point", "coordinates": [ 8.729012134282915, 52.299635054414985 ] } },
{ "type": "Feature", "properties": { "strassenschluessel": "05770000001207260", "bezeichnung": "Siedlerweg" }, "geometry": { "type": "Point", "coordinates": [ 8.723740079482837, 52.297843948772986 ] } },
{ "type": "Feature", "properties": { "strassenschluessel": "05770000001207262", "bezeichnung": "Schulmke" }, "geometry": { "type": "Point", "coordinates": [ 8.728603228793327, 52.301970770397645 ] } },
{ "type": "Feature", "properties": { "strassenschluessel": "05770000001207265", "bezeichnung": "Steimkestraße" }, "geometry": { "type": "Point", "coordinates": [ 8.727706165599786, 52.309579239923934 ] } },
{ "type": "Feature", "properties": { "strassenschluessel": "05770000001207266", "bezeichnung": "Steinkampbreede" }, "geometry": { "type": "Point", "coordinates": [ 8.727292327296059, 52.29815599369104 ] } },
{ "type": "Feature", "properties": { "strassenschluessel": "05770000001207268", "bezeichnung": "Veilchenweg" }, "geometry": { "type": "Point", "coordinates": [ 8.723519167230906, 52.298823174592641 ] } },
{ "type": "Feature", "properties": { "strassenschluessel": "05770000001207270", "bezeichnung": "Wiehenweg" }, "geometry": { "type": "Point", "coordinates": [ 8.727108222228223, 52.299069104845181 ] } },
{ "type": "Feature", "properties": { "strassenschluessel": "05770000001207271", "bezeichnung": "Wildrosenweg" }, "geometry": { "type": "Point", "coordinates": [ 8.732375694307528, 52.300842310834661 ] } },
{ "type": "Feature", "properties": { "strassenschluessel": "05770000001207273", "bezeichnung": "Zur Wassermühle" }, "geometry": { "type": "Point", "coordinates": [ 8.732910730746967, 52.302093438029146 ] } },
{ "type": "Feature", "properties": { "strassenschluessel": "05770000001207276", "bezeichnung": "Alter Schulweg" }, "geometry": { "type": "Point", "coordinates": [ 8.823848877773614, 52.311048892172693 ] } },
{ "type": "Feature", "properties": { "strassenschluessel": "05770000001207277", "bezeichnung": "Am Kirchfeld" }, "geometry": { "type": "Point", "coordinates": [ 8.825690186170995, 52.315516237278395 ] } },
{ "type": "Feature", "properties": { "strassenschluessel": "05770000001207278", "bezeichnung": "Am Mühlenfeld" }, "geometry": { "type": "Point", "coordinates": [ 8.813863453860494, 52.316765070958489 ] } },
{ "type": "Feature", "properties": { "strassenschluessel": "05770000001207279", "bezeichnung": "Am Rathaus" }, "geometry": { "type": "Point", "coordinates": [ 8.824090961921209, 52.314853740326278 ] } },
{ "type": "Feature", "properties": { "strassenschluessel": "05770000001207280", "bezeichnung": "Am Spitzenend" }, "geometry": { "type": "Point", "coordinates": [ 8.814345394997297, 52.312352947123252 ] } },
{ "type": "Feature", "properties": { "strassenschluessel": "05770000001207281", "bezeichnung": "An der Bahn" }, "geometry": { "type": "Point", "coordinates": [ 8.82426143597581, 52.316839560630477 ] } },
{ "type": "Feature", "properties": { "strassenschluessel": "05770000001207282", "bezeichnung": "Am Bruchgarten" }, "geometry": { "type": "Point", "coordinates": [ 8.81234025812843, 52.312815782965473 ] } },
{ "type": "Feature", "properties": { "strassenschluessel": "05770000001207283", "bezeichnung": "Bahnstraße" }, "geometry": { "type": "Point", "coordinates": [ 8.822403346234253, 52.316521449689851 ] } },
{ "type": "Feature", "properties": { "strassenschluessel": "05770000001207284", "bezeichnung": "Birkenweg" }, "geometry": { "type": "Point", "coordinates": [ 8.826942321671245, 52.316840012010879 ] } },
{ "type": "Feature", "properties": { "strassenschluessel": "05770000001207285", "bezeichnung": "Buchenweg" }, "geometry": { "type": "Point", "coordinates": [ 8.828789388970501, 52.317540023145071 ] } },
{ "type": "Feature", "properties": { "strassenschluessel": "05770000001207286", "bezeichnung": "Bruchfeld" }, "geometry": { "type": "Point", "coordinates": [ 8.815191404196431, 52.312737493369248 ] } },
{ "type": "Feature", "properties": { "strassenschluessel": "05770000001207287", "bezeichnung": "Ahornweg" }, "geometry": { "type": "Point", "coordinates": [ 8.831576359048366, 52.321017626680565 ] } },
{ "type": "Feature", "properties": { "strassenschluessel": "05770000001207288", "bezeichnung": "Am Südhof" }, "geometry": { "type": "Point", "coordinates": [ 8.816336003855405, 52.312349261989567 ] } },
{ "type": "Feature", "properties": { "strassenschluessel": "05770000001207290", "bezeichnung": "Diekweg" }, "geometry": { "type": "Point", "coordinates": [ 8.829829332766442, 52.319676629873825 ] } },
{ "type": "Feature", "properties": { "strassenschluessel": "05770000001207292", "bezeichnung": "Drilkersweg" }, "geometry": { "type": "Point", "coordinates": [ 8.825360713316931, 52.314827097439469 ] } },
{ "type": "Feature", "properties": { "strassenschluessel": "05770000001207293", "bezeichnung": "Eichenweg" }, "geometry": { "type": "Point", "coordinates": [ 8.83004073803844, 52.317151148658127 ] } },
{ "type": "Feature", "properties": { "strassenschluessel": "05770000001207294", "bezeichnung": "Eskedor" }, "geometry": { "type": "Point", "coordinates": [ 8.824386844538742, 52.313465042341157 ] } },
{ "type": "Feature", "properties": { "strassenschluessel": "05770000001207295", "bezeichnung": "Eschenweg" }, "geometry": { "type": "Point", "coordinates": [ 8.826966835648834, 52.321481769573261 ] } },
{ "type": "Feature", "properties": { "strassenschluessel": "05770000001207299", "bezeichnung": "Grasweg" }, "geometry": { "type": "Point", "coordinates": [ 8.820101699586484, 52.320209162182245 ] } },
{ "type": "Feature", "properties": { "strassenschluessel": "05770000001207303", "bezeichnung": "Heidbredenweg" }, "geometry": { "type": "Point", "coordinates": [ 8.830569396291072, 52.318389663557625 ] } },
{ "type": "Feature", "properties": { "strassenschluessel": "05770000001207304", "bezeichnung": "Hinter den Gärten" }, "geometry": { "type": "Point", "coordinates": [ 8.821242598987045, 52.316308800212624 ] } },
{ "type": "Feature", "properties": { "strassenschluessel": "05770000001207305", "bezeichnung": "Holzhauser Kirchweg" }, "geometry": { "type": "Point", "coordinates": [ 8.826393977154956, 52.317982625992016 ] } },
{ "type": "Feature", "properties": { "strassenschluessel": "05770000001207306", "bezeichnung": "Holzhauser Straße" }, "geometry": { "type": "Point", "coordinates": [ 8.826879446790784, 52.318091430964841 ] } },
{ "type": "Feature", "properties": { "strassenschluessel": "05770000001207307", "bezeichnung": "Haselhain" }, "geometry": { "type": "Point", "coordinates": [ 8.823608930455926, 52.316473763319379 ] } },
{ "type": "Feature", "properties": { "strassenschluessel": "05770000001207310", "bezeichnung": "Im Busch" }, "geometry": { "type": "Point", "coordinates": [ 8.828672205185516, 52.320030926440936 ] } },
{ "type": "Feature", "properties": { "strassenschluessel": "05770000001207311", "bezeichnung": "Im Gewerbepark" }, "geometry": { "type": "Point", "coordinates": [ 8.83501956087307, 52.310957594042343 ] } },
{ "type": "Feature", "properties": { "strassenschluessel": "05770000001207314", "bezeichnung": "Kleiner Bruch" }, "geometry": { "type": "Point", "coordinates": [ 8.823799756494468, 52.30848416354074 ] } },
{ "type": "Feature", "properties": { "strassenschluessel": "05770000001207315", "bezeichnung": "Kurzer Weg" }, "geometry": { "type": "Point", "coordinates": [ 8.829623253350608, 52.319307804137523 ] } },
{ "type": "Feature", "properties": { "strassenschluessel": "05770000001207318", "bezeichnung": "Lohhof" }, "geometry": { "type": "Point", "coordinates": [ 8.822652100298701, 52.30939231123056 ] } },
{ "type": "Feature", "properties": { "strassenschluessel": "05770000001207319", "bezeichnung": "Lavendelweg" }, "geometry": { "type": "Point", "coordinates": [ 8.821078630136562, 52.317011005480083 ] } },
{ "type": "Feature", "properties": { "strassenschluessel": "05770000001207322", "bezeichnung": "Mühlengasse" }, "geometry": { "type": "Point", "coordinates": [ 8.814889452537903, 52.316015968576721 ] } },
{ "type": "Feature", "properties": { "strassenschluessel": "05770000001207323", "bezeichnung": "Melissenweg" }, "geometry": { "type": "Point", "coordinates": [ 8.816696243294871, 52.317923869494997 ] } },
{ "type": "Feature", "properties": { "strassenschluessel": "05770000001207324", "bezeichnung": "Neuer Landsweg" }, "geometry": { "type": "Point", "coordinates": [ 8.831728514796353, 52.321537151359685 ] } },
{ "type": "Feature", "properties": { "strassenschluessel": "05770000001207325", "bezeichnung": "Nordweg" }, "geometry": { "type": "Point", "coordinates": [ 8.827847620848393, 52.32103862111903 ] } },
{ "type": "Feature", "properties": { "strassenschluessel": "05770000001207328", "bezeichnung": "Obere Straße" }, "geometry": { "type": "Point", "coordinates": [ 8.809097877756876, 52.327063700071875 ] } },
{ "type": "Feature", "properties": { "strassenschluessel": "05770000001207330", "bezeichnung": "Rosmarinweg" }, "geometry": { "type": "Point", "coordinates": [ 8.818819684063625, 52.317549401071226 ] } },
{ "type": "Feature", "properties": { "strassenschluessel": "05770000001207331", "bezeichnung": "Rothenuffelner Straße" }, "geometry": { "type": "Point", "coordinates": [ 8.818620879508385, 52.312892230734867 ] } },
{ "type": "Feature", "properties": { "strassenschluessel": "05770000001207332", "bezeichnung": "Ringelblumenweg" }, "geometry": { "type": "Point", "coordinates": [ 8.819905160448462, 52.316150631128863 ] } },
{ "type": "Feature", "properties": { "strassenschluessel": "05770000001207334", "bezeichnung": "Südhofsweg" }, "geometry": { "type": "Point", "coordinates": [ 8.815847909979027, 52.31327944044763 ] } },
{ "type": "Feature", "properties": { "strassenschluessel": "05770000001207341", "bezeichnung": "Uferstraße" }, "geometry": { "type": "Point", "coordinates": [ 8.82021483015102, 52.309004040516932 ] } },
{ "type": "Feature", "properties": { "strassenschluessel": "05770000001207344", "bezeichnung": "Wasserfeld" }, "geometry": { "type": "Point", "coordinates": [ 8.814458087369696, 52.323966373320161 ] } },
{ "type": "Feature", "properties": { "strassenschluessel": "05770000001207345", "bezeichnung": "Wasserriege" }, "geometry": { "type": "Point", "coordinates": [ 8.8169281311416, 52.311274459757541 ] } },
{ "type": "Feature", "properties": { "strassenschluessel": "05770000001207348", "bezeichnung": "Zum Fange" }, "geometry": { "type": "Point", "coordinates": [ 8.81371618288633, 52.313077695983381 ] } },
{ "type": "Feature", "properties": { "strassenschluessel": "05770000001207349", "bezeichnung": "Zum Kleinen Wiebusch" }, "geometry": { "type": "Point", "coordinates": [ 8.825588281029084, 52.31780966710469 ] } },
{ "type": "Feature", "properties": { "strassenschluessel": "05770000001207351", "bezeichnung": "Ackerbreede" }, "geometry": { "type": "Point", "coordinates": [ 8.760653516911576, 52.351847161846507 ] } },
{ "type": "Feature", "properties": { "strassenschluessel": "05770000001207352", "bezeichnung": "Am Alten Markt" }, "geometry": { "type": "Point", "coordinates": [ 8.758684120672624, 52.335605735480115 ] } },
{ "type": "Feature", "properties": { "strassenschluessel": "05770000001207353", "bezeichnung": "Am Hafen" }, "geometry": { "type": "Point", "coordinates": [ 8.747316214095834, 52.324249873407432 ] } },
{ "type": "Feature", "properties": { "strassenschluessel": "05770000001207354", "bezeichnung": "Am Kanal" }, "geometry": { "type": "Point", "coordinates": [ 8.749510608400628, 52.324548283435639 ] } },
{ "type": "Feature", "properties": { "strassenschluessel": "05770000001207355", "bezeichnung": "Am neuen Garten" }, "geometry": { "type": "Point", "coordinates": [ 8.7397208784075, 52.342088361298124 ] } },
{ "type": "Feature", "properties": { "strassenschluessel": "05770000001207356", "bezeichnung": "Am Pferdekamp" }, "geometry": { "type": "Point", "coordinates": [ 8.7596625329208, 52.323691819573405 ] } },
{ "type": "Feature", "properties": { "strassenschluessel": "05770000001207357", "bezeichnung": "Am Schafdamm" }, "geometry": { "type": "Point", "coordinates": [ 8.707200853940405, 52.347051298731323 ] } },
{ "type": "Feature", "properties": { "strassenschluessel": "05770000001207358", "bezeichnung": "Am Seltmoor" }, "geometry": { "type": "Point", "coordinates": [ 8.726628972510685, 52.340774600790844 ] } },
{ "type": "Feature", "properties": { "strassenschluessel": "05770000001207359", "bezeichnung": "Am Teich" }, "geometry": { "type": "Point", "coordinates": [ 8.748421692347382, 52.337628483177923 ] } },
{ "type": "Feature", "properties": { "strassenschluessel": "05770000001207360", "bezeichnung": "Am Teichgraben" }, "geometry": { "type": "Point", "coordinates": [ 8.747816043260459, 52.339856547775675 ] } },
{ "type": "Feature", "properties": { "strassenschluessel": "05770000001207361", "bezeichnung": "Am Timpen" }, "geometry": { "type": "Point", "coordinates": [ 8.747337517630427, 52.336092927057194 ] } },
{ "type": "Feature", "properties": { "strassenschluessel": "05770000001207362", "bezeichnung": "Am Weißen Hügel" }, "geometry": { "type": "Point", "coordinates": [ 8.788652028165531, 52.377356517513334 ] } },
{ "type": "Feature", "properties": { "strassenschluessel": "05770000001207363", "bezeichnung": "An der Beeke" }, "geometry": { "type": "Point", "coordinates": [ 8.708979812579273, 52.35326744767417 ] } },
{ "type": "Feature", "properties": { "strassenschluessel": "05770000001207364", "bezeichnung": "An der Brennerei" }, "geometry": { "type": "Point", "coordinates": [ 8.745930842465214, 52.337788173428351 ] } },
{ "type": "Feature", "properties": { "strassenschluessel": "05770000001207365", "bezeichnung": "Apothekenstraße" }, "geometry": { "type": "Point", "coordinates": [ 8.74633920018406, 52.333695430868289 ] } },
{ "type": "Feature", "properties": { "strassenschluessel": "05770000001207366", "bezeichnung": "Am Alten Pfarrhaus" }, "geometry": { "type": "Point", "coordinates": [ 8.743711763473174, 52.332954664070165 ] } },
{ "type": "Feature", "properties": { "strassenschluessel": "05770000001207367", "bezeichnung": "Alkhorster Feldweg" }, "geometry": { "type": "Point", "coordinates": [ 8.743248078897954, 52.33272000401746 ] } },
{ "type": "Feature", "properties": { "strassenschluessel": "05770000001207368", "bezeichnung": "Am Kindergarten" }, "geometry": { "type": "Point", "coordinates": [ 8.746498717933708, 52.336330816215174 ] } },
{ "type": "Feature", "properties": { "strassenschluessel": "05770000001207369", "bezeichnung": "Am Donaugraben" }, "geometry": { "type": "Point", "coordinates": [ 8.734945468106524, 52.332628937335159 ] } },
{ "type": "Feature", "properties": { "strassenschluessel": "05770000001207370", "bezeichnung": "Am Kompostwerk" }, "geometry": { "type": "Point", "coordinates": [ 8.767964277978059, 52.384948510724342 ] } },
{ "type": "Feature", "properties": { "strassenschluessel": "05770000001207371", "bezeichnung": "An der Grundschule" }, "geometry": { "type": "Point", "coordinates": [ 8.736562183795096, 52.333615490373553 ] } },
{ "type": "Feature", "properties": { "strassenschluessel": "05770000001207372", "bezeichnung": "Am Schulzentrum" }, "geometry": { "type": "Point", "coordinates": [ 8.7395686167014, 52.336763964328433 ] } },
{ "type": "Feature", "properties": { "strassenschluessel": "05770000001207373", "bezeichnung": "Alte Genossenschaft" }, "geometry": { "type": "Point", "coordinates": [ 8.749514293586653, 52.332329153230596 ] } },
{ "type": "Feature", "properties": { "strassenschluessel": "05770000001207374", "bezeichnung": "Bahnhofstraße" }, "geometry": { "type": "Point", "coordinates": [ 8.749724092435995, 52.331783453675129 ] } },
{ "type": "Feature", "properties": { "strassenschluessel": "05770000001207375", "bezeichnung": "Birkenfeld" }, "geometry": { "type": "Point", "coordinates": [ 8.699420253713106, 52.336676356400297 ] } },
{ "type": "Feature", "properties": { "strassenschluessel": "05770000001207376", "bezeichnung": "Bollacken" }, "geometry": { "type": "Point", "coordinates": [ 8.719062636864198, 52.354556560389248 ] } },
{ "type": "Feature", "properties": { "strassenschluessel": "05770000001207377", "bezeichnung": "Brennhorster Straße" }, "geometry": { "type": "Point", "coordinates": [ 8.744988311337874, 52.341467475791951 ] } },
{ "type": "Feature", "properties": { "strassenschluessel": "05770000001207378", "bezeichnung": "Brockkamp" }, "geometry": { "type": "Point", "coordinates": [ 8.74067718749142, 52.342448751604316 ] } },
{ "type": "Feature", "properties": { "strassenschluessel": "05770000001207379", "bezeichnung": "Brüderstraße" }, "geometry": { "type": "Point", "coordinates": [ 8.740734330399492, 52.343764090778407 ] } },
{ "type": "Feature", "properties": { "strassenschluessel": "05770000001207380", "bezeichnung": "Brüggemannstraße" }, "geometry": { "type": "Point", "coordinates": [ 8.790934641085357, 52.375675695610923 ] } },
{ "type": "Feature", "properties": { "strassenschluessel": "05770000001207381", "bezeichnung": "Burkampweg" }, "geometry": { "type": "Point", "coordinates": [ 8.741298050110132, 52.344198108788113 ] } },
{ "type": "Feature", "properties": { "strassenschluessel": "05770000001207382", "bezeichnung": "Burthun" }, "geometry": { "type": "Point", "coordinates": [ 8.727236412659572, 52.330183253069102 ] } },
{ "type": "Feature", "properties": { "strassenschluessel": "05770000001207383", "bezeichnung": "Bohlenkamp" }, "geometry": { "type": "Point", "coordinates": [ 8.738212301178283, 52.336647732147682 ] } },
{ "type": "Feature", "properties": { "strassenschluessel": "05770000001207391", "bezeichnung": "Dammbruchweg" }, "geometry": { "type": "Point", "coordinates": [ 8.739706411780693, 52.372969849781889 ] } },
{ "type": "Feature", "properties": { "strassenschluessel": "05770000001207392", "bezeichnung": "Denkmalsweg" }, "geometry": { "type": "Point", "coordinates": [ 8.782454732976895, 52.373811876360691 ] } },
{ "type": "Feature", "properties": { "strassenschluessel": "05770000001207393", "bezeichnung": "Donauweg" }, "geometry": { "type": "Point", "coordinates": [ 8.733709971483146, 52.332898246921289 ] } },
{ "type": "Feature", "properties": { "strassenschluessel": "05770000001207394", "bezeichnung": "Dorfstraße" }, "geometry": { "type": "Point", "coordinates": [ 8.745247700184198, 52.335694081955396 ] } },
{ "type": "Feature", "properties": { "strassenschluessel": "05770000001207395", "bezeichnung": "Dreiecksweg" }, "geometry": { "type": "Point", "coordinates": [ 8.774780466122277, 52.370583414574945 ] } },
{ "type": "Feature", "properties": { "strassenschluessel": "05770000001207396", "bezeichnung": "Dreierskrugweg" }, "geometry": { "type": "Point", "coordinates": [ 8.761005711138878, 52.369633507310461 ] } },
{ "type": "Feature", "properties": { "strassenschluessel": "05770000001207397", "bezeichnung": "Drosselweg" }, "geometry": { "type": "Point", "coordinates": [ 8.763862170499289, 52.368623062468551 ] } },
{ "type": "Feature", "properties": { "strassenschluessel": "05770000001207398", "bezeichnung": "Drostenheider Weg" }, "geometry": { "type": "Point", "coordinates": [ 8.720838395616235, 52.36387051671462 ] } },
{ "type": "Feature", "properties": { "strassenschluessel": "05770000001207399", "bezeichnung": "Düpeweg" }, "geometry": { "type": "Point", "coordinates": [ 8.740570636200717, 52.370252231016188 ] } },
{ "type": "Feature", "properties": { "strassenschluessel": "05770000001207400", "bezeichnung": "Düsterhorst" }, "geometry": { "type": "Point", "coordinates": [ 8.756600285287513, 52.38298522598037 ] } },
{ "type": "Feature", "properties": { "strassenschluessel": "05770000001207404", "bezeichnung": "Eickhorster Straße" }, "geometry": { "type": "Point", "coordinates": [ 8.747067253265101, 52.333410807045162 ] } },
{ "type": "Feature", "properties": { "strassenschluessel": "05770000001207408", "bezeichnung": "Feldkrugweg" }, "geometry": { "type": "Point", "coordinates": [ 8.739362272670329, 52.334611982609403 ] } },
{ "type": "Feature", "properties": { "strassenschluessel": "05770000001207409", "bezeichnung": "Feldstraße" }, "geometry": { "type": "Point", "coordinates": [ 8.732131218337905, 52.335167640159739 ] } },
{ "type": "Feature", "properties": { "strassenschluessel": "05770000001207410", "bezeichnung": "Fiefhüser Weg" }, "geometry": { "type": "Point", "coordinates": [ 8.706188947871407, 52.348353778648409 ] } },
{ "type": "Feature", "properties": { "strassenschluessel": "05770000001207411", "bezeichnung": "Friedrichstraße" }, "geometry": { "type": "Point", "coordinates": [ 8.742761955947856, 52.341688751026361 ] } },
{ "type": "Feature", "properties": { "strassenschluessel": "05770000001207412", "bezeichnung": "Frotheimer Straße" }, "geometry": { "type": "Point", "coordinates": [ 8.728883921143511, 52.345135727144473 ] } },
{ "type": "Feature", "properties": { "strassenschluessel": "05770000001207417", "bezeichnung": "Gärtnerweg" }, "geometry": { "type": "Point", "coordinates": [ 8.749361547311649, 52.335897155058028 ] } },
{ "type": "Feature", "properties": { "strassenschluessel": "05770000001207418", "bezeichnung": "Geestmoordamm" }, "geometry": { "type": "Point", "coordinates": [ 8.722568414426659, 52.332760257007678 ] } },
{ "type": "Feature", "properties": { "strassenschluessel": "05770000001207419", "bezeichnung": "Gerhardstraße" }, "geometry": { "type": "Point", "coordinates": [ 8.740665454140833, 52.339830200776191 ] } },
{ "type": "Feature", "properties": { "strassenschluessel": "05770000001207420", "bezeichnung": "Gerstenstraße" }, "geometry": { "type": "Point", "coordinates": [ 8.740755864087369, 52.357453842684571 ] } },
{ "type": "Feature", "properties": { "strassenschluessel": "05770000001207421", "bezeichnung": "Glinst" }, "geometry": { "type": "Point", "coordinates": [ 8.763718127779589, 52.329755221302499 ] } },
{ "type": "Feature", "properties": { "strassenschluessel": "05770000001207422", "bezeichnung": "Gustav-Adolf-Straße" }, "geometry": { "type": "Point", "coordinates": [ 8.744416491644328, 52.339922785331517 ] } },
{ "type": "Feature", "properties": { "strassenschluessel": "05770000001207423", "bezeichnung": "Georgstraße" }, "geometry": { "type": "Point", "coordinates": [ 8.743636219424959, 52.338750941549911 ] } },
{ "type": "Feature", "properties": { "strassenschluessel": "05770000001207424", "bezeichnung": "Glinster Feldstraße" }, "geometry": { "type": "Point", "coordinates": [ 8.748564276485794, 52.329352682251944 ] } },
{ "type": "Feature", "properties": { "strassenschluessel": "05770000001207425", "bezeichnung": "Grashornweg" }, "geometry": { "type": "Point", "coordinates": [ 8.737137996485966, 52.384888701938543 ] } },
{ "type": "Feature", "properties": { "strassenschluessel": "05770000001207426", "bezeichnung": "Gleisbogen" }, "geometry": null },
{ "type": "Feature", "properties": { "strassenschluessel": "05770000001207428", "bezeichnung": "Hauphof" }, "geometry": { "type": "Point", "coordinates": [ 8.742755519577544, 52.347757688358101 ] } },
{ "type": "Feature", "properties": { "strassenschluessel": "05770000001207429", "bezeichnung": "Heinrichstraße" }, "geometry": { "type": "Point", "coordinates": [ 8.738296042231022, 52.341188748606406 ] } },
{ "type": "Feature", "properties": { "strassenschluessel": "05770000001207430", "bezeichnung": "Hermannstraße" }, "geometry": { "type": "Point", "coordinates": [ 8.742232267418366, 52.342283978694851 ] } },
{ "type": "Feature", "properties": { "strassenschluessel": "05770000001207431", "bezeichnung": "Höchte" }, "geometry": { "type": "Point", "coordinates": [ 8.730021676181563, 52.350588819687928 ] } },
{ "type": "Feature", "properties": { "strassenschluessel": "05770000001207432", "bezeichnung": "Höfer Feld" }, "geometry": { "type": "Point", "coordinates": [ 8.756900744726492, 52.34917249592089 ] } },
{ "type": "Feature", "properties": { "strassenschluessel": "05770000001207433", "bezeichnung": "Holtstraote" }, "geometry": { "type": "Point", "coordinates": [ 8.745048097547057, 52.35318066692156 ] } },
{ "type": "Feature", "properties": { "strassenschluessel": "05770000001207434", "bezeichnung": "Horstbohlen" }, "geometry": { "type": "Point", "coordinates": [ 8.753084880859298, 52.337386847666373 ] } },
{ "type": "Feature", "properties": { "strassenschluessel": "05770000001207435", "bezeichnung": "Horstmoor" }, "geometry": { "type": "Point", "coordinates": [ 8.762736700822876, 52.346084676766367 ] } },
{ "type": "Feature", "properties": { "strassenschluessel": "05770000001207436", "bezeichnung": "Hügelstraße" }, "geometry": { "type": "Point", "coordinates": [ 8.718029634553423, 52.345108877434498 ] } },
{ "type": "Feature", "properties": { "strassenschluessel": "05770000001207437", "bezeichnung": "Hinter dem Kindergarten" }, "geometry": { "type": "Point", "coordinates": [ 8.747688735653044, 52.337314690518077 ] } },
{ "type": "Feature", "properties": { "strassenschluessel": "05770000001207440", "bezeichnung": "Im Gewerbegebiet" }, "geometry": { "type": "Point", "coordinates": [ 8.747596310421596, 52.327680529363498 ] } },
{ "type": "Feature", "properties": { "strassenschluessel": "05770000001207443", "bezeichnung": "Im Höfen" }, "geometry": { "type": "Point", "coordinates": [ 8.750972889892319, 52.346010412280634 ] } },
{ "type": "Feature", "properties": { "strassenschluessel": "05770000001207444", "bezeichnung": "Im Lehmken" }, "geometry": { "type": "Point", "coordinates": [ 8.757468235750855, 52.37269552845428 ] } },
{ "type": "Feature", "properties": { "strassenschluessel": "05770000001207445", "bezeichnung": "Im Sool" }, "geometry": { "type": "Point", "coordinates": [ 8.727667545328824, 52.335470889012818 ] } },
{ "type": "Feature", "properties": { "strassenschluessel": "05770000001207446", "bezeichnung": "Im Winkel" }, "geometry": { "type": "Point", "coordinates": [ 8.733175839162076, 52.33125140754769 ] } },
{ "type": "Feature", "properties": { "strassenschluessel": "05770000001207447", "bezeichnung": "Imkerweg" }, "geometry": { "type": "Point", "coordinates": [ 8.742089659182264, 52.338540687413818 ] } },
{ "type": "Feature", "properties": { "strassenschluessel": "05770000001207448", "bezeichnung": "Immengarten" }, "geometry": { "type": "Point", "coordinates": [ 8.72954061391818, 52.334887673118587 ] } },
{ "type": "Feature", "properties": { "strassenschluessel": "05770000001207449", "bezeichnung": "Inne Haupwisk" }, "geometry": { "type": "Point", "coordinates": [ 8.741451835724417, 52.354816395744862 ] } },
{ "type": "Feature", "properties": { "strassenschluessel": "05770000001207450", "bezeichnung": "Industriehafen" }, "geometry": { "type": "Point", "coordinates": [ 8.75115412235923, 52.321310147398741 ] } },
{ "type": "Feature", "properties": { "strassenschluessel": "05770000001207455", "bezeichnung": "Karlstraße" }, "geometry": { "type": "Point", "coordinates": [ 8.744205284661621, 52.339501430904029 ] } },
{ "type": "Feature", "properties": { "strassenschluessel": "05770000001207457", "bezeichnung": "Kraienkamp" }, "geometry": { "type": "Point", "coordinates": [ 8.716345923540528, 52.347171780476494 ] } },
{ "type": "Feature", "properties": { "strassenschluessel": "05770000001207458", "bezeichnung": "Krumme Straße" }, "geometry": { "type": "Point", "coordinates": [ 8.75419994937319, 52.355415174507719 ] } },
{ "type": "Feature", "properties": { "strassenschluessel": "05770000001207459", "bezeichnung": "Kuckucksweg" }, "geometry": { "type": "Point", "coordinates": [ 8.765365493083648, 52.368324086437021 ] } },
{ "type": "Feature", "properties": { "strassenschluessel": "05770000001207460", "bezeichnung": "Katharinenweg" }, "geometry": { "type": "Point", "coordinates": [ 8.735808181863128, 52.342733005524245 ] } },
{ "type": "Feature", "properties": { "strassenschluessel": "05770000001207461", "bezeichnung": "Kiebitzweg" }, "geometry": { "type": "Point", "coordinates": [ 8.761957593804873, 52.368148360034105 ] } },
{ "type": "Feature", "properties": { "strassenschluessel": "05770000001207466", "bezeichnung": "Lönsweg" }, "geometry": { "type": "Point", "coordinates": [ 8.737358881237771, 52.339586286373169 ] } },
{ "type": "Feature", "properties": { "strassenschluessel": "05770000001207467", "bezeichnung": "Lüningsheide" }, "geometry": { "type": "Point", "coordinates": [ 8.775878081725864, 52.369437210013622 ] } },
{ "type": "Feature", "properties": { "strassenschluessel": "05770000001207468", "bezeichnung": "Luisenweg" }, "geometry": { "type": "Point", "coordinates": [ 8.743953367840465, 52.340131790830476 ] } },
{ "type": "Feature", "properties": { "strassenschluessel": "05770000001207473", "bezeichnung": "Martin-Luther-Weg" }, "geometry": { "type": "Point", "coordinates": [ 8.746504273416715, 52.335107594310315 ] } },
{ "type": "Feature", "properties": { "strassenschluessel": "05770000001207474", "bezeichnung": "Mindener Straße" }, "geometry": { "type": "Point", "coordinates": [ 8.792368408613253, 52.320941127571089 ] } },
{ "type": "Feature", "properties": { "strassenschluessel": "05770000001207475", "bezeichnung": "Mindenerwaldstraße" }, "geometry": { "type": "Point", "coordinates": [ 8.750645439937239, 52.360769018737898 ] } },
{ "type": "Feature", "properties": { "strassenschluessel": "05770000001207476", "bezeichnung": "Mühlenstraße" }, "geometry": { "type": "Point", "coordinates": [ 8.743118162642537, 52.335193745962222 ] } },
{ "type": "Feature", "properties": { "strassenschluessel": "05770000001207482", "bezeichnung": "Neuenbaumer Weg" }, "geometry": { "type": "Point", "coordinates": [ 8.721384054801373, 52.360972678370111 ] } },
{ "type": "Feature", "properties": { "strassenschluessel": "05770000001207483", "bezeichnung": "Neuenhofstraße" }, "geometry": { "type": "Point", "coordinates": [ 8.770276963354354, 52.373425560331619 ] } },
{ "type": "Feature", "properties": { "strassenschluessel": "05770000001207484", "bezeichnung": "Neue Siedlung" }, "geometry": { "type": "Point", "coordinates": [ 8.738513728686927, 52.339508158284403 ] } },
{ "type": "Feature", "properties": { "strassenschluessel": "05770000001207489", "bezeichnung": "Osterfeld" }, "geometry": { "type": "Point", "coordinates": [ 8.750572122460857, 52.330196639465562 ] } },
{ "type": "Feature", "properties": { "strassenschluessel": "05770000001207490", "bezeichnung": "Osterheider Straße" }, "geometry": { "type": "Point", "coordinates": [ 8.717890693665085, 52.366524153122064 ] } },
{ "type": "Feature", "properties": { "strassenschluessel": "05770000001207493", "bezeichnung": "Paulinenstraße" }, "geometry": { "type": "Point", "coordinates": [ 8.741068255213763, 52.340562565968142 ] } },
{ "type": "Feature", "properties": { "strassenschluessel": "05770000001207494", "bezeichnung": "Peckrenne" }, "geometry": { "type": "Point", "coordinates": [ 8.705458424470388, 52.352449924689346 ] } },
{ "type": "Feature", "properties": { "strassenschluessel": "05770000001207495", "bezeichnung": "Plenge" }, "geometry": { "type": "Point", "coordinates": [ 8.752623403941467, 52.356743790708791 ] } },
{ "type": "Feature", "properties": { "strassenschluessel": "05770000001207496", "bezeichnung": "Poggenburg" }, "geometry": { "type": "Point", "coordinates": [ 8.721113829598861, 52.33978485371123 ] } },
{ "type": "Feature", "properties": { "strassenschluessel": "05770000001207497", "bezeichnung": "Pohlsche Heide" }, "geometry": { "type": "Point", "coordinates": [ 8.786108172589154, 52.382943461878561 ] } },
{ "type": "Feature", "properties": { "strassenschluessel": "05770000001207499", "bezeichnung": "Rahdener Postweg" }, "geometry": { "type": "Point", "coordinates": [ 8.758791528289123, 52.370184625778904 ] } },
{ "type": "Feature", "properties": { "strassenschluessel": "05770000001207500", "bezeichnung": "Rahdener Straße" }, "geometry": { "type": "Point", "coordinates": [ 8.729898907583472, 52.359170705110223 ] } },
{ "type": "Feature", "properties": { "strassenschluessel": "05770000001207501", "bezeichnung": "Ravensberger Straße" }, "geometry": { "type": "Point", "coordinates": [ 8.749709827020322, 52.33413919624018 ] } },
{ "type": "Feature", "properties": { "strassenschluessel": "05770000001207502", "bezeichnung": "Riekkamp" }, "geometry": { "type": "Point", "coordinates": [ 8.742533063598202, 52.374993578395177 ] } },
{ "type": "Feature", "properties": { "strassenschluessel": "05770000001207503", "bezeichnung": "Ritterbruch" }, "geometry": { "type": "Point", "coordinates": [ 8.732238400757588, 52.334513826412277 ] } },
{ "type": "Feature", "properties": { "strassenschluessel": "05770000001207504", "bezeichnung": "Rutenweg" }, "geometry": { "type": "Point", "coordinates": [ 8.769611033465949, 52.369834583329926 ] } },
{ "type": "Feature", "properties": { "strassenschluessel": "05770000001207505", "bezeichnung": "Ringstraße" }, "geometry": { "type": "Point", "coordinates": [ 8.746340492006835, 52.338631028341986 ] } },
{ "type": "Feature", "properties": { "strassenschluessel": "05770000001207506", "bezeichnung": "Raiffeisenstraße" }, "geometry": { "type": "Point", "coordinates": [ 8.745012494602287, 52.33481592520782 ] } },
{ "type": "Feature", "properties": { "strassenschluessel": "05770000001207507", "bezeichnung": "Reimlers Teich" }, "geometry": { "type": "Point", "coordinates": [ 8.741706834509431, 52.334178153602871 ] } },
{ "type": "Feature", "properties": { "strassenschluessel": "05770000001207509", "bezeichnung": "Sachsenweg" }, "geometry": { "type": "Point", "coordinates": [ 8.745193699369688, 52.324965839025936 ] } },
{ "type": "Feature", "properties": { "strassenschluessel": "05770000001207510", "bezeichnung": "Seitenweg" }, "geometry": { "type": "Point", "coordinates": [ 8.739430178121024, 52.340877775710396 ] } },
{ "type": "Feature", "properties": { "strassenschluessel": "05770000001207511", "bezeichnung": "Sportplatzweg" }, "geometry": { "type": "Point", "coordinates": [ 8.731023405810609, 52.342544640215735 ] } },
{ "type": "Feature", "properties": { "strassenschluessel": "05770000001207516", "bezeichnung": "Schelfhornweg" }, "geometry": { "type": "Point", "coordinates": [ 8.731791954960904, 52.383898978710121 ] } },
{ "type": "Feature", "properties": { "strassenschluessel": "05770000001207517", "bezeichnung": "Schierbruchweg" }, "geometry": { "type": "Point", "coordinates": [ 8.747256765491803, 52.345466628636174 ] } },
{ "type": "Feature", "properties": { "strassenschluessel": "05770000001207518", "bezeichnung": "Schlandorfstraße" }, "geometry": { "type": "Point", "coordinates": [ 8.742496210461439, 52.333701790401363 ] } },
{ "type": "Feature", "properties": { "strassenschluessel": "05770000001207519", "bezeichnung": "Schlinggraben" }, "geometry": null },
{ "type": "Feature", "properties": { "strassenschluessel": "05770000001207520", "bezeichnung": "Schmalenfeldweg" }, "geometry": { "type": "Point", "coordinates": [ 8.736276941968544, 52.36465025613002 ] } },
{ "type": "Feature", "properties": { "strassenschluessel": "05770000001207521", "bezeichnung": "Schollendamm" }, "geometry": { "type": "Point", "coordinates": [ 8.726567030431552, 52.345586042871957 ] } },
{ "type": "Feature", "properties": { "strassenschluessel": "05770000001207526", "bezeichnung": "Tannengarten" }, "geometry": { "type": "Point", "coordinates": [ 8.741999466754736, 52.373268683916464 ] } },
{ "type": "Feature", "properties": { "strassenschluessel": "05770000001207527", "bezeichnung": "Tuchtanger" }, "geometry": { "type": "Point", "coordinates": [ 8.767341567375089, 52.368142071090489 ] } },
{ "type": "Feature", "properties": { "strassenschluessel": "05770000001207528", "bezeichnung": "Teichdamm" }, "geometry": { "type": "Point", "coordinates": [ 8.748639856054679, 52.339096055971233 ] } },
{ "type": "Feature", "properties": { "strassenschluessel": "05770000001207532", "bezeichnung": "Volkeningstraße" }, "geometry": { "type": "Point", "coordinates": [ 8.739230085413054, 52.356727717796396 ] } },
{ "type": "Feature", "properties": { "strassenschluessel": "05770000001207533", "bezeichnung": "Von-Oeynhausen-Straße" }, "geometry": { "type": "Point", "coordinates": [ 8.740426280164073, 52.334439918811263 ] } },
{ "type": "Feature", "properties": { "strassenschluessel": "05770000001207536", "bezeichnung": "Westerfeld" }, "geometry": { "type": "Point", "coordinates": [ 8.740831854980474, 52.337608797825908 ] } },
{ "type": "Feature", "properties": { "strassenschluessel": "05770000001207537", "bezeichnung": "Wickriede" }, "geometry": { "type": "Point", "coordinates": [ 8.736553284752366, 52.383460750633468 ] } },
{ "type": "Feature", "properties": { "strassenschluessel": "05770000001207538", "bezeichnung": "Wilhelmstraße" }, "geometry": { "type": "Point", "coordinates": [ 8.742885399696585, 52.341084465336067 ] } },
{ "type": "Feature", "properties": { "strassenschluessel": "05770000001207539", "bezeichnung": "Wittloge" }, "geometry": { "type": "Point", "coordinates": [ 8.749353381572563, 52.365701138039874 ] } },
{ "type": "Feature", "properties": { "strassenschluessel": "05770000001207540", "bezeichnung": "Wagenfeldstraße" }, "geometry": { "type": "Point", "coordinates": [ 8.750338029184238, 52.336595776611894 ] } },
{ "type": "Feature", "properties": { "strassenschluessel": "05770000001207544", "bezeichnung": "Zeisigweg" }, "geometry": { "type": "Point", "coordinates": [ 8.764385579472972, 52.368746331698489 ] } },
{ "type": "Feature", "properties": { "strassenschluessel": "05770000001207545", "bezeichnung": "Ziegeleistraße" }, "geometry": { "type": "Point", "coordinates": [ 8.773375156450784, 52.376295658494648 ] } },
{ "type": "Feature", "properties": { "strassenschluessel": "05770000001207546", "bezeichnung": "Zur Horst" }, "geometry": { "type": "Point", "coordinates": [ 8.767161759774554, 52.340174848970101 ] } },
{ "type": "Feature", "properties": { "strassenschluessel": "05770000001207551", "bezeichnung": "An der Bürgerhalle" }, "geometry": { "type": "Point", "coordinates": [ 8.839633941775698, 52.335974280340885 ] } },
{ "type": "Feature", "properties": { "strassenschluessel": "05770000001207552", "bezeichnung": "An der Heide" }, "geometry": { "type": "Point", "coordinates": [ 8.852959899270523, 52.323144327815164 ] } },
{ "type": "Feature", "properties": { "strassenschluessel": "05770000001207556", "bezeichnung": "Barbaraweg" }, "geometry": { "type": "Point", "coordinates": [ 8.831693101487145, 52.336878670775477 ] } },
{ "type": "Feature", "properties": { "strassenschluessel": "05770000001207557", "bezeichnung": "Breede" }, "geometry": { "type": "Point", "coordinates": [ 8.854561187950161, 52.335494375420382 ] } },
{ "type": "Feature", "properties": { "strassenschluessel": "05770000001207558", "bezeichnung": "Bruchwiesen" }, "geometry": { "type": "Point", "coordinates": [ 8.816879733441551, 52.344583068416298 ] } },
{ "type": "Feature", "properties": { "strassenschluessel": "05770000001207559", "bezeichnung": "Buschkamp" }, "geometry": { "type": "Point", "coordinates": [ 8.835176389361544, 52.334335434893227 ] } },
{ "type": "Feature", "properties": { "strassenschluessel": "05770000001207563", "bezeichnung": "Carl-Severing-Straße" }, "geometry": { "type": "Point", "coordinates": [ 8.847913220979599, 52.327478069278889 ] } },
{ "type": "Feature", "properties": { "strassenschluessel": "05770000001207564", "bezeichnung": "Damm" }, "geometry": { "type": "Point", "coordinates": [ 8.807027325993044, 52.36318443719717 ] } },
{ "type": "Feature", "properties": { "strassenschluessel": "05770000001207565", "bezeichnung": "Dannenkamp" }, "geometry": { "type": "Point", "coordinates": [ 8.835331391564068, 52.326729774806353 ] } },
{ "type": "Feature", "properties": { "strassenschluessel": "05770000001207568", "bezeichnung": "Erikaweg" }, "geometry": { "type": "Point", "coordinates": [ 8.834036369904757, 52.34099873868135 ] } },
{ "type": "Feature", "properties": { "strassenschluessel": "05770000001207569", "bezeichnung": "Eichenkamp" }, "geometry": { "type": "Point", "coordinates": [ 8.830850094379837, 52.33902680493766 ] } },
{ "type": "Feature", "properties": { "strassenschluessel": "05770000001207570", "bezeichnung": "Galgenfeld" }, "geometry": { "type": "Point", "coordinates": [ 8.816429570632685, 52.356803172893144 ] } },
{ "type": "Feature", "properties": { "strassenschluessel": "05770000001207571", "bezeichnung": "Galgenheider Weg" }, "geometry": { "type": "Point", "coordinates": [ 8.809729838570979, 52.361903989671099 ] } },
{ "type": "Feature", "properties": { "strassenschluessel": "05770000001207572", "bezeichnung": "Glockenweg" }, "geometry": { "type": "Point", "coordinates": [ 8.830463988695838, 52.334814908111262 ] } },
{ "type": "Feature", "properties": { "strassenschluessel": "05770000001207573", "bezeichnung": "Gosenstraße" }, "geometry": { "type": "Point", "coordinates": [ 8.846910730212166, 52.325382921953022 ] } },
{ "type": "Feature", "properties": { "strassenschluessel": "05770000001207574", "bezeichnung": "Große Heide" }, "geometry": { "type": "Point", "coordinates": [ 8.833581042143608, 52.340230053468922 ] } },
{ "type": "Feature", "properties": { "strassenschluessel": "05770000001207577", "bezeichnung": "Habichtshorst" }, "geometry": { "type": "Point", "coordinates": [ 8.838066312260551, 52.329074267480728 ] } },
{ "type": "Feature", "properties": { "strassenschluessel": "05770000001207578", "bezeichnung": "Hahler Weg" }, "geometry": { "type": "Point", "coordinates": [ 8.850910846858403, 52.322988589144082 ] } },
{ "type": "Feature", "properties": { "strassenschluessel": "05770000001207579", "bezeichnung": "Holzhauser Dorfstraße" }, "geometry": { "type": "Point", "coordinates": [ 8.828902453796035, 52.337433401339332 ] } },
{ "type": "Feature", "properties": { "strassenschluessel": "05770000001207580", "bezeichnung": "Hormannsweg" }, "geometry": { "type": "Point", "coordinates": [ 8.810015013924909, 52.363950936550395 ] } },
{ "type": "Feature", "properties": { "strassenschluessel": "05770000001207581", "bezeichnung": "Hasenheide" }, "geometry": { "type": "Point", "coordinates": [ 8.833459153755538, 52.342015977521953 ] } },
{ "type": "Feature", "properties": { "strassenschluessel": "05770000001207583", "bezeichnung": "Im Aulmoor" }, "geometry": { "type": "Point", "coordinates": [ 8.82140604785646, 52.333430375454142 ] } },
{ "type": "Feature", "properties": { "strassenschluessel": "05770000001207584", "bezeichnung": "Im Dannen" }, "geometry": { "type": "Point", "coordinates": [ 8.843134738983753, 52.330589408230033 ] } },
{ "type": "Feature", "properties": { "strassenschluessel": "05770000001207586", "bezeichnung": "Im Rehwinkel" }, "geometry": { "type": "Point", "coordinates": [ 8.793621322351111, 52.365250737637616 ] } },
{ "type": "Feature", "properties": { "strassenschluessel": "05770000001207587", "bezeichnung": "Jordanweg" }, "geometry": { "type": "Point", "coordinates": [ 8.851396320892745, 52.324544947641776 ] } },
{ "type": "Feature", "properties": { "strassenschluessel": "05770000001207588", "bezeichnung": "Kleine Heide" }, "geometry": { "type": "Point", "coordinates": [ 8.831626815014396, 52.34155232382912 ] } },
{ "type": "Feature", "properties": { "strassenschluessel": "05770000001207589", "bezeichnung": "Klöpperstätte" }, "geometry": { "type": "Point", "coordinates": [ 8.852943170453402, 52.336288225427317 ] } },
{ "type": "Feature", "properties": { "strassenschluessel": "05770000001207590", "bezeichnung": "Kerkpatt" }, "geometry": { "type": "Point", "coordinates": [ 8.831478902298279, 52.337242550684593 ] } },
{ "type": "Feature", "properties": { "strassenschluessel": "05770000001207592", "bezeichnung": "Landriehe" }, "geometry": { "type": "Point", "coordinates": [ 8.831698741932076, 52.343098171239433 ] } },
{ "type": "Feature", "properties": { "strassenschluessel": "05770000001207593", "bezeichnung": "Lindenstraße" }, "geometry": { "type": "Point", "coordinates": [ 8.832958937589829, 52.337278267592907 ] } },
{ "type": "Feature", "properties": { "strassenschluessel": "05770000001207596", "bezeichnung": "Memelstraße" }, "geometry": { "type": "Point", "coordinates": [ 8.846699926184854, 52.326073377220709 ] } },
{ "type": "Feature", "properties": { "strassenschluessel": "05770000001207597", "bezeichnung": "Minderheider Straße" }, "geometry": { "type": "Point", "coordinates": [ 8.851395933164181, 52.3349431431147 ] } },
{ "type": "Feature", "properties": { "strassenschluessel": "05770000001207603", "bezeichnung": "Ösperweg" }, "geometry": { "type": "Point", "coordinates": [ 8.83549058269236, 52.338645077347905 ] } },
{ "type": "Feature", "properties": { "strassenschluessel": "05770000001207609", "bezeichnung": "Südfelder Weg" }, "geometry": { "type": "Point", "coordinates": [ 8.811494269430376, 52.359975855234389 ] } },
{ "type": "Feature", "properties": { "strassenschluessel": "05770000001207611", "bezeichnung": "Schäferfeld" }, "geometry": { "type": "Point", "coordinates": [ 8.823486497709105, 52.348613007698177 ] } },
{ "type": "Feature", "properties": { "strassenschluessel": "05770000001207612", "bezeichnung": "Schwarzer Weg" }, "geometry": { "type": "Point", "coordinates": [ 8.850582237692795, 52.331226954991955 ] } },
{ "type": "Feature", "properties": { "strassenschluessel": "05770000001207613", "bezeichnung": "Schnepfenweg" }, "geometry": { "type": "Point", "coordinates": [ 8.830855748801095, 52.342195711592673 ] } },
{ "type": "Feature", "properties": { "strassenschluessel": "05770000001207616", "bezeichnung": "Tuchtweg" }, "geometry": { "type": "Point", "coordinates": [ 8.810503110599184, 52.377080765392584 ] } },
{ "type": "Feature", "properties": { "strassenschluessel": "05770000001207619", "bezeichnung": "Vogelweg" }, "geometry": { "type": "Point", "coordinates": [ 8.833064245475432, 52.341659515560025 ] } },
{ "type": "Feature", "properties": { "strassenschluessel": "05770000001207621", "bezeichnung": "Wißbrocksheide" }, "geometry": { "type": "Point", "coordinates": [ 8.85265729009472, 52.339297565660445 ] } },
{ "type": "Feature", "properties": { "strassenschluessel": "05770000001207623", "bezeichnung": "Zum Bruchkamp" }, "geometry": { "type": "Point", "coordinates": [ 8.841261585512532, 52.342036588290426 ] } },
{ "type": "Feature", "properties": { "strassenschluessel": "05770000001207624", "bezeichnung": "Zum Pivitsfeld" }, "geometry": { "type": "Point", "coordinates": [ 8.848754907761855, 52.336829333158256 ] } },
{ "type": "Feature", "properties": { "strassenschluessel": "05770000001207626", "bezeichnung": "Am Knick" }, "geometry": { "type": "Point", "coordinates": [ 8.811003303845879, 52.356613013007411 ] } },
{ "type": "Feature", "properties": { "strassenschluessel": "05770000001207627", "bezeichnung": "An der Kapelle" }, "geometry": { "type": "Point", "coordinates": [ 8.800758294450905, 52.336654325865226 ] } },
{ "type": "Feature", "properties": { "strassenschluessel": "05770000001207628", "bezeichnung": "Auf dem Acker" }, "geometry": { "type": "Point", "coordinates": [ 8.808050029170804, 52.343335557318582 ] } },
{ "type": "Feature", "properties": { "strassenschluessel": "05770000001207629", "bezeichnung": "Auf dem neuen Lande" }, "geometry": { "type": "Point", "coordinates": [ 8.797445019708041, 52.348695631238868 ] } },
{ "type": "Feature", "properties": { "strassenschluessel": "05770000001207630", "bezeichnung": "Auf der Meinte" }, "geometry": { "type": "Point", "coordinates": [ 8.799624791768807, 52.339471051302958 ] } },
{ "type": "Feature", "properties": { "strassenschluessel": "05770000001207631", "bezeichnung": "Am Sportplatz" }, "geometry": { "type": "Point", "coordinates": [ 8.78948668354675, 52.339247425973568 ] } },
{ "type": "Feature", "properties": { "strassenschluessel": "05770000001207632", "bezeichnung": "Alter Postweg" }, "geometry": { "type": "Point", "coordinates": [ 8.780467424870135, 52.35345092008653 ] } },
{ "type": "Feature", "properties": { "strassenschluessel": "05770000001207634", "bezeichnung": "Bliewnißweg" }, "geometry": { "type": "Point", "coordinates": [ 8.796831530797126, 52.35767515599106 ] } },
{ "type": "Feature", "properties": { "strassenschluessel": "05770000001207635", "bezeichnung": "Brüggehorst" }, "geometry": { "type": "Point", "coordinates": [ 8.790162249487425, 52.333099630583717 ] } },
{ "type": "Feature", "properties": { "strassenschluessel": "05770000001207636", "bezeichnung": "Buchhorst" }, "geometry": { "type": "Point", "coordinates": [ 8.808502948019397, 52.339092881577606 ] } },
{ "type": "Feature", "properties": { "strassenschluessel": "05770000001207637", "bezeichnung": "Buschhausen" }, "geometry": { "type": "Point", "coordinates": [ 8.794052557828527, 52.341483450015488 ] } },
{ "type": "Feature", "properties": { "strassenschluessel": "05770000001207642", "bezeichnung": "Detzkamp" }, "geometry": { "type": "Point", "coordinates": [ 8.804636984083112, 52.351392580709081 ] } },
{ "type": "Feature", "properties": { "strassenschluessel": "05770000001207643", "bezeichnung": "Detzkämper Straße" }, "geometry": { "type": "Point", "coordinates": [ 8.806751966432103, 52.349635614371131 ] } },
{ "type": "Feature", "properties": { "strassenschluessel": "05770000001207648", "bezeichnung": "Friedensweg" }, "geometry": { "type": "Point", "coordinates": [ 8.797599262641404, 52.343676513761217 ] } },
{ "type": "Feature", "properties": { "strassenschluessel": "05770000001207651", "bezeichnung": "Ginsterweg" }, "geometry": { "type": "Point", "coordinates": [ 8.800389963722905, 52.359535188870133 ] } },
{ "type": "Feature", "properties": { "strassenschluessel": "05770000001207652", "bezeichnung": "Grefte" }, "geometry": { "type": "Point", "coordinates": [ 8.780408380685797, 52.335650651271351 ] } },
{ "type": "Feature", "properties": { "strassenschluessel": "05770000001207655", "bezeichnung": "Hohe Horst" }, "geometry": { "type": "Point", "coordinates": [ 8.781978477870121, 52.349886663141 ] } },
{ "type": "Feature", "properties": { "strassenschluessel": "05770000001207657", "bezeichnung": "Im Meierkamp" }, "geometry": { "type": "Point", "coordinates": [ 8.800443917969282, 52.340967621415977 ] } },
{ "type": "Feature", "properties": { "strassenschluessel": "05770000001207658", "bezeichnung": "Im Schottbruch" }, "geometry": { "type": "Point", "coordinates": [ 8.779090995627865, 52.357192177254838 ] } },
{ "type": "Feature", "properties": { "strassenschluessel": "05770000001207659", "bezeichnung": "Im Sumpfmoor" }, "geometry": { "type": "Point", "coordinates": [ 8.790540920234262, 52.361078556909035 ] } },
{ "type": "Feature", "properties": { "strassenschluessel": "05770000001207660", "bezeichnung": "Industrieweg" }, "geometry": { "type": "Point", "coordinates": [ 8.808494637671954, 52.341998554307693 ] } },
{ "type": "Feature", "properties": { "strassenschluessel": "05770000001207661", "bezeichnung": "In den Eichen" }, "geometry": { "type": "Point", "coordinates": [ 8.808050371570731, 52.338287007303137 ] } },
{ "type": "Feature", "properties": { "strassenschluessel": "05770000001207663", "bezeichnung": "Kreuzbrink" }, "geometry": { "type": "Point", "coordinates": [ 8.807436911671177, 52.335185255110709 ] } },
{ "type": "Feature", "properties": { "strassenschluessel": "05770000001207665", "bezeichnung": "Landerbach" }, "geometry": { "type": "Point", "coordinates": [ 8.801199735659967, 52.339504324074383 ] } },
{ "type": "Feature", "properties": { "strassenschluessel": "05770000001207666", "bezeichnung": "Lavelsloher Weg" }, "geometry": { "type": "Point", "coordinates": [ 8.771536444038933, 52.380369767252155 ] } },
{ "type": "Feature", "properties": { "strassenschluessel": "05770000001207670", "bezeichnung": "Meierkamp" }, "geometry": { "type": "Point", "coordinates": [ 8.802307470024003, 52.341269084030451 ] } },
{ "type": "Feature", "properties": { "strassenschluessel": "05770000001207672", "bezeichnung": "Nordhemmer Heide" }, "geometry": { "type": "Point", "coordinates": [ 8.781102878151499, 52.336131832730096 ] } },
{ "type": "Feature", "properties": { "strassenschluessel": "05770000001207673", "bezeichnung": "Nelkenweg" }, "geometry": { "type": "Point", "coordinates": [ 8.793359713468529, 52.34192521783887 ] } },
{ "type": "Feature", "properties": { "strassenschluessel": "05770000001207674", "bezeichnung": "Nordhemmer Straße" }, "geometry": { "type": "Point", "coordinates": [ 8.829174532593346, 52.337762620755257 ] } },
{ "type": "Feature", "properties": { "strassenschluessel": "05770000001207677", "bezeichnung": "Ovelgönne" }, "geometry": { "type": "Point", "coordinates": [ 8.816569594610517, 52.350014537981338 ] } },
{ "type": "Feature", "properties": { "strassenschluessel": "05770000001207681", "bezeichnung": "Reinkensweg" }, "geometry": { "type": "Point", "coordinates": [ 8.809752559204783, 52.352913854762093 ] } },
{ "type": "Feature", "properties": { "strassenschluessel": "05770000001207682", "bezeichnung": "Römerweg" }, "geometry": { "type": "Point", "coordinates": [ 8.787968864061176, 52.352238052503203 ] } },
{ "type": "Feature", "properties": { "strassenschluessel": "05770000001207683", "bezeichnung": "Rosengarten" }, "geometry": { "type": "Point", "coordinates": [ 8.802776077878898, 52.346056218290151 ] } },
{ "type": "Feature", "properties": { "strassenschluessel": "05770000001207685", "bezeichnung": "Sandweg" }, "geometry": { "type": "Point", "coordinates": [ 8.776927406375574, 52.36420017548209 ] } },
{ "type": "Feature", "properties": { "strassenschluessel": "05770000001207687", "bezeichnung": "Schäferweg" }, "geometry": { "type": "Point", "coordinates": [ 8.808028405772877, 52.335987393181462 ] } },
{ "type": "Feature", "properties": { "strassenschluessel": "05770000001207690", "bezeichnung": "Thielhorst" }, "geometry": { "type": "Point", "coordinates": [ 8.816240525863032, 52.34589724277366 ] } },
{ "type": "Feature", "properties": { "strassenschluessel": "05770000001207693", "bezeichnung": "Westerholzstraße" }, "geometry": { "type": "Point", "coordinates": [ 8.783637690090789, 52.332884993114874 ] } },
{ "type": "Feature", "properties": { "strassenschluessel": "05770000001207694", "bezeichnung": "Windmühlenweg" }, "geometry": { "type": "Point", "coordinates": [ 8.791475859256845, 52.341709149393381 ] } },
{ "type": "Feature", "properties": { "strassenschluessel": "05770000001207695", "bezeichnung": "Zum Osterbruch" }, "geometry": { "type": "Point", "coordinates": [ 8.810002733491967, 52.34114022542262 ] } },
{ "type": "Feature", "properties": { "strassenschluessel": "05770000001207696", "bezeichnung": "Zum Hahnenhügel" }, "geometry": { "type": "Point", "coordinates": [ 8.802064781903237, 52.360200321063424 ] } },
{ "type": "Feature", "properties": { "strassenschluessel": "05770000001207697", "bezeichnung": "Zum Schlüsselbrink" }, "geometry": { "type": "Point", "coordinates": [ 8.806473316617602, 52.359192720786432 ] } },
{ "type": "Feature", "properties": { "strassenschluessel": "05770000001207698", "bezeichnung": "Zum schwarzen Pohl" }, "geometry": { "type": "Point", "coordinates": [ 8.789428114766389, 52.351749864921018 ] } },
{ "type": "Feature", "properties": { "strassenschluessel": "05770000001207699", "bezeichnung": "Zum Wolfshagen" }, "geometry": { "type": "Point", "coordinates": [ 8.784157713659347, 52.338744451518203 ] } },
{ "type": "Feature", "properties": { "strassenschluessel": "05770000001207700", "bezeichnung": "Zur Ösperquelle" }, "geometry": { "type": "Point", "coordinates": [ 8.806153396383104, 52.338804862203617 ] } },
{ "type": "Feature", "properties": { "strassenschluessel": "05770000001207701", "bezeichnung": "Am Bergbach" }, "geometry": { "type": "Point", "coordinates": [ 8.73938856863642, 52.28645846890953 ] } },
{ "type": "Feature", "properties": { "strassenschluessel": "05770000001207702", "bezeichnung": "Am Buchenberg" }, "geometry": { "type": "Point", "coordinates": [ 8.767476400349278, 52.274851802966204 ] } },
{ "type": "Feature", "properties": { "strassenschluessel": "05770000001207703", "bezeichnung": "Am Mühlenteich" }, "geometry": { "type": "Point", "coordinates": [ 8.762073454270322, 52.278852185128677 ] } },
{ "type": "Feature", "properties": { "strassenschluessel": "05770000001207704", "bezeichnung": "Am Wiehen" }, "geometry": { "type": "Point", "coordinates": [ 8.751093552910746, 52.28437497716989 ] } },
{ "type": "Feature", "properties": { "strassenschluessel": "05770000001207705", "bezeichnung": "Auf dem Kampe" }, "geometry": { "type": "Point", "coordinates": [ 8.75413378858002, 52.284917280863077 ] } },
{ "type": "Feature", "properties": { "strassenschluessel": "05770000001207706", "bezeichnung": "Alte Ellernstraße" }, "geometry": { "type": "Point", "coordinates": [ 8.756005347409356, 52.284581148997241 ] } },
{ "type": "Feature", "properties": { "strassenschluessel": "05770000001207707", "bezeichnung": "Bergstraße" }, "geometry": { "type": "Point", "coordinates": [ 8.722156779034524, 52.297090065210639 ] } },
{ "type": "Feature", "properties": { "strassenschluessel": "05770000001207708", "bezeichnung": "Bergweg" }, "geometry": { "type": "Point", "coordinates": [ 8.743459881860142, 52.284987242683016 ] } },
{ "type": "Feature", "properties": { "strassenschluessel": "05770000001207709", "bezeichnung": "Bornstraße" }, "geometry": { "type": "Point", "coordinates": [ 8.75497058198693, 52.288441675197895 ] } },
{ "type": "Feature", "properties": { "strassenschluessel": "05770000001207710", "bezeichnung": "Buchengrund" }, "geometry": { "type": "Point", "coordinates": [ 8.763092353809819, 52.278048401474344 ] } },
{ "type": "Feature", "properties": { "strassenschluessel": "05770000001207711", "bezeichnung": "Am Hang" }, "geometry": { "type": "Point", "coordinates": [ 8.7482005019199, 52.284416602131635 ] } },
{ "type": "Feature", "properties": { "strassenschluessel": "05770000001207715", "bezeichnung": "Duststeinweg" }, "geometry": null },
{ "type": "Feature", "properties": { "strassenschluessel": "05770000001207717", "bezeichnung": "Eichengrund" }, "geometry": { "type": "Point", "coordinates": [ 8.748057122785406, 52.289899734586889 ] } },
{ "type": "Feature", "properties": { "strassenschluessel": "05770000001207718", "bezeichnung": "Elfter Straße" }, "geometry": { "type": "Point", "coordinates": [ 8.763257349317927, 52.28027460365891 ] } },
{ "type": "Feature", "properties": { "strassenschluessel": "05770000001207719", "bezeichnung": "Elfter Tor" }, "geometry": { "type": "Point", "coordinates": [ 8.776534734829138, 52.284390820365005 ] } },
{ "type": "Feature", "properties": { "strassenschluessel": "05770000001207723", "bezeichnung": "Fasanenstraße" }, "geometry": { "type": "Point", "coordinates": [ 8.765420745953939, 52.288247831081627 ] } },
{ "type": "Feature", "properties": { "strassenschluessel": "05770000001207724", "bezeichnung": "Fichtenstraße" }, "geometry": { "type": "Point", "coordinates": [ 8.75477058973804, 52.280900784085937 ] } },
{ "type": "Feature", "properties": { "strassenschluessel": "05770000001207725", "bezeichnung": "Forellenweg" }, "geometry": { "type": "Point", "coordinates": [ 8.755960472717369, 52.283137822277332 ] } },
{ "type": "Feature", "properties": { "strassenschluessel": "05770000001207728", "bezeichnung": "Großer Garten" }, "geometry": { "type": "Point", "coordinates": [ 8.732777815631287, 52.290642503417082 ] } },
{ "type": "Feature", "properties": { "strassenschluessel": "05770000001207729", "bezeichnung": "Grüner Weg" }, "geometry": { "type": "Point", "coordinates": [ 8.745833170555914, 52.288221641694065 ] } },
{ "type": "Feature", "properties": { "strassenschluessel": "05770000001207734", "bezeichnung": "Hauptstraße" }, "geometry": { "type": "Point", "coordinates": [ 8.727055393635494, 52.292508107105093 ] } },
{ "type": "Feature", "properties": { "strassenschluessel": "05770000001207735", "bezeichnung": "Heidacker" }, "geometry": { "type": "Point", "coordinates": [ 8.766562460822517, 52.277941059982851 ] } },
{ "type": "Feature", "properties": { "strassenschluessel": "05770000001207736", "bezeichnung": "Hohes Land" }, "geometry": { "type": "Point", "coordinates": [ 8.760055439815613, 52.28039115015936 ] } },
{ "type": "Feature", "properties": { "strassenschluessel": "05770000001207737", "bezeichnung": "Hoppenstaken" }, "geometry": { "type": "Point", "coordinates": [ 8.755416002084333, 52.279167620745902 ] } },
{ "type": "Feature", "properties": { "strassenschluessel": "05770000001207742", "bezeichnung": "In den Elfter Wiesen" }, "geometry": { "type": "Point", "coordinates": [ 8.768550294410272, 52.282685373457895 ] } },
{ "type": "Feature", "properties": { "strassenschluessel": "05770000001207743", "bezeichnung": "Inselweg" }, "geometry": { "type": "Point", "coordinates": [ 8.762969870481884, 52.279318637353626 ] } },
{ "type": "Feature", "properties": { "strassenschluessel": "05770000001207745", "bezeichnung": "Kirschenweg" }, "geometry": { "type": "Point", "coordinates": [ 8.764665556435066, 52.279792917616795 ] } },
{ "type": "Feature", "properties": { "strassenschluessel": "05770000001207746", "bezeichnung": "Kiefernweg" }, "geometry": { "type": "Point", "coordinates": [ 8.757369220857045, 52.28481045761135 ] } },
{ "type": "Feature", "properties": { "strassenschluessel": "05770000001207747", "bezeichnung": "Koling" }, "geometry": { "type": "Point", "coordinates": [ 8.753212614173769, 52.292597053888478 ] } },
{ "type": "Feature", "properties": { "strassenschluessel": "05770000001207748", "bezeichnung": "Korfskamp" }, "geometry": { "type": "Point", "coordinates": [ 8.757016660352908, 52.285629202641111 ] } },
{ "type": "Feature", "properties": { "strassenschluessel": "05770000001207749", "bezeichnung": "Korfskämper Schulweg" }, "geometry": { "type": "Point", "coordinates": [ 8.754735212829569, 52.284932223996158 ] } },
{ "type": "Feature", "properties": { "strassenschluessel": "05770000001207752", "bezeichnung": "Lange Straße" }, "geometry": { "type": "Point", "coordinates": [ 8.731347336484163, 52.291167587144272 ] } },
{ "type": "Feature", "properties": { "strassenschluessel": "05770000001207753", "bezeichnung": "Lübber Berg" }, "geometry": { "type": "Point", "coordinates": [ 8.726801923074158, 52.290787847119731 ] } },
{ "type": "Feature", "properties": { "strassenschluessel": "05770000001207754", "bezeichnung": "Lübber Schulweg" }, "geometry": { "type": "Point", "coordinates": [ 8.730902549375534, 52.289433396582325 ] } },
{ "type": "Feature", "properties": { "strassenschluessel": "05770000001207755", "bezeichnung": "Lübber Tor" }, "geometry": { "type": "Point", "coordinates": [ 8.716639912880197, 52.293550296251489 ] } },
{ "type": "Feature", "properties": { "strassenschluessel": "05770000001207756", "bezeichnung": "Lübber Holz" }, "geometry": { "type": "Point", "coordinates": [ 8.74313383662412, 52.285800259099148 ] } },
{ "type": "Feature", "properties": { "strassenschluessel": "05770000001207757", "bezeichnung": "Lübber Hang" }, "geometry": { "type": "Point", "coordinates": [ 8.746137529517776, 52.284187134357332 ] } },
{ "type": "Feature", "properties": { "strassenschluessel": "05770000001207758", "bezeichnung": "Maschweg" }, "geometry": { "type": "Point", "coordinates": [ 8.740635322624854, 52.29804208156375 ] } },
{ "type": "Feature", "properties": { "strassenschluessel": "05770000001207759", "bezeichnung": "Meente" }, "geometry": { "type": "Point", "coordinates": [ 8.75149018494095, 52.292927035974714 ] } },
{ "type": "Feature", "properties": { "strassenschluessel": "05770000001207764", "bezeichnung": "Nordhang" }, "geometry": { "type": "Point", "coordinates": [ 8.750328765692851, 52.283359355264452 ] } },
{ "type": "Feature", "properties": { "strassenschluessel": "05770000001207767", "bezeichnung": "Obernstraße" }, "geometry": { "type": "Point", "coordinates": [ 8.760463817918465, 52.279141052151566 ] } },
{ "type": "Feature", "properties": { "strassenschluessel": "05770000001207768", "bezeichnung": "Oelbrink" }, "geometry": { "type": "Point", "coordinates": [ 8.759661182698609, 52.277143617789676 ] } },
{ "type": "Feature", "properties": { "strassenschluessel": "05770000001207770", "bezeichnung": "Poststraße" }, "geometry": { "type": "Point", "coordinates": [ 8.759243803426527, 52.286913261414369 ] } },
{ "type": "Feature", "properties": { "strassenschluessel": "05770000001207772", "bezeichnung": "Quellenweg" }, "geometry": { "type": "Point", "coordinates": [ 8.747024464466017, 52.284634770757897 ] } },
{ "type": "Feature", "properties": { "strassenschluessel": "05770000001207773", "bezeichnung": "Rodelweg" }, "geometry": { "type": "Point", "coordinates": [ 8.749046126449855, 52.283197504026241 ] } },
{ "type": "Feature", "properties": { "strassenschluessel": "05770000001207776", "bezeichnung": "Sonnenbrink" }, "geometry": { "type": "Point", "coordinates": [ 8.760494435004759, 52.279718091769034 ] } },
{ "type": "Feature", "properties": { "strassenschluessel": "05770000001207779", "bezeichnung": "Schriesenhof" }, "geometry": { "type": "Point", "coordinates": [ 8.764558736963254, 52.281193557862181 ] } },
{ "type": "Feature", "properties": { "strassenschluessel": "05770000001207781", "bezeichnung": "Schülerweg" }, "geometry": { "type": "Point", "coordinates": [ 8.75171825897092, 52.285434479034222 ] } },
{ "type": "Feature", "properties": { "strassenschluessel": "05770000001207784", "bezeichnung": "Steiler Weg" }, "geometry": { "type": "Point", "coordinates": [ 8.759060676484477, 52.281186865131772 ] } },
{ "type": "Feature", "properties": { "strassenschluessel": "05770000001207785", "bezeichnung": "Steinstraße" }, "geometry": { "type": "Point", "coordinates": [ 8.752389968028917, 52.283456252501502 ] } },
{ "type": "Feature", "properties": { "strassenschluessel": "05770000001207786", "bezeichnung": "Stiller Winkel" }, "geometry": { "type": "Point", "coordinates": [ 8.774062211378705, 52.285785826081245 ] } },
{ "type": "Feature", "properties": { "strassenschluessel": "05770000001207789", "bezeichnung": "Ulmenstraße" }, "geometry": { "type": "Point", "coordinates": [ 8.730052022610311, 52.292669460571545 ] } },
{ "type": "Feature", "properties": { "strassenschluessel": "05770000001207790", "bezeichnung": "Unterm Berge" }, "geometry": { "type": "Point", "coordinates": [ 8.732019026486499, 52.288254335408233 ] } },
{ "type": "Feature", "properties": { "strassenschluessel": "05770000001207793", "bezeichnung": "Wallücke" }, "geometry": { "type": "Point", "coordinates": [ 8.761382978260313, 52.279328037363584 ] } },
{ "type": "Feature", "properties": { "strassenschluessel": "05770000001207794", "bezeichnung": "Winkelweg" }, "geometry": { "type": "Point", "coordinates": [ 8.750593401088201, 52.282890976555393 ] } },
{ "type": "Feature", "properties": { "strassenschluessel": "05770000001207797", "bezeichnung": "Zum Königsberg" }, "geometry": { "type": "Point", "coordinates": [ 8.738326117453811, 52.292838988019312 ] } },
{ "type": "Feature", "properties": { "strassenschluessel": "05770000001207801", "bezeichnung": "Ackerweg" }, "geometry": { "type": "Point", "coordinates": [ 8.800165239593362, 52.27999763254995 ] } },
{ "type": "Feature", "properties": { "strassenschluessel": "05770000001207802", "bezeichnung": "Am Eckerngarten" }, "geometry": { "type": "Point", "coordinates": [ 8.813342582617102, 52.279423275298711 ] } },
{ "type": "Feature", "properties": { "strassenschluessel": "05770000001207803", "bezeichnung": "Am Fuchsbach" }, "geometry": { "type": "Point", "coordinates": [ 8.778405317140223, 52.27538671678051 ] } },
{ "type": "Feature", "properties": { "strassenschluessel": "05770000001207804", "bezeichnung": "Am Mühlenbach" }, "geometry": { "type": "Point", "coordinates": [ 8.79418460893767, 52.289528504861657 ] } },
{ "type": "Feature", "properties": { "strassenschluessel": "05770000001207805", "bezeichnung": "Amselstraße" }, "geometry": { "type": "Point", "coordinates": [ 8.790876992697681, 52.275109311552718 ] } },
{ "type": "Feature", "properties": { "strassenschluessel": "05770000001207806", "bezeichnung": "Asternweg" }, "geometry": { "type": "Point", "coordinates": [ 8.795260157442778, 52.271358644034692 ] } },
{ "type": "Feature", "properties": { "strassenschluessel": "05770000001207807", "bezeichnung": "Am Griepshop" }, "geometry": { "type": "Point", "coordinates": [ 8.78876461166673, 52.275060671055897 ] } },
{ "type": "Feature", "properties": { "strassenschluessel": "05770000001207808", "bezeichnung": "Adlerweg" }, "geometry": { "type": "Point", "coordinates": [ 8.79246066931351, 52.276115477856386 ] } },
{ "type": "Feature", "properties": { "strassenschluessel": "05770000001207810", "bezeichnung": "Auf dem alten Teiche" }, "geometry": { "type": "Point", "coordinates": [ 8.790047686034125, 52.284447406614248 ] } },
{ "type": "Feature", "properties": { "strassenschluessel": "05770000001207811", "bezeichnung": "Bäckerstraße" }, "geometry": { "type": "Point", "coordinates": [ 8.791903744837066, 52.283614868299821 ] } },
{ "type": "Feature", "properties": { "strassenschluessel": "05770000001207812", "bezeichnung": "Bergkirchener Straße" }, "geometry": { "type": "Point", "coordinates": [ 8.789908916711695, 52.283204730353226 ] } },
{ "type": "Feature", "properties": { "strassenschluessel": "05770000001207813", "bezeichnung": "Blumenstraße" }, "geometry": { "type": "Point", "coordinates": [ 8.797009424437974, 52.271976357299842 ] } },
{ "type": "Feature", "properties": { "strassenschluessel": "05770000001207814", "bezeichnung": "Bökerstraße" }, "geometry": { "type": "Point", "coordinates": [ 8.780770013517845, 52.276487743996711 ] } },
{ "type": "Feature", "properties": { "strassenschluessel": "05770000001207815", "bezeichnung": "Boselweg" }, "geometry": { "type": "Point", "coordinates": [ 8.793183224188089, 52.275728353736355 ] } },
{ "type": "Feature", "properties": { "strassenschluessel": "05770000001207816", "bezeichnung": "Bruchstraße" }, "geometry": { "type": "Point", "coordinates": [ 8.804839453664627, 52.285770119424861 ] } },
{ "type": "Feature", "properties": { "strassenschluessel": "05770000001207817", "bezeichnung": "Burgstraße" }, "geometry": { "type": "Point", "coordinates": [ 8.781240679242433, 52.271432751341308 ] } },
{ "type": "Feature", "properties": { "strassenschluessel": "05770000001207820", "bezeichnung": "Dohlenweg" }, "geometry": { "type": "Point", "coordinates": [ 8.793687070759184, 52.27320183799133 ] } },
{ "type": "Feature", "properties": { "strassenschluessel": "05770000001207822", "bezeichnung": "Eicksen" }, "geometry": { "type": "Point", "coordinates": [ 8.79316563422093, 52.272501289849025 ] } },
{ "type": "Feature", "properties": { "strassenschluessel": "05770000001207823", "bezeichnung": "Eickser Breede" }, "geometry": { "type": "Point", "coordinates": [ 8.804268418633898, 52.282319110122096 ] } },
{ "type": "Feature", "properties": { "strassenschluessel": "05770000001207824", "bezeichnung": "Eickser Grund" }, "geometry": { "type": "Point", "coordinates": [ 8.800141510090633, 52.281082202396838 ] } },
{ "type": "Feature", "properties": { "strassenschluessel": "05770000001207827", "bezeichnung": "Finkenstraße" }, "geometry": { "type": "Point", "coordinates": [ 8.795507404468063, 52.273496352170355 ] } },
{ "type": "Feature", "properties": { "strassenschluessel": "05770000001207828", "bezeichnung": "Fröbelstraße" }, "geometry": { "type": "Point", "coordinates": [ 8.792146508206629, 52.283770625341411 ] } },
{ "type": "Feature", "properties": { "strassenschluessel": "05770000001207831", "bezeichnung": "Gartenstraße" }, "geometry": { "type": "Point", "coordinates": [ 8.7856380528749, 52.276699966220086 ] } },
{ "type": "Feature", "properties": { "strassenschluessel": "05770000001207832", "bezeichnung": "Gerader Weg" }, "geometry": { "type": "Point", "coordinates": [ 8.793484622842254, 52.275628124104053 ] } },
{ "type": "Feature", "properties": { "strassenschluessel": "05770000001207833", "bezeichnung": "Grenzweg" }, "geometry": { "type": "Point", "coordinates": [ 8.777632224890475, 52.286699009765151 ] } },
{ "type": "Feature", "properties": { "strassenschluessel": "05770000001207834", "bezeichnung": "Griepshop" }, "geometry": { "type": "Point", "coordinates": [ 8.787573229490903, 52.277475454606652 ] } },
{ "type": "Feature", "properties": { "strassenschluessel": "05770000001207837", "bezeichnung": "Hangweg" }, "geometry": { "type": "Point", "coordinates": [ 8.779853942956203, 52.271885887643663 ] } },
{ "type": "Feature", "properties": { "strassenschluessel": "05770000001207838", "bezeichnung": "Hardenbergstraße" }, "geometry": { "type": "Point", "coordinates": [ 8.793637148818183, 52.283686058194291 ] } },
{ "type": "Feature", "properties": { "strassenschluessel": "05770000001207839", "bezeichnung": "Hartumer Straße" }, "geometry": { "type": "Point", "coordinates": [ 8.798244167247706, 52.290726053082217 ] } },
{ "type": "Feature", "properties": { "strassenschluessel": "05770000001207841", "bezeichnung": "Heidestraße" }, "geometry": { "type": "Point", "coordinates": [ 8.778453972793855, 52.281260693080988 ] } },
{ "type": "Feature", "properties": { "strassenschluessel": "05770000001207842", "bezeichnung": "Heuweg" }, "geometry": { "type": "Point", "coordinates": [ 8.799220323735652, 52.28814271483445 ] } },
{ "type": "Feature", "properties": { "strassenschluessel": "05770000001207843", "bezeichnung": "Hötkeweg" }, "geometry": { "type": "Point", "coordinates": [ 8.803351267423247, 52.274642691084694 ] } },
{ "type": "Feature", "properties": { "strassenschluessel": "05770000001207844", "bezeichnung": "Hüttenweg" }, "geometry": { "type": "Point", "coordinates": [ 8.791125168086204, 52.271218926446679 ] } },
{ "type": "Feature", "properties": { "strassenschluessel": "05770000001207847", "bezeichnung": "Im Felde" }, "geometry": { "type": "Point", "coordinates": [ 8.784879096976718, 52.278379495081964 ] } },
{ "type": "Feature", "properties": { "strassenschluessel": "05770000001207848", "bezeichnung": "Im Dustfeld" }, "geometry": { "type": "Point", "coordinates": [ 8.78294158133566, 52.277037248067757 ] } },
{ "type": "Feature", "properties": { "strassenschluessel": "05770000001207850", "bezeichnung": "Jägerstraße" }, "geometry": { "type": "Point", "coordinates": [ 8.782197358340287, 52.282877286966993 ] } },
{ "type": "Feature", "properties": { "strassenschluessel": "05770000001207851", "bezeichnung": "Jahnstraße" }, "geometry": { "type": "Point", "coordinates": [ 8.794631818839036, 52.283752496960147 ] } },
{ "type": "Feature", "properties": { "strassenschluessel": "05770000001207852", "bezeichnung": "Kampstraße" }, "geometry": { "type": "Point", "coordinates": [ 8.800215235189661, 52.275490252797198 ] } },
{ "type": "Feature", "properties": { "strassenschluessel": "05770000001207853", "bezeichnung": "Kapellenweg" }, "geometry": { "type": "Point", "coordinates": [ 8.793289944068782, 52.284614712944915 ] } },
{ "type": "Feature", "properties": { "strassenschluessel": "05770000001207854", "bezeichnung": "Kesselgarten" }, "geometry": { "type": "Point", "coordinates": [ 8.799691688366114, 52.292237792391191 ] } },
{ "type": "Feature", "properties": { "strassenschluessel": "05770000001207855", "bezeichnung": "Kirchweg" }, "geometry": { "type": "Point", "coordinates": [ 8.779926979299606, 52.273088753562625 ] } },
{ "type": "Feature", "properties": { "strassenschluessel": "05770000001207856", "bezeichnung": "Koppelweg" }, "geometry": { "type": "Point", "coordinates": [ 8.799212626670656, 52.290565181726748 ] } },
{ "type": "Feature", "properties": { "strassenschluessel": "05770000001207857", "bezeichnung": "Kornacker" }, "geometry": { "type": "Point", "coordinates": [ 8.784364230740239, 52.279059356259744 ] } },
{ "type": "Feature", "properties": { "strassenschluessel": "05770000001207859", "bezeichnung": "Lerchenstraße" }, "geometry": { "type": "Point", "coordinates": [ 8.789712274533287, 52.274720092079995 ] } },
{ "type": "Feature", "properties": { "strassenschluessel": "05770000001207860", "bezeichnung": "Lübbecker Straße" }, "geometry": { "type": "Point", "coordinates": [ 8.774076987338427, 52.29688763870012 ] } },
{ "type": "Feature", "properties": { "strassenschluessel": "05770000001207861", "bezeichnung": "Laupnerweg" }, "geometry": { "type": "Point", "coordinates": [ 8.795923062666663, 52.290220456758824 ] } },
{ "type": "Feature", "properties": { "strassenschluessel": "05770000001207863", "bezeichnung": "Marienstraße" }, "geometry": { "type": "Point", "coordinates": [ 8.79271129594563, 52.286644094247322 ] } },
{ "type": "Feature", "properties": { "strassenschluessel": "05770000001207864", "bezeichnung": "Meisenweg" }, "geometry": { "type": "Point", "coordinates": [ 8.789947717495513, 52.273960063167628 ] } },
{ "type": "Feature", "properties": { "strassenschluessel": "05770000001207865", "bezeichnung": "Mittelweg" }, "geometry": { "type": "Point", "coordinates": [ 8.79216070674928, 52.273015268595501 ] } },
{ "type": "Feature", "properties": { "strassenschluessel": "05770000001207866", "bezeichnung": "Mohnweg" }, "geometry": { "type": "Point", "coordinates": [ 8.795601810751853, 52.271927205308941 ] } },
{ "type": "Feature", "properties": { "strassenschluessel": "05770000001207868", "bezeichnung": "Nachtigallenweg" }, "geometry": { "type": "Point", "coordinates": [ 8.788664798817827, 52.276903834061194 ] } },
{ "type": "Feature", "properties": { "strassenschluessel": "05770000001207869", "bezeichnung": "Oststraße" }, "geometry": { "type": "Point", "coordinates": [ 8.795905086591828, 52.271599700436255 ] } },
{ "type": "Feature", "properties": { "strassenschluessel": "05770000001207871", "bezeichnung": "Pappelweg" }, "geometry": { "type": "Point", "coordinates": [ 8.791569988728741, 52.286093653972294 ] } },
{ "type": "Feature", "properties": { "strassenschluessel": "05770000001207872", "bezeichnung": "Pestalozziweg" }, "geometry": { "type": "Point", "coordinates": [ 8.791158941714349, 52.283120017936525 ] } },
{ "type": "Feature", "properties": { "strassenschluessel": "05770000001207874", "bezeichnung": "Rosenweg" }, "geometry": { "type": "Point", "coordinates": [ 8.799087777877959, 52.286725743469965 ] } },
{ "type": "Feature", "properties": { "strassenschluessel": "05770000001207876", "bezeichnung": "Schwönkamp" }, "geometry": { "type": "Point", "coordinates": [ 8.796798617191092, 52.274281262648593 ] } },
{ "type": "Feature", "properties": { "strassenschluessel": "05770000001207877", "bezeichnung": "Siebenackern" }, "geometry": { "type": "Point", "coordinates": [ 8.793076297260791, 52.270035886585411 ] } },
{ "type": "Feature", "properties": { "strassenschluessel": "05770000001207878", "bezeichnung": "Spembrink" }, "geometry": { "type": "Point", "coordinates": [ 8.793880391624571, 52.286545239649534 ] } },
{ "type": "Feature", "properties": { "strassenschluessel": "05770000001207881", "bezeichnung": "Schwalbenweg" }, "geometry": { "type": "Point", "coordinates": [ 8.790928506441835, 52.274128947064192 ] } },
{ "type": "Feature", "properties": { "strassenschluessel": "05770000001207882", "bezeichnung": "Schwöen" }, "geometry": { "type": "Point", "coordinates": [ 8.789250650048858, 52.268784647398235 ] } },
{ "type": "Feature", "properties": { "strassenschluessel": "05770000001207886", "bezeichnung": "Teichstraße" }, "geometry": { "type": "Point", "coordinates": [ 8.781909582512981, 52.286589119953362 ] } },
{ "type": "Feature", "properties": { "strassenschluessel": "05770000001207888", "bezeichnung": "Uffler Straße" }, "geometry": { "type": "Point", "coordinates": [ 8.793332733645343, 52.270583150437197 ] } },
{ "type": "Feature", "properties": { "strassenschluessel": "05770000001207889", "bezeichnung": "Vor dem Tor" }, "geometry": { "type": "Point", "coordinates": [ 8.777329484232643, 52.284532771697208 ] } },
{ "type": "Feature", "properties": { "strassenschluessel": "05770000001207891", "bezeichnung": "Waldweg" }, "geometry": { "type": "Point", "coordinates": [ 8.78207837821083, 52.271388169686375 ] } },
{ "type": "Feature", "properties": { "strassenschluessel": "05770000001207892", "bezeichnung": "Weidestraße" }, "geometry": { "type": "Point", "coordinates": [ 8.776598676809309, 52.285606956642532 ] } },
{ "type": "Feature", "properties": { "strassenschluessel": "05770000001207893", "bezeichnung": "Wiesenstraße" }, "geometry": { "type": "Point", "coordinates": [ 8.808586356684705, 52.28470048036116 ] } },
{ "type": "Feature", "properties": { "strassenschluessel": "05770000001207894", "bezeichnung": "Winkelhausen" }, "geometry": { "type": "Point", "coordinates": [ 8.813229060821056, 52.280510106188764 ] } },
{ "type": "Feature", "properties": { "strassenschluessel": "05770000001207895", "bezeichnung": "Wachtelweg" }, "geometry": { "type": "Point", "coordinates": [ 8.790988347785774, 52.276400452874853 ] } },
{ "type": "Feature", "properties": { "strassenschluessel": "05770000001207897", "bezeichnung": "Zum Griepshop" }, "geometry": { "type": "Point", "coordinates": [ 8.785856370451381, 52.272357026023215 ] } },
{ "type": "Feature", "properties": { "strassenschluessel": "05770000001207898", "bezeichnung": "Zur Heide" }, "geometry": { "type": "Point", "coordinates": [ 8.780689364401505, 52.282469355450345 ] } },
{ "type": "Feature", "properties": { "strassenschluessel": "05770000001207901", "bezeichnung": "Allerbruch" }, "geometry": { "type": "Point", "coordinates": [ 8.780731345178546, 52.31849707660993 ] } },
{ "type": "Feature", "properties": { "strassenschluessel": "05770000001207904", "bezeichnung": "Binnenweg" }, "geometry": { "type": "Point", "coordinates": [ 8.792217775105691, 52.319738098032317 ] } },
{ "type": "Feature", "properties": { "strassenschluessel": "05770000001207907", "bezeichnung": "Fischerkamp" }, "geometry": { "type": "Point", "coordinates": [ 8.782775021175903, 52.319664580557919 ] } },
{ "type": "Feature", "properties": { "strassenschluessel": "05770000001207908", "bezeichnung": "Fischerstadt" }, "geometry": { "type": "Point", "coordinates": [ 8.784490074884019, 52.320568568107291 ] } },
{ "type": "Feature", "properties": { "strassenschluessel": "05770000001207910", "bezeichnung": "Gramsdamm" }, "geometry": { "type": "Point", "coordinates": [ 8.771048396771768, 52.351041824708162 ] } },
{ "type": "Feature", "properties": { "strassenschluessel": "05770000001207913", "bezeichnung": "Hainweg" }, "geometry": { "type": "Point", "coordinates": [ 8.76915942555644, 52.357041341534156 ] } },
{ "type": "Feature", "properties": { "strassenschluessel": "05770000001207914", "bezeichnung": "Hatzhorn" }, "geometry": { "type": "Point", "coordinates": [ 8.773590428242603, 52.329691138450237 ] } },
{ "type": "Feature", "properties": { "strassenschluessel": "05770000001207917", "bezeichnung": "Im Dorf" }, "geometry": { "type": "Point", "coordinates": [ 8.796952427066666, 52.319138367033943 ] } },
{ "type": "Feature", "properties": { "strassenschluessel": "05770000001207918", "bezeichnung": "In der Riehe" }, "geometry": { "type": "Point", "coordinates": [ 8.802596356419654, 52.316105237832325 ] } },
{ "type": "Feature", "properties": { "strassenschluessel": "05770000001207919", "bezeichnung": "In der Stockwiese" }, "geometry": { "type": "Point", "coordinates": [ 8.782788805320541, 52.31869512589369 ] } },
{ "type": "Feature", "properties": { "strassenschluessel": "05770000001207920", "bezeichnung": "Kölkenweg" }, "geometry": { "type": "Point", "coordinates": [ 8.758623869079806, 52.324808738301449 ] } },
{ "type": "Feature", "properties": { "strassenschluessel": "05770000001207921", "bezeichnung": "Kleiner Weg" }, "geometry": { "type": "Point", "coordinates": [ 8.784814945045738, 52.318403460413535 ] } },
{ "type": "Feature", "properties": { "strassenschluessel": "05770000001207922", "bezeichnung": "Leiwkenstadt" }, "geometry": { "type": "Point", "coordinates": [ 8.770594871998325, 52.353697754039707 ] } },
{ "type": "Feature", "properties": { "strassenschluessel": "05770000001207926", "bezeichnung": "Molkereiweg" }, "geometry": { "type": "Point", "coordinates": [ 8.797700767960901, 52.327432871438091 ] } },
{ "type": "Feature", "properties": { "strassenschluessel": "05770000001207927", "bezeichnung": "Mühlenheide" }, "geometry": { "type": "Point", "coordinates": [ 8.777840804561022, 52.319802138521787 ] } },
{ "type": "Feature", "properties": { "strassenschluessel": "05770000001207929", "bezeichnung": "Neuer Damm" }, "geometry": { "type": "Point", "coordinates": [ 8.785512808221688, 52.318482488215395 ] } },
{ "type": "Feature", "properties": { "strassenschluessel": "05770000001207930", "bezeichnung": "Neuer Weg" }, "geometry": { "type": "Point", "coordinates": [ 8.789279775863022, 52.321717255379561 ] } },
{ "type": "Feature", "properties": { "strassenschluessel": "05770000001207933", "bezeichnung": "Östernend" }, "geometry": { "type": "Point", "coordinates": [ 8.798157193085576, 52.318660231848483 ] } },
{ "type": "Feature", "properties": { "strassenschluessel": "05770000001207934", "bezeichnung": "Ostengarten" }, "geometry": { "type": "Point", "coordinates": [ 8.795230968534408, 52.318259956337513 ] } },
{ "type": "Feature", "properties": { "strassenschluessel": "05770000001207937", "bezeichnung": "Specken" }, "geometry": { "type": "Point", "coordinates": [ 8.782224742579167, 52.329769196344571 ] } },
{ "type": "Feature", "properties": { "strassenschluessel": "05770000001207938", "bezeichnung": "Südhemmer Heide" }, "geometry": { "type": "Point", "coordinates": [ 8.77643375368207, 52.319551140002247 ] } },
{ "type": "Feature", "properties": { "strassenschluessel": "05770000001207939", "bezeichnung": "Soltfeld" }, "geometry": { "type": "Point", "coordinates": [ 8.786805315590433, 52.32068938443242 ] } },
{ "type": "Feature", "properties": { "strassenschluessel": "05770000001207940", "bezeichnung": "Schloßgarten" }, "geometry": { "type": "Point", "coordinates": [ 8.789227596523091, 52.319405610379995 ] } },
{ "type": "Feature", "properties": { "strassenschluessel": "05770000001207941", "bezeichnung": "Schürenbruch" }, "geometry": { "type": "Point", "coordinates": [ 8.785762277864411, 52.319751201646618 ] } },
{ "type": "Feature", "properties": { "strassenschluessel": "05770000001207942", "bezeichnung": "Stockwiese" }, "geometry": { "type": "Point", "coordinates": [ 8.782100601248619, 52.319708497760132 ] } },
{ "type": "Feature", "properties": { "strassenschluessel": "05770000001207944", "bezeichnung": "Taubenweg" }, "geometry": { "type": "Point", "coordinates": [ 8.775220693083169, 52.343999672815571 ] } },
{ "type": "Feature", "properties": { "strassenschluessel": "05770000001207946", "bezeichnung": "Wietbrauk" }, "geometry": { "type": "Point", "coordinates": [ 8.78007536500739, 52.328366486571944 ] } },
{ "type": "Feature", "properties": { "strassenschluessel": "05770000001207948", "bezeichnung": "Zum Brunnen" }, "geometry": { "type": "Point", "coordinates": [ 8.770824354833975, 52.348373225436212 ] } },
{ "type": "Feature", "properties": { "strassenschluessel": "05770000001207949", "bezeichnung": "Zum Wasserwerk" }, "geometry": { "type": "Point", "coordinates": [ 8.790876303181088, 52.320671999902501 ] } },
{ "type": "Feature", "properties": { "strassenschluessel": "05770000001207951", "bezeichnung": "Am Bruch" }, "geometry": { "type": "Point", "coordinates": [ 8.780974701145071, 52.299687898218714 ] } },
{ "type": "Feature", "properties": { "strassenschluessel": "05770000001207952", "bezeichnung": "An der Süllbreede" }, "geometry": { "type": "Point", "coordinates": [ 8.764076938466113, 52.295622720363738 ] } },
{ "type": "Feature", "properties": { "strassenschluessel": "05770000001207954", "bezeichnung": "Bachstraße" }, "geometry": { "type": "Point", "coordinates": [ 8.773387169090563, 52.291096499784494 ] } },
{ "type": "Feature", "properties": { "strassenschluessel": "05770000001207959", "bezeichnung": "Ellernstraße" }, "geometry": { "type": "Point", "coordinates": [ 8.761606568784103, 52.296492457173699 ] } },
{ "type": "Feature", "properties": { "strassenschluessel": "05770000001207960", "bezeichnung": "Erdbrügge" }, "geometry": { "type": "Point", "coordinates": [ 8.771332629526118, 52.295160501616451 ] } },
{ "type": "Feature", "properties": { "strassenschluessel": "05770000001207961", "bezeichnung": "Erdbrüggenkamp" }, "geometry": { "type": "Point", "coordinates": [ 8.772398226987955, 52.29282448375897 ] } },
{ "type": "Feature", "properties": { "strassenschluessel": "05770000001207962", "bezeichnung": "Falkenweg" }, "geometry": { "type": "Point", "coordinates": [ 8.763142041805978, 52.304276533322827 ] } },
{ "type": "Feature", "properties": { "strassenschluessel": "05770000001207964", "bezeichnung": "Fliederweg" }, "geometry": { "type": "Point", "coordinates": [ 8.757470477461416, 52.297417468784353 ] } },
{ "type": "Feature", "properties": { "strassenschluessel": "05770000001207965", "bezeichnung": "Flottwiesenweg" }, "geometry": { "type": "Point", "coordinates": [ 8.754879300894091, 52.295783944787736 ] } },
{ "type": "Feature", "properties": { "strassenschluessel": "05770000001207969", "bezeichnung": "Harthekel" }, "geometry": { "type": "Point", "coordinates": [ 8.755174256047221, 52.292507410151451 ] } },
{ "type": "Feature", "properties": { "strassenschluessel": "05770000001207970", "bezeichnung": "Hilferdingsen" }, "geometry": { "type": "Point", "coordinates": [ 8.762003724591441, 52.298592266236859 ] } },
{ "type": "Feature", "properties": { "strassenschluessel": "05770000001207971", "bezeichnung": "Höfen" }, "geometry": { "type": "Point", "coordinates": [ 8.769093599298598, 52.299278092735243 ] } },
{ "type": "Feature", "properties": { "strassenschluessel": "05770000001207974", "bezeichnung": "Klausterhof" }, "geometry": { "type": "Point", "coordinates": [ 8.763779465101496, 52.300026671978827 ] } },
{ "type": "Feature", "properties": { "strassenschluessel": "05770000001207975", "bezeichnung": "Köhlte" }, "geometry": { "type": "Point", "coordinates": [ 8.777990555128117, 52.301318420853242 ] } },
{ "type": "Feature", "properties": { "strassenschluessel": "05770000001207976", "bezeichnung": "Köhlterholz" }, "geometry": { "type": "Point", "coordinates": [ 8.77609280823888, 52.290741607378799 ] } },
{ "type": "Feature", "properties": { "strassenschluessel": "05770000001207978", "bezeichnung": "Lindenallee" }, "geometry": { "type": "Point", "coordinates": [ 8.771562869560096, 52.296836636710495 ] } },
{ "type": "Feature", "properties": { "strassenschluessel": "05770000001207982", "bezeichnung": "Mittelbreede" }, "geometry": { "type": "Point", "coordinates": [ 8.759769669793876, 52.297834068219082 ] } },
{ "type": "Feature", "properties": { "strassenschluessel": "05770000001207986", "bezeichnung": "Sackweg" }, "geometry": { "type": "Point", "coordinates": [ 8.769535328608452, 52.289847193324547 ] } },
{ "type": "Feature", "properties": { "strassenschluessel": "05770000001207987", "bezeichnung": "Sonnenkamp" }, "geometry": { "type": "Point", "coordinates": [ 8.763077027954076, 52.287810051619786 ] } },
{ "type": "Feature", "properties": { "strassenschluessel": "05770000001207988", "bezeichnung": "Südhemmer Weg" }, "geometry": { "type": "Point", "coordinates": [ 8.763141549940631, 52.303447966755698 ] } },
{ "type": "Feature", "properties": { "strassenschluessel": "05770000001207989", "bezeichnung": "Süllbreede" }, "geometry": { "type": "Point", "coordinates": [ 8.761511646282928, 52.295264852184104 ] } },
{ "type": "Feature", "properties": { "strassenschluessel": "05770000001207990", "bezeichnung": "Süllbreedenkamp" }, "geometry": { "type": "Point", "coordinates": [ 8.763140433453298, 52.295694415491489 ] } },
{ "type": "Feature", "properties": { "strassenschluessel": "05770000001207991", "bezeichnung": "Schulstraße" }, "geometry": { "type": "Point", "coordinates": [ 8.767835728828018, 52.293970247908192 ] } },
{ "type": "Feature", "properties": { "strassenschluessel": "05770000001207992", "bezeichnung": "Schürbusch" }, "geometry": { "type": "Point", "coordinates": [ 8.757989874973573, 52.297029927783591 ] } },
{ "type": "Feature", "properties": { "strassenschluessel": "05770000001207994", "bezeichnung": "Storchbusch" }, "geometry": { "type": "Point", "coordinates": [ 8.768673427383522, 52.294578527286042 ] } },
{ "type": "Feature", "properties": { "strassenschluessel": "05770000001207997", "bezeichnung": "Waschhorst" }, "geometry": { "type": "Point", "coordinates": [ 8.757504793980154, 52.296587318354064 ] } },
{ "type": "Feature", "properties": { "strassenschluessel": "057700000012=9291", "bezeichnung": "Minden Oberstadt - Hille" }, "geometry": null }
]
}
