{
"type": "FeatureCollection",
"features": [
{ "type": "Feature", "properties": { "strassenschluessel": "05566000002801010", "bezeichnung": "Aantpool" }, "geometry": { "type": "Point", "coordinates": [ 7.626351646266763, 52.321841771875199 ] } },
{ "type": "Feature", "properties": { "strassenschluessel": "05566000002801011", "bezeichnung": "Bärlauchweg" }, "geometry": { "type": "Point", "coordinates": [ 7.692876369267468, 52.291198177708651 ] } },
{ "type": "Feature", "properties": { "strassenschluessel": "05566000002801012", "bezeichnung": "Lorbeerweg" }, "geometry": { "type": "Point", "coordinates": [ 7.692646426643735, 52.292232009196518 ] } },
{ "type": "Feature", "properties": { "strassenschluessel": "05566000002801013", "bezeichnung": "Malvenweg" }, "geometry": { "type": "Point", "coordinates": [ 7.69490914761086, 52.292829905638193 ] } },
{ "type": "Feature", "properties": { "strassenschluessel": "05566000002801014", "bezeichnung": "Rosmarinstiege" }, "geometry": { "type": "Point", "coordinates": [ 7.695429600770369, 52.291736261220855 ] } },
{ "type": "Feature", "properties": { "strassenschluessel": "05566000002801015", "bezeichnung": "Lavendelweg" }, "geometry": { "type": "Point", "coordinates": [ 7.713564377157127, 52.270487411430857 ] } },
{ "type": "Feature", "properties": { "strassenschluessel": "05566000002801016", "bezeichnung": "Aaseewinkel" }, "geometry": { "type": "Point", "coordinates": [ 7.720757589486443, 52.266397705116084 ] } },
{ "type": "Feature", "properties": { "strassenschluessel": "05566000002801017", "bezeichnung": "Gustav-Deiters-Str." }, "geometry": { "type": "Point", "coordinates": [ 7.70302987422086, 52.263307147330508 ] } },
{ "type": "Feature", "properties": { "strassenschluessel": "05566000002801018", "bezeichnung": "Am Schierfeld" }, "geometry": { "type": "Point", "coordinates": [ 7.667947248536671, 52.27888095394529 ] } },
{ "type": "Feature", "properties": { "strassenschluessel": "05566000002801019", "bezeichnung": "Bronswicks Esch" }, "geometry": null },
{ "type": "Feature", "properties": { "strassenschluessel": "05566000002801020", "bezeichnung": "Aatal" }, "geometry": { "type": "Point", "coordinates": [ 7.768315674814775, 52.24859149321064 ] } },
{ "type": "Feature", "properties": { "strassenschluessel": "05566000002801023", "bezeichnung": "Rapunzelweg" }, "geometry": { "type": "Point", "coordinates": [ 7.783388370307434, 52.268729335268269 ] } },
{ "type": "Feature", "properties": { "strassenschluessel": "05566000002801025", "bezeichnung": "Grafschafter Ring" }, "geometry": { "type": "Point", "coordinates": [ 7.697644819772481, 52.284145134605495 ] } },
{ "type": "Feature", "properties": { "strassenschluessel": "05566000002801026", "bezeichnung": "Artlandstr." }, "geometry": { "type": "Point", "coordinates": [ 7.693220249254688, 52.282425954593442 ] } },
{ "type": "Feature", "properties": { "strassenschluessel": "05566000002801027", "bezeichnung": "Steinbrinkheide" }, "geometry": { "type": "Point", "coordinates": [ 7.772814450447367, 52.261680695339251 ] } },
{ "type": "Feature", "properties": { "strassenschluessel": "05566000002801028", "bezeichnung": "Fliederweg" }, "geometry": { "type": "Point", "coordinates": [ 7.714749218158042, 52.269648452669742 ] } },
{ "type": "Feature", "properties": { "strassenschluessel": "05566000002801029", "bezeichnung": "Alexanderweg" }, "geometry": { "type": "Point", "coordinates": [ 7.729080232582183, 52.293318422747483 ] } },
{ "type": "Feature", "properties": { "strassenschluessel": "05566000002801030", "bezeichnung": "Abendsternschacht" }, "geometry": { "type": "Point", "coordinates": [ 7.660430025142356, 52.309767724217373 ] } },
{ "type": "Feature", "properties": { "strassenschluessel": "05566000002801031", "bezeichnung": "Hectorstr." }, "geometry": { "type": "Point", "coordinates": [ 7.796367168030327, 52.265967083596585 ] } },
{ "type": "Feature", "properties": { "strassenschluessel": "05566000002801032", "bezeichnung": "Lorenweg" }, "geometry": { "type": "Point", "coordinates": [ 7.794034554216938, 52.264147443598112 ] } },
{ "type": "Feature", "properties": { "strassenschluessel": "05566000002801033", "bezeichnung": "Eisenerzweg" }, "geometry": { "type": "Point", "coordinates": [ 7.79187624612828, 52.262753414342669 ] } },
{ "type": "Feature", "properties": { "strassenschluessel": "05566000002801034", "bezeichnung": "Ockerweg" }, "geometry": { "type": "Point", "coordinates": [ 7.795060374932828, 52.265032261278684 ] } },
{ "type": "Feature", "properties": { "strassenschluessel": "05566000002801035", "bezeichnung": "Haspelweg" }, "geometry": { "type": "Point", "coordinates": [ 7.795089776668309, 52.263257467228215 ] } },
{ "type": "Feature", "properties": { "strassenschluessel": "05566000002801036", "bezeichnung": "Teckelweg" }, "geometry": { "type": "Point", "coordinates": [ 7.793889746339183, 52.262791480250932 ] } },
{ "type": "Feature", "properties": { "strassenschluessel": "05566000002801037", "bezeichnung": "Wismarer Weg" }, "geometry": { "type": "Point", "coordinates": [ 7.644053755789191, 52.292603527304614 ] } },
{ "type": "Feature", "properties": { "strassenschluessel": "05566000002801038", "bezeichnung": "Stralsunder Str." }, "geometry": { "type": "Point", "coordinates": [ 7.646519980607956, 52.292923978197891 ] } },
{ "type": "Feature", "properties": { "strassenschluessel": "05566000002801039", "bezeichnung": "Rostocker Str." }, "geometry": { "type": "Point", "coordinates": [ 7.643554786362491, 52.293048127144225 ] } },
{ "type": "Feature", "properties": { "strassenschluessel": "05566000002801040", "bezeichnung": "Ackerstr." }, "geometry": { "type": "Point", "coordinates": [ 7.701470289049706, 52.272504873110968 ] } },
{ "type": "Feature", "properties": { "strassenschluessel": "05566000002801042", "bezeichnung": "Am Aaseebad" }, "geometry": { "type": "Point", "coordinates": [ 7.72798703984942, 52.260395445595208 ] } },
{ "type": "Feature", "properties": { "strassenschluessel": "05566000002801043", "bezeichnung": "Friedenstr." }, "geometry": { "type": "Point", "coordinates": [ 7.70569313874963, 52.268683001729698 ] } },
{ "type": "Feature", "properties": { "strassenschluessel": "05566000002801044", "bezeichnung": "Oderstr." }, "geometry": { "type": "Point", "coordinates": [ 7.643947903975014, 52.294067696951153 ] } },
{ "type": "Feature", "properties": { "strassenschluessel": "05566000002801045", "bezeichnung": "Spreeweg" }, "geometry": { "type": "Point", "coordinates": [ 7.64408110637854, 52.29479185333193 ] } },
{ "type": "Feature", "properties": { "strassenschluessel": "05566000002801046", "bezeichnung": "Havelweg" }, "geometry": { "type": "Point", "coordinates": [ 7.64537996977208, 52.295014095489499 ] } },
{ "type": "Feature", "properties": { "strassenschluessel": "05566000002801047", "bezeichnung": "Perkinsstr." }, "geometry": { "type": "Point", "coordinates": [ 7.715210425478555, 52.259056540333965 ] } },
{ "type": "Feature", "properties": { "strassenschluessel": "05566000002801048", "bezeichnung": "Saaleweg" }, "geometry": { "type": "Point", "coordinates": [ 7.646067608592281, 52.294407509157026 ] } },
{ "type": "Feature", "properties": { "strassenschluessel": "05566000002801049", "bezeichnung": "Uferallee" }, "geometry": { "type": "Point", "coordinates": [ 7.717746882288832, 52.268050284600598 ] } },
{ "type": "Feature", "properties": { "strassenschluessel": "05566000002801050", "bezeichnung": "Adlersteige" }, "geometry": { "type": "Point", "coordinates": [ 7.801289379690139, 52.273485261361046 ] } },
{ "type": "Feature", "properties": { "strassenschluessel": "05566000002801051", "bezeichnung": "Seeweg" }, "geometry": { "type": "Point", "coordinates": [ 7.71958810826137, 52.267963336048645 ] } },
{ "type": "Feature", "properties": { "strassenschluessel": "05566000002801052", "bezeichnung": "Seeblick" }, "geometry": null },
{ "type": "Feature", "properties": { "strassenschluessel": "05566000002801053", "bezeichnung": "Konrad-Zuse-Str." }, "geometry": { "type": "Point", "coordinates": [ 7.661620297047129, 52.27764956647448 ] } },
{ "type": "Feature", "properties": { "strassenschluessel": "05566000002801054", "bezeichnung": "Richard-Gerhardi-Str." }, "geometry": { "type": "Point", "coordinates": [ 7.668245360635469, 52.281027992825855 ] } },
{ "type": "Feature", "properties": { "strassenschluessel": "05566000002801055", "bezeichnung": "Kattwinkelstr." }, "geometry": { "type": "Point", "coordinates": [ 7.78405616894539, 52.265722350082498 ] } },
{ "type": "Feature", "properties": { "strassenschluessel": "05566000002801057", "bezeichnung": "An den Wiesen" }, "geometry": { "type": "Point", "coordinates": [ 7.692713276917328, 52.27821074762187 ] } },
{ "type": "Feature", "properties": { "strassenschluessel": "05566000002801058", "bezeichnung": "Speicherweg" }, "geometry": { "type": "Point", "coordinates": [ 7.681618858442677, 52.225272405201792 ] } },
{ "type": "Feature", "properties": { "strassenschluessel": "05566000002801059", "bezeichnung": "Ulmenweg" }, "geometry": { "type": "Point", "coordinates": [ 7.683278940484858, 52.277629835107327 ] } },
{ "type": "Feature", "properties": { "strassenschluessel": "05566000002801060", "bezeichnung": "Ahornstr." }, "geometry": { "type": "Point", "coordinates": [ 7.71668504224245, 52.290023442061127 ] } },
{ "type": "Feature", "properties": { "strassenschluessel": "05566000002801061", "bezeichnung": "Kittenkamp" }, "geometry": null },
{ "type": "Feature", "properties": { "strassenschluessel": "05566000002801070", "bezeichnung": "Akazienweg" }, "geometry": { "type": "Point", "coordinates": [ 7.683515959710366, 52.274168573347488 ] } },
{ "type": "Feature", "properties": { "strassenschluessel": "05566000002801075", "bezeichnung": "Alberichweg" }, "geometry": { "type": "Point", "coordinates": [ 7.778315357811501, 52.278090275986209 ] } },
{ "type": "Feature", "properties": { "strassenschluessel": "05566000002801080", "bezeichnung": "Alpenstr." }, "geometry": { "type": "Point", "coordinates": [ 7.748213190872974, 52.284161470557549 ] } },
{ "type": "Feature", "properties": { "strassenschluessel": "05566000002801090", "bezeichnung": "Alstedder Esch" }, "geometry": { "type": "Point", "coordinates": [ 7.792872626384214, 52.271278911102748 ] } },
{ "type": "Feature", "properties": { "strassenschluessel": "05566000002801100", "bezeichnung": "Alstedder Grenze" }, "geometry": { "type": "Point", "coordinates": [ 7.737260016409189, 52.275561631663145 ] } },
{ "type": "Feature", "properties": { "strassenschluessel": "05566000002801110", "bezeichnung": "Alstedder Str." }, "geometry": { "type": "Point", "coordinates": [ 7.79087840559724, 52.268769352545085 ] } },
{ "type": "Feature", "properties": { "strassenschluessel": "05566000002801120", "bezeichnung": "Alte Bleiche" }, "geometry": { "type": "Point", "coordinates": [ 7.732769759196813, 52.277515623333571 ] } },
{ "type": "Feature", "properties": { "strassenschluessel": "05566000002801130", "bezeichnung": "Alte Bockradener Str." }, "geometry": { "type": "Point", "coordinates": [ 7.716768321552415, 52.292875867328895 ] } },
{ "type": "Feature", "properties": { "strassenschluessel": "05566000002801135", "bezeichnung": "Altemöllerskamp" }, "geometry": { "type": "Point", "coordinates": [ 7.782959503364612, 52.266795767417889 ] } },
{ "type": "Feature", "properties": { "strassenschluessel": "05566000002801136", "bezeichnung": "Alte Münsterstr." }, "geometry": { "type": "Point", "coordinates": [ 7.7169794875768, 52.272143187817342 ] } },
{ "type": "Feature", "properties": { "strassenschluessel": "05566000002801137", "bezeichnung": "Alte Nordstr." }, "geometry": { "type": "Point", "coordinates": [ 7.713785635049007, 52.280072998948356 ] } },
{ "type": "Feature", "properties": { "strassenschluessel": "05566000002801138", "bezeichnung": "Alter Merschweg" }, "geometry": { "type": "Point", "coordinates": [ 7.710356886440933, 52.272017223493656 ] } },
{ "type": "Feature", "properties": { "strassenschluessel": "05566000002801139", "bezeichnung": "Alter Bergkamp" }, "geometry": { "type": "Point", "coordinates": [ 7.71201693685083, 52.28515682165208 ] } },
{ "type": "Feature", "properties": { "strassenschluessel": "05566000002801140", "bezeichnung": "Alter Postdamm" }, "geometry": { "type": "Point", "coordinates": [ 7.646960091580008, 52.297893620896566 ] } },
{ "type": "Feature", "properties": { "strassenschluessel": "05566000002801150", "bezeichnung": "Alte Str." }, "geometry": { "type": "Point", "coordinates": [ 7.638897660662949, 52.311229618720965 ] } },
{ "type": "Feature", "properties": { "strassenschluessel": "05566000002801160", "bezeichnung": "Am Abendstern" }, "geometry": { "type": "Point", "coordinates": [ 7.662375714160187, 52.307821534238812 ] } },
{ "type": "Feature", "properties": { "strassenschluessel": "05566000002801170", "bezeichnung": "Am Alten Posthof" }, "geometry": { "type": "Point", "coordinates": [ 7.712838720290476, 52.273842159318882 ] } },
{ "type": "Feature", "properties": { "strassenschluessel": "05566000002801178", "bezeichnung": "Am Barbarastollen" }, "geometry": { "type": "Point", "coordinates": [ 7.633715477954889, 52.317178352109984 ] } },
{ "type": "Feature", "properties": { "strassenschluessel": "05566000002801180", "bezeichnung": "Am Berg" }, "geometry": { "type": "Point", "coordinates": [ 7.673309591480838, 52.269642761201744 ] } },
{ "type": "Feature", "properties": { "strassenschluessel": "05566000002801190", "bezeichnung": "Am Bergteich" }, "geometry": { "type": "Point", "coordinates": [ 7.725031541645285, 52.283493057504934 ] } },
{ "type": "Feature", "properties": { "strassenschluessel": "05566000002801200", "bezeichnung": "Am Beustschacht" }, "geometry": { "type": "Point", "coordinates": [ 7.718708325042332, 52.290749360247361 ] } },
{ "type": "Feature", "properties": { "strassenschluessel": "05566000002801210", "bezeichnung": "Am Birkenwäldchen" }, "geometry": { "type": "Point", "coordinates": [ 7.714122280834488, 52.290686060398684 ] } },
{ "type": "Feature", "properties": { "strassenschluessel": "05566000002801220", "bezeichnung": "Am Fischteich" }, "geometry": { "type": "Point", "coordinates": [ 7.70579294542065, 52.280698369924067 ] } },
{ "type": "Feature", "properties": { "strassenschluessel": "05566000002801230", "bezeichnung": "Am Flüddert" }, "geometry": { "type": "Point", "coordinates": [ 7.619327314037158, 52.33041330270634 ] } },
{ "type": "Feature", "properties": { "strassenschluessel": "05566000002801235", "bezeichnung": "Am Forsthaus" }, "geometry": { "type": "Point", "coordinates": [ 7.695578638980798, 52.274346774784568 ] } },
{ "type": "Feature", "properties": { "strassenschluessel": "05566000002801240", "bezeichnung": "Am Friedhof" }, "geometry": { "type": "Point", "coordinates": [ 7.716199658342098, 52.28304342166598 ] } },
{ "type": "Feature", "properties": { "strassenschluessel": "05566000002801250", "bezeichnung": "Am Gaswerk" }, "geometry": null },
{ "type": "Feature", "properties": { "strassenschluessel": "05566000002801260", "bezeichnung": "Am Güterbahnhof" }, "geometry": { "type": "Point", "coordinates": [ 7.725642506366889, 52.274242940995684 ] } },
{ "type": "Feature", "properties": { "strassenschluessel": "05566000002801269", "bezeichnung": "Am Hagenpad" }, "geometry": { "type": "Point", "coordinates": [ 7.779411855600721, 52.278083031439685 ] } },
{ "type": "Feature", "properties": { "strassenschluessel": "05566000002801270", "bezeichnung": "Am Hedwigsheim" }, "geometry": { "type": "Point", "coordinates": [ 7.650850490481545, 52.298499635472155 ] } },
{ "type": "Feature", "properties": { "strassenschluessel": "05566000002801273", "bezeichnung": "Am Heidenturm" }, "geometry": { "type": "Point", "coordinates": [ 7.71905974000602, 52.268770976334011 ] } },
{ "type": "Feature", "properties": { "strassenschluessel": "05566000002801280", "bezeichnung": "Am Karlschacht" }, "geometry": { "type": "Point", "coordinates": [ 7.709032733593606, 52.294923951355372 ] } },
{ "type": "Feature", "properties": { "strassenschluessel": "05566000002801290", "bezeichnung": "Am Klee" }, "geometry": { "type": "Point", "coordinates": [ 7.705177443979445, 52.235856332799294 ] } },
{ "type": "Feature", "properties": { "strassenschluessel": "05566000002801295", "bezeichnung": "Am Klostergarten" }, "geometry": { "type": "Point", "coordinates": [ 7.714373788668686, 52.284589642225349 ] } },
{ "type": "Feature", "properties": { "strassenschluessel": "05566000002801300", "bezeichnung": "Am Lehrsteinbruch" }, "geometry": { "type": "Point", "coordinates": [ 7.72975440718897, 52.278416020669447 ] } },
{ "type": "Feature", "properties": { "strassenschluessel": "05566000002801310", "bezeichnung": "Am Luftschacht" }, "geometry": { "type": "Point", "coordinates": [ 7.699199078517056, 52.299013853276939 ] } },
{ "type": "Feature", "properties": { "strassenschluessel": "05566000002801320", "bezeichnung": "Am Mariannenschacht" }, "geometry": { "type": "Point", "coordinates": [ 7.686828122390981, 52.311236320521175 ] } },
{ "type": "Feature", "properties": { "strassenschluessel": "05566000002801330", "bezeichnung": "Am Postamt" }, "geometry": { "type": "Point", "coordinates": [ 7.787370665346955, 52.262618714000951 ] } },
{ "type": "Feature", "properties": { "strassenschluessel": "05566000002801340", "bezeichnung": "Am Ring" }, "geometry": { "type": "Point", "coordinates": [ 7.644695375045602, 52.299312031951679 ] } },
{ "type": "Feature", "properties": { "strassenschluessel": "05566000002801350", "bezeichnung": "Amselweg" }, "geometry": { "type": "Point", "coordinates": [ 7.650404117367991, 52.301398210049712 ] } },
{ "type": "Feature", "properties": { "strassenschluessel": "05566000002801360", "bezeichnung": "Am Sonnenhang" }, "geometry": { "type": "Point", "coordinates": [ 7.718246497047081, 52.282978462292093 ] } },
{ "type": "Feature", "properties": { "strassenschluessel": "05566000002801370", "bezeichnung": "Am Sonnenhügel" }, "geometry": { "type": "Point", "coordinates": [ 7.719796406353594, 52.282474287838596 ] } },
{ "type": "Feature", "properties": { "strassenschluessel": "05566000002801380", "bezeichnung": "Am Sportzentrum" }, "geometry": { "type": "Point", "coordinates": [ 7.737321521190087, 52.266485344145032 ] } },
{ "type": "Feature", "properties": { "strassenschluessel": "05566000002801390", "bezeichnung": "Am Tennisplatz" }, "geometry": { "type": "Point", "coordinates": [ 7.713969011771267, 52.271643535807101 ] } },
{ "type": "Feature", "properties": { "strassenschluessel": "05566000002801400", "bezeichnung": "Am Uffelner Moor" }, "geometry": null },
{ "type": "Feature", "properties": { "strassenschluessel": "05566000002801410", "bezeichnung": "Am Wall" }, "geometry": { "type": "Point", "coordinates": [ 7.678406502818303, 52.224726970734743 ] } },
{ "type": "Feature", "properties": { "strassenschluessel": "05566000002801420", "bezeichnung": "Am Wasserwerk" }, "geometry": { "type": "Point", "coordinates": [ 7.681430959833611, 52.225826223200102 ] } },
{ "type": "Feature", "properties": { "strassenschluessel": "05566000002801430", "bezeichnung": "Am Weinberg" }, "geometry": { "type": "Point", "coordinates": [ 7.724712827336202, 52.279666813227756 ] } },
{ "type": "Feature", "properties": { "strassenschluessel": "05566000002801435", "bezeichnung": "Am Wiesenteich" }, "geometry": { "type": "Point", "coordinates": [ 7.657254805651106, 52.295239617495781 ] } },
{ "type": "Feature", "properties": { "strassenschluessel": "05566000002801440", "bezeichnung": "Am Wilhelmschacht" }, "geometry": { "type": "Point", "coordinates": [ 7.657917332828513, 52.315344115409914 ] } },
{ "type": "Feature", "properties": { "strassenschluessel": "05566000002801450", "bezeichnung": "Am Winterhügel" }, "geometry": { "type": "Point", "coordinates": [ 7.727277962713751, 52.275046915519248 ] } },
{ "type": "Feature", "properties": { "strassenschluessel": "05566000002801460", "bezeichnung": "An den Klärteichen" }, "geometry": { "type": "Point", "coordinates": [ 7.663649259067063, 52.288945806627439 ] } },
{ "type": "Feature", "properties": { "strassenschluessel": "05566000002801470", "bezeichnung": "An den Steinbrüchen" }, "geometry": { "type": "Point", "coordinates": [ 7.701134235212733, 52.313748319069013 ] } },
{ "type": "Feature", "properties": { "strassenschluessel": "05566000002801480", "bezeichnung": "An der Aa" }, "geometry": { "type": "Point", "coordinates": [ 7.703105553765831, 52.269105996484761 ] } },
{ "type": "Feature", "properties": { "strassenschluessel": "05566000002801490", "bezeichnung": "An der Bahn" }, "geometry": { "type": "Point", "coordinates": [ 7.780386456401132, 52.264816267325102 ] } },
{ "type": "Feature", "properties": { "strassenschluessel": "05566000002801500", "bezeichnung": "An der Blankenburg" }, "geometry": { "type": "Point", "coordinates": [ 7.69695981136885, 52.215751154259578 ] } },
{ "type": "Feature", "properties": { "strassenschluessel": "05566000002801510", "bezeichnung": "An der Diekwiese" }, "geometry": { "type": "Point", "coordinates": [ 7.721901830924438, 52.268708638629938 ] } },
{ "type": "Feature", "properties": { "strassenschluessel": "05566000002801520", "bezeichnung": "An der Glashütte" }, "geometry": { "type": "Point", "coordinates": [ 7.701458041735322, 52.290127647646415 ] } },
{ "type": "Feature", "properties": { "strassenschluessel": "05566000002801525", "bezeichnung": "An der Mieke" }, "geometry": { "type": "Point", "coordinates": [ 7.636819896562545, 52.31310517378067 ] } },
{ "type": "Feature", "properties": { "strassenschluessel": "05566000002801530", "bezeichnung": "An der Kohlenwäsche" }, "geometry": { "type": "Point", "coordinates": [ 7.69014557884121, 52.293712750611341 ] } },
{ "type": "Feature", "properties": { "strassenschluessel": "05566000002801540", "bezeichnung": "An der Matthäuskirche" }, "geometry": { "type": "Point", "coordinates": [ 7.726081011404621, 52.290473412353137 ] } },
{ "type": "Feature", "properties": { "strassenschluessel": "05566000002801542", "bezeichnung": "An der Mauritiuskirche" }, "geometry": { "type": "Point", "coordinates": [ 7.7162177566943, 52.279532803471248 ] } },
{ "type": "Feature", "properties": { "strassenschluessel": "05566000002801550", "bezeichnung": "An der Michaelkirche" }, "geometry": { "type": "Point", "coordinates": [ 7.722199928511299, 52.292228174900131 ] } },
{ "type": "Feature", "properties": { "strassenschluessel": "05566000002801555", "bezeichnung": "An der Ökonomie" }, "geometry": { "type": "Point", "coordinates": [ 7.701563766497338, 52.279955416071509 ] } },
{ "type": "Feature", "properties": { "strassenschluessel": "05566000002801560", "bezeichnung": "An der Reichsbahn" }, "geometry": { "type": "Point", "coordinates": [ 7.717350317510433, 52.279548618387295 ] } },
{ "type": "Feature", "properties": { "strassenschluessel": "05566000002801570", "bezeichnung": "Andersenstr." }, "geometry": { "type": "Point", "coordinates": [ 7.782528377201335, 52.271415951841696 ] } },
{ "type": "Feature", "properties": { "strassenschluessel": "05566000002801580", "bezeichnung": "An der Umfluth" }, "geometry": { "type": "Point", "coordinates": [ 7.718568619642071, 52.266568974700803 ] } },
{ "type": "Feature", "properties": { "strassenschluessel": "05566000002801590", "bezeichnung": "An der Zechenbahn" }, "geometry": { "type": "Point", "coordinates": [ 7.699252600319038, 52.293492252535607 ] } },
{ "type": "Feature", "properties": { "strassenschluessel": "05566000002801600", "bezeichnung": "Andreasstr." }, "geometry": { "type": "Point", "coordinates": [ 7.66214158644084, 52.295915612441725 ] } },
{ "type": "Feature", "properties": { "strassenschluessel": "05566000002801610", "bezeichnung": "Ankerstr." }, "geometry": { "type": "Point", "coordinates": [ 7.682022947808528, 52.221307219610715 ] } },
{ "type": "Feature", "properties": { "strassenschluessel": "05566000002801620", "bezeichnung": "Annastr." }, "geometry": { "type": "Point", "coordinates": [ 7.667603272884735, 52.313461378610207 ] } },
{ "type": "Feature", "properties": { "strassenschluessel": "05566000002801630", "bezeichnung": "Arenbergstr." }, "geometry": { "type": "Point", "coordinates": [ 7.714177044732144, 52.270135232218145 ] } },
{ "type": "Feature", "properties": { "strassenschluessel": "05566000002801640", "bezeichnung": "Arminstr." }, "geometry": { "type": "Point", "coordinates": [ 7.722243888655007, 52.287071657442851 ] } },
{ "type": "Feature", "properties": { "strassenschluessel": "05566000002801650", "bezeichnung": "Arndtstr." }, "geometry": { "type": "Point", "coordinates": [ 7.722075151759417, 52.271618759266396 ] } },
{ "type": "Feature", "properties": { "strassenschluessel": "05566000002801660", "bezeichnung": "Asternstr." }, "geometry": { "type": "Point", "coordinates": [ 7.720974740837852, 52.294044207688451 ] } },
{ "type": "Feature", "properties": { "strassenschluessel": "05566000002801670", "bezeichnung": "Auf dem Trüssel" }, "geometry": { "type": "Point", "coordinates": [ 7.712845745765453, 52.262494738582255 ] } },
{ "type": "Feature", "properties": { "strassenschluessel": "05566000002801675", "bezeichnung": "Auf der Flur" }, "geometry": { "type": "Point", "coordinates": [ 7.692448844730682, 52.276948046869258 ] } },
{ "type": "Feature", "properties": { "strassenschluessel": "05566000002801680", "bezeichnung": "Auf der Heide" }, "geometry": { "type": "Point", "coordinates": [ 7.719311382031695, 52.286764779975265 ] } },
{ "type": "Feature", "properties": { "strassenschluessel": "05566000002801690", "bezeichnung": "Auf der Lau" }, "geometry": { "type": "Point", "coordinates": [ 7.764527613760302, 52.265222254135978 ] } },
{ "type": "Feature", "properties": { "strassenschluessel": "05566000002801700", "bezeichnung": "Auf der Lienenburg" }, "geometry": { "type": "Point", "coordinates": [ 7.709118105208467, 52.283138674299543 ] } },
{ "type": "Feature", "properties": { "strassenschluessel": "05566000002801710", "bezeichnung": "Auf der Plake" }, "geometry": { "type": "Point", "coordinates": [ 7.667629257130229, 52.300097966670478 ] } },
{ "type": "Feature", "properties": { "strassenschluessel": "05566000002801720", "bezeichnung": "Augustusweg" }, "geometry": { "type": "Point", "coordinates": [ 7.662972587901491, 52.311760181506365 ] } },
{ "type": "Feature", "properties": { "strassenschluessel": "05566000002801730", "bezeichnung": "Bachstr." }, "geometry": { "type": "Point", "coordinates": [ 7.712900467955791, 52.272212573784607 ] } },
{ "type": "Feature", "properties": { "strassenschluessel": "05566000002801740", "bezeichnung": "Bäumerstr." }, "geometry": { "type": "Point", "coordinates": [ 7.71162411041642, 52.281580941050812 ] } },
{ "type": "Feature", "properties": { "strassenschluessel": "05566000002801750", "bezeichnung": "Bahnhofsplatz" }, "geometry": { "type": "Point", "coordinates": [ 7.721049117726374, 52.276677514252732 ] } },
{ "type": "Feature", "properties": { "strassenschluessel": "05566000002801760", "bezeichnung": "Bahnhofstr." }, "geometry": { "type": "Point", "coordinates": [ 7.719028850338875, 52.276507305473736 ] } },
{ "type": "Feature", "properties": { "strassenschluessel": "05566000002801770", "bezeichnung": "Barbarastr." }, "geometry": { "type": "Point", "coordinates": [ 7.68401898433439, 52.269529675270768 ] } },
{ "type": "Feature", "properties": { "strassenschluessel": "05566000002801780", "bezeichnung": "Barhornweg" }, "geometry": { "type": "Point", "coordinates": [ 7.634273392540845, 52.306328328675818 ] } },
{ "type": "Feature", "properties": { "strassenschluessel": "05566000002801790", "bezeichnung": "Beethovenstr." }, "geometry": { "type": "Point", "coordinates": [ 7.700818113529371, 52.298596749892077 ] } },
{ "type": "Feature", "properties": { "strassenschluessel": "05566000002801795", "bezeichnung": "Behringstr." }, "geometry": { "type": "Point", "coordinates": [ 7.703787115091248, 52.27636838601908 ] } },
{ "type": "Feature", "properties": { "strassenschluessel": "05566000002801800", "bezeichnung": "Bekassinenweg" }, "geometry": { "type": "Point", "coordinates": [ 7.685384220467824, 52.277219040600123 ] } },
{ "type": "Feature", "properties": { "strassenschluessel": "05566000002801810", "bezeichnung": "Bentingstr." }, "geometry": { "type": "Point", "coordinates": [ 7.702131798018679, 52.269787918200606 ] } },
{ "type": "Feature", "properties": { "strassenschluessel": "05566000002801830", "bezeichnung": "Bergesanfang" }, "geometry": { "type": "Point", "coordinates": [ 7.721333391615043, 52.28027293017783 ] } },
{ "type": "Feature", "properties": { "strassenschluessel": "05566000002801840", "bezeichnung": "Bergeshöhe" }, "geometry": { "type": "Point", "coordinates": [ 7.732483178, 52.287183997090786 ] } },
{ "type": "Feature", "properties": { "strassenschluessel": "05566000002801850", "bezeichnung": "Berghang" }, "geometry": { "type": "Point", "coordinates": [ 7.66676837498703, 52.304129438968324 ] } },
{ "type": "Feature", "properties": { "strassenschluessel": "05566000002801860", "bezeichnung": "Bergkamp" }, "geometry": { "type": "Point", "coordinates": [ 7.71083742255667, 52.286335962006504 ] } },
{ "type": "Feature", "properties": { "strassenschluessel": "05566000002801869", "bezeichnung": "Bergmeyerspad" }, "geometry": null },
{ "type": "Feature", "properties": { "strassenschluessel": "05566000002801870", "bezeichnung": "Bergmeyersweg" }, "geometry": { "type": "Point", "coordinates": [ 7.778668461904361, 52.258603706643157 ] } },
{ "type": "Feature", "properties": { "strassenschluessel": "05566000002801880", "bezeichnung": "Bergsiedlung" }, "geometry": { "type": "Point", "coordinates": [ 7.685748987530823, 52.299399880590776 ] } },
{ "type": "Feature", "properties": { "strassenschluessel": "05566000002801890", "bezeichnung": "Bergstrang" }, "geometry": { "type": "Point", "coordinates": [ 7.732764321086279, 52.307784549968517 ] } },
{ "type": "Feature", "properties": { "strassenschluessel": "05566000002801900", "bezeichnung": "Bergstr." }, "geometry": { "type": "Point", "coordinates": [ 7.726414277198669, 52.278293015617685 ] } },
{ "type": "Feature", "properties": { "strassenschluessel": "05566000002801905", "bezeichnung": "Berkenburg" }, "geometry": { "type": "Point", "coordinates": [ 7.721645184633769, 52.262034176758853 ] } },
{ "type": "Feature", "properties": { "strassenschluessel": "05566000002801910", "bezeichnung": "Berliner Str." }, "geometry": { "type": "Point", "coordinates": [ 7.650618628931501, 52.296685318919032 ] } },
{ "type": "Feature", "properties": { "strassenschluessel": "05566000002801920", "bezeichnung": "Bernburger Str." }, "geometry": { "type": "Point", "coordinates": [ 7.65126413726614, 52.293545545267015 ] } },
{ "type": "Feature", "properties": { "strassenschluessel": "05566000002801930", "bezeichnung": "Bertastr." }, "geometry": { "type": "Point", "coordinates": [ 7.665652412184326, 52.319050998549088 ] } },
{ "type": "Feature", "properties": { "strassenschluessel": "05566000002801940", "bezeichnung": "Birkenallee" }, "geometry": { "type": "Point", "coordinates": [ 7.642245653257036, 52.292968714617757 ] } },
{ "type": "Feature", "properties": { "strassenschluessel": "05566000002801950", "bezeichnung": "Birkenweg" }, "geometry": { "type": "Point", "coordinates": [ 7.681832896053858, 52.278037829760592 ] } },
{ "type": "Feature", "properties": { "strassenschluessel": "05566000002801960", "bezeichnung": "Birkhof" }, "geometry": { "type": "Point", "coordinates": [ 7.665074208343742, 52.299333972483609 ] } },
{ "type": "Feature", "properties": { "strassenschluessel": "05566000002801970", "bezeichnung": "Bismarckweg" }, "geometry": { "type": "Point", "coordinates": [ 7.767965329008891, 52.280996786450423 ] } },
{ "type": "Feature", "properties": { "strassenschluessel": "05566000002801980", "bezeichnung": "Blomenkamp" }, "geometry": { "type": "Point", "coordinates": [ 7.821767073944634, 52.272134057951284 ] } },
{ "type": "Feature", "properties": { "strassenschluessel": "05566000002801990", "bezeichnung": "Bocketaler Str." }, "geometry": { "type": "Point", "coordinates": [ 7.785080031287003, 52.262660870536848 ] } },
{ "type": "Feature", "properties": { "strassenschluessel": "05566000002802000", "bezeichnung": "Bockradener Str." }, "geometry": { "type": "Point", "coordinates": [ 7.718354552213673, 52.286237078719147 ] } },
{ "type": "Feature", "properties": { "strassenschluessel": "05566000002802010", "bezeichnung": "Bodelschwinghstr." }, "geometry": { "type": "Point", "coordinates": [ 7.707268553633879, 52.274881446661333 ] } },
{ "type": "Feature", "properties": { "strassenschluessel": "05566000002802020", "bezeichnung": "Böckemeyerskamp" }, "geometry": { "type": "Point", "coordinates": [ 7.738749487916857, 52.310710606028671 ] } },
{ "type": "Feature", "properties": { "strassenschluessel": "05566000002802030", "bezeichnung": "Bogenstr." }, "geometry": { "type": "Point", "coordinates": [ 7.714038285037923, 52.262633700216874 ] } },
{ "type": "Feature", "properties": { "strassenschluessel": "05566000002802040", "bezeichnung": "Bohnenweg" }, "geometry": { "type": "Point", "coordinates": [ 7.661620840352975, 52.312687003709591 ] } },
{ "type": "Feature", "properties": { "strassenschluessel": "05566000002802050", "bezeichnung": "Bomberg" }, "geometry": { "type": "Point", "coordinates": [ 7.678946117835963, 52.328398843395647 ] } },
{ "type": "Feature", "properties": { "strassenschluessel": "05566000002802060", "bezeichnung": "Bonhoefferstr." }, "geometry": { "type": "Point", "coordinates": [ 7.729938156380036, 52.274577157435814 ] } },
{ "type": "Feature", "properties": { "strassenschluessel": "05566000002802070", "bezeichnung": "Brahmsstr." }, "geometry": { "type": "Point", "coordinates": [ 7.70064679503851, 52.297590696056957 ] } },
{ "type": "Feature", "properties": { "strassenschluessel": "05566000002802080", "bezeichnung": "Bramliet" }, "geometry": { "type": "Point", "coordinates": [ 7.687299862695556, 52.261845506522668 ] } },
{ "type": "Feature", "properties": { "strassenschluessel": "05566000002802090", "bezeichnung": "Brandenburger Str." }, "geometry": { "type": "Point", "coordinates": [ 7.646073537232279, 52.29630951709413 ] } },
{ "type": "Feature", "properties": { "strassenschluessel": "05566000002802095", "bezeichnung": "Bechsteinstr." }, "geometry": { "type": "Point", "coordinates": [ 7.777610159229146, 52.268530254774284 ] } },
{ "type": "Feature", "properties": { "strassenschluessel": "05566000002802100", "bezeichnung": "Breedenweg" }, "geometry": { "type": "Point", "coordinates": [ 7.790572965527145, 52.267299631247212 ] } },
{ "type": "Feature", "properties": { "strassenschluessel": "05566000002802110", "bezeichnung": "Breite Str." }, "geometry": { "type": "Point", "coordinates": [ 7.717169302119741, 52.278069217071334 ] } },
{ "type": "Feature", "properties": { "strassenschluessel": "05566000002802120", "bezeichnung": "Breslauer Str." }, "geometry": { "type": "Point", "coordinates": [ 7.6899609568599, 52.273700046173943 ] } },
{ "type": "Feature", "properties": { "strassenschluessel": "05566000002802130", "bezeichnung": "Brinkmannweg" }, "geometry": { "type": "Point", "coordinates": [ 7.78095333696018, 52.268278518781912 ] } },
{ "type": "Feature", "properties": { "strassenschluessel": "05566000002802140", "bezeichnung": "Brochterbecker Str." }, "geometry": { "type": "Point", "coordinates": [ 7.69866854387212, 52.232009559010528 ] } },
{ "type": "Feature", "properties": { "strassenschluessel": "05566000002802150", "bezeichnung": "Brockwiesenstr." }, "geometry": { "type": "Point", "coordinates": [ 7.694648129293005, 52.276298632172271 ] } },
{ "type": "Feature", "properties": { "strassenschluessel": "05566000002802160", "bezeichnung": "Broelmannweg" }, "geometry": { "type": "Point", "coordinates": [ 7.782416038881038, 52.268975323135201 ] } },
{ "type": "Feature", "properties": { "strassenschluessel": "05566000002802170", "bezeichnung": "Brombeerweg" }, "geometry": { "type": "Point", "coordinates": [ 7.670509773603654, 52.312544096454353 ] } },
{ "type": "Feature", "properties": { "strassenschluessel": "05566000002802180", "bezeichnung": "Brookfeld" }, "geometry": { "type": "Point", "coordinates": [ 7.676475260876552, 52.289334648363152 ] } },
{ "type": "Feature", "properties": { "strassenschluessel": "05566000002802190", "bezeichnung": "Browerskamp" }, "geometry": { "type": "Point", "coordinates": [ 7.711594128519395, 52.284013397349568 ] } },
{ "type": "Feature", "properties": { "strassenschluessel": "05566000002802200", "bezeichnung": "Brucknerstr." }, "geometry": { "type": "Point", "coordinates": [ 7.701869710456844, 52.297883767661162 ] } },
{ "type": "Feature", "properties": { "strassenschluessel": "05566000002802210", "bezeichnung": "Brüder-Grimm-Str." }, "geometry": { "type": "Point", "coordinates": [ 7.774480534339183, 52.270505136784088 ] } },
{ "type": "Feature", "properties": { "strassenschluessel": "05566000002802220", "bezeichnung": "Brumleyweg" }, "geometry": { "type": "Point", "coordinates": [ 7.683345633227106, 52.24935483885271 ] } },
{ "type": "Feature", "properties": { "strassenschluessel": "05566000002802230", "bezeichnung": "Brunhildstr." }, "geometry": { "type": "Point", "coordinates": [ 7.776448350067099, 52.274707599699262 ] } },
{ "type": "Feature", "properties": { "strassenschluessel": "05566000002802240", "bezeichnung": "Brunnenstr." }, "geometry": { "type": "Point", "coordinates": [ 7.715673694607297, 52.275057753149703 ] } },
{ "type": "Feature", "properties": { "strassenschluessel": "05566000002802250", "bezeichnung": "Brunnenweg" }, "geometry": { "type": "Point", "coordinates": [ 7.699532197582749, 52.227525941835296 ] } },
{ "type": "Feature", "properties": { "strassenschluessel": "05566000002802260", "bezeichnung": "Buchenweg" }, "geometry": { "type": "Point", "coordinates": [ 7.745874682416379, 52.293682496782132 ] } },
{ "type": "Feature", "properties": { "strassenschluessel": "05566000002802270", "bezeichnung": "Buchholzer Damm" }, "geometry": { "type": "Point", "coordinates": [ 7.675743214596642, 52.315372538792879 ] } },
{ "type": "Feature", "properties": { "strassenschluessel": "05566000002802280", "bezeichnung": "Buchholzstr." }, "geometry": { "type": "Point", "coordinates": [ 7.70670367431082, 52.327882260786367 ] } },
{ "type": "Feature", "properties": { "strassenschluessel": "05566000002802290", "bezeichnung": "Buchsbaumweg" }, "geometry": { "type": "Point", "coordinates": [ 7.669698438639159, 52.311620432256866 ] } },
{ "type": "Feature", "properties": { "strassenschluessel": "05566000002802300", "bezeichnung": "Burgundenstr." }, "geometry": { "type": "Point", "coordinates": [ 7.77490977105044, 52.274379377533293 ] } },
{ "type": "Feature", "properties": { "strassenschluessel": "05566000002802310", "bezeichnung": "Burgweg" }, "geometry": { "type": "Point", "coordinates": [ 7.790380397314097, 52.258942135302171 ] } },
{ "type": "Feature", "properties": { "strassenschluessel": "05566000002802320", "bezeichnung": "Bussardweg" }, "geometry": { "type": "Point", "coordinates": [ 7.750590795956873, 52.27983866406661 ] } },
{ "type": "Feature", "properties": { "strassenschluessel": "05566000002802330", "bezeichnung": "Cäcilienstr." }, "geometry": { "type": "Point", "coordinates": [ 7.66931098522171, 52.315702004631795 ] } },
{ "type": "Feature", "properties": { "strassenschluessel": "05566000002802340", "bezeichnung": "Cappelner Weg" }, "geometry": { "type": "Point", "coordinates": [ 7.827052175856878, 52.265301394467691 ] } },
{ "type": "Feature", "properties": { "strassenschluessel": "05566000002802350", "bezeichnung": "Carl-Keller-Str." }, "geometry": { "type": "Point", "coordinates": [ 7.788621505884377, 52.261021463267731 ] } },
{ "type": "Feature", "properties": { "strassenschluessel": "05566000002802360", "bezeichnung": "Cheruskerstr." }, "geometry": { "type": "Point", "coordinates": [ 7.691346111185849, 52.286253034139826 ] } },
{ "type": "Feature", "properties": { "strassenschluessel": "05566000002802363", "bezeichnung": "Clara-Schumann-Str." }, "geometry": { "type": "Point", "coordinates": [ 7.749481181260011, 52.264414862543155 ] } },
{ "type": "Feature", "properties": { "strassenschluessel": "05566000002802365", "bezeichnung": "Cranachstr." }, "geometry": { "type": "Point", "coordinates": [ 7.700930762839869, 52.284717389434448 ] } },
{ "type": "Feature", "properties": { "strassenschluessel": "05566000002802370", "bezeichnung": "Crossener Str." }, "geometry": { "type": "Point", "coordinates": [ 7.683456804074673, 52.218306843908579 ] } },
{ "type": "Feature", "properties": { "strassenschluessel": "05566000002802380", "bezeichnung": "Däumlingweg" }, "geometry": { "type": "Point", "coordinates": [ 7.781651343751201, 52.269035496846207 ] } },
{ "type": "Feature", "properties": { "strassenschluessel": "05566000002802401", "bezeichnung": "Daßmannweg" }, "geometry": { "type": "Point", "coordinates": [ 7.69039704702446, 52.213558619545161 ] } },
{ "type": "Feature", "properties": { "strassenschluessel": "05566000002802410", "bezeichnung": "Dessauer Str." }, "geometry": { "type": "Point", "coordinates": [ 7.653912231298025, 52.296643641598912 ] } },
{ "type": "Feature", "properties": { "strassenschluessel": "05566000002802420", "bezeichnung": "Determeiersweg" }, "geometry": { "type": "Point", "coordinates": [ 7.763289024406521, 52.264647433893032 ] } },
{ "type": "Feature", "properties": { "strassenschluessel": "05566000002802430", "bezeichnung": "Dianaweg" }, "geometry": { "type": "Point", "coordinates": [ 7.668885284602669, 52.332818827410215 ] } },
{ "type": "Feature", "properties": { "strassenschluessel": "05566000002802440", "bezeichnung": "Diekweg" }, "geometry": { "type": "Point", "coordinates": [ 7.733192597865673, 52.253094512393929 ] } },
{ "type": "Feature", "properties": { "strassenschluessel": "05566000002802445", "bezeichnung": "Dierksknapp" }, "geometry": { "type": "Point", "coordinates": [ 7.718020537415918, 52.261874688009762 ] } },
{ "type": "Feature", "properties": { "strassenschluessel": "05566000002802450", "bezeichnung": "Diesterwegstr." }, "geometry": { "type": "Point", "coordinates": [ 7.70684077985034, 52.278938495085342 ] } },
{ "type": "Feature", "properties": { "strassenschluessel": "05566000002802460", "bezeichnung": "Dörenther Berg" }, "geometry": { "type": "Point", "coordinates": [ 7.703076523089792, 52.247834462063835 ] } },
{ "type": "Feature", "properties": { "strassenschluessel": "05566000002802470", "bezeichnung": "Dörnebrink" }, "geometry": { "type": "Point", "coordinates": [ 7.744392847187181, 52.266568133086587 ] } },
{ "type": "Feature", "properties": { "strassenschluessel": "05566000002802475", "bezeichnung": "Dompfaffweg" }, "geometry": { "type": "Point", "coordinates": [ 7.783471976102346, 52.260887880216117 ] } },
{ "type": "Feature", "properties": { "strassenschluessel": "05566000002802480", "bezeichnung": "Dorastr." }, "geometry": { "type": "Point", "coordinates": [ 7.668517064411243, 52.314694183738396 ] } },
{ "type": "Feature", "properties": { "strassenschluessel": "05566000002802485", "bezeichnung": "Dornierstr." }, "geometry": null },
{ "type": "Feature", "properties": { "strassenschluessel": "05566000002802490", "bezeichnung": "Dornröschenweg" }, "geometry": { "type": "Point", "coordinates": [ 7.784290973088575, 52.269778241074306 ] } },
{ "type": "Feature", "properties": { "strassenschluessel": "05566000002802493", "bezeichnung": "Dreesch" }, "geometry": { "type": "Point", "coordinates": [ 7.696302532166516, 52.277097924416623 ] } },
{ "type": "Feature", "properties": { "strassenschluessel": "05566000002802495", "bezeichnung": "Dresdener Str." }, "geometry": { "type": "Point", "coordinates": [ 7.649021795760778, 52.296146439379278 ] } },
{ "type": "Feature", "properties": { "strassenschluessel": "05566000002802500", "bezeichnung": "Drosselbartweg" }, "geometry": { "type": "Point", "coordinates": [ 7.784087312159087, 52.269314111680082 ] } },
{ "type": "Feature", "properties": { "strassenschluessel": "05566000002802510", "bezeichnung": "Drosselweg" }, "geometry": { "type": "Point", "coordinates": [ 7.777434221669356, 52.26028689935211 ] } },
{ "type": "Feature", "properties": { "strassenschluessel": "05566000002802520", "bezeichnung": "Droste-Hülshoff-Str." }, "geometry": { "type": "Point", "coordinates": [ 7.749878564017358, 52.264400324618272 ] } },
{ "type": "Feature", "properties": { "strassenschluessel": "05566000002802530", "bezeichnung": "Dünenweg" }, "geometry": { "type": "Point", "coordinates": [ 7.679901657227955, 52.224139234837345 ] } },
{ "type": "Feature", "properties": { "strassenschluessel": "05566000002802540", "bezeichnung": "Dürerstr." }, "geometry": { "type": "Point", "coordinates": [ 7.70961085861254, 52.28280119375232 ] } },
{ "type": "Feature", "properties": { "strassenschluessel": "05566000002802550", "bezeichnung": "Duskampweg" }, "geometry": { "type": "Point", "coordinates": [ 7.730852016208601, 52.288412810145751 ] } },
{ "type": "Feature", "properties": { "strassenschluessel": "05566000002802560", "bezeichnung": "Eckernkamp" }, "geometry": { "type": "Point", "coordinates": [ 7.788557385585742, 52.256698675123062 ] } },
{ "type": "Feature", "properties": { "strassenschluessel": "05566000002802565", "bezeichnung": "Eibenweg" }, "geometry": { "type": "Point", "coordinates": [ 7.680432982456981, 52.271237024152242 ] } },
{ "type": "Feature", "properties": { "strassenschluessel": "05566000002802570", "bezeichnung": "Eichendorffstr." }, "geometry": { "type": "Point", "coordinates": [ 7.779906670545558, 52.280801947268749 ] } },
{ "type": "Feature", "properties": { "strassenschluessel": "05566000002802575", "bezeichnung": "Eichengrund" }, "geometry": { "type": "Point", "coordinates": [ 7.699691175307019, 52.270965001913396 ] } },
{ "type": "Feature", "properties": { "strassenschluessel": "05566000002802580", "bezeichnung": "Eichenweg" }, "geometry": { "type": "Point", "coordinates": [ 7.742157619720562, 52.267496631417366 ] } },
{ "type": "Feature", "properties": { "strassenschluessel": "05566000002802581", "bezeichnung": "Eichhörnchenweg" }, "geometry": { "type": "Point", "coordinates": [ 7.639830798600387, 52.297096855082216 ] } },
{ "type": "Feature", "properties": { "strassenschluessel": "05566000002802590", "bezeichnung": "Eisenacher Str." }, "geometry": { "type": "Point", "coordinates": [ 7.649599623953438, 52.293164161741075 ] } },
{ "type": "Feature", "properties": { "strassenschluessel": "05566000002802600", "bezeichnung": "Eisenbahnweg" }, "geometry": { "type": "Point", "coordinates": [ 7.790454752847185, 52.261926049869196 ] } },
{ "type": "Feature", "properties": { "strassenschluessel": "05566000002802610", "bezeichnung": "Eisenhansweg" }, "geometry": { "type": "Point", "coordinates": [ 7.786621210478224, 52.269629727695119 ] } },
{ "type": "Feature", "properties": { "strassenschluessel": "05566000002802620", "bezeichnung": "Eisenstr." }, "geometry": { "type": "Point", "coordinates": [ 7.725309196093871, 52.293578564962566 ] } },
{ "type": "Feature", "properties": { "strassenschluessel": "05566000002802630", "bezeichnung": "Elmendorfer Str." }, "geometry": { "type": "Point", "coordinates": [ 7.704382143292306, 52.270472438811424 ] } },
{ "type": "Feature", "properties": { "strassenschluessel": "05566000002802640", "bezeichnung": "Emil-Frank-Str." }, "geometry": { "type": "Point", "coordinates": [ 7.773206788692947, 52.280195268212815 ] } },
{ "type": "Feature", "properties": { "strassenschluessel": "05566000002802645", "bezeichnung": "Emslandstr." }, "geometry": { "type": "Point", "coordinates": [ 7.697246431657013, 52.282445961262816 ] } },
{ "type": "Feature", "properties": { "strassenschluessel": "05566000002802650", "bezeichnung": "Engelhardtstr." }, "geometry": { "type": "Point", "coordinates": [ 7.720713676516677, 52.286368845227692 ] } },
{ "type": "Feature", "properties": { "strassenschluessel": "05566000002802660", "bezeichnung": "Erfurter Str." }, "geometry": { "type": "Point", "coordinates": [ 7.652869130373699, 52.292940546319322 ] } },
{ "type": "Feature", "properties": { "strassenschluessel": "05566000002802670", "bezeichnung": "Erikastr." }, "geometry": { "type": "Point", "coordinates": [ 7.672929321664953, 52.314228328022139 ] } },
{ "type": "Feature", "properties": { "strassenschluessel": "05566000002802680", "bezeichnung": "Erisstr." }, "geometry": { "type": "Point", "coordinates": [ 7.777162641692139, 52.281801138693893 ] } },
{ "type": "Feature", "properties": { "strassenschluessel": "05566000002802690", "bezeichnung": "Erlengrund" }, "geometry": { "type": "Point", "coordinates": [ 7.680365204079307, 52.275344964237846 ] } },
{ "type": "Feature", "properties": { "strassenschluessel": "05566000002802700", "bezeichnung": "Ernastr." }, "geometry": { "type": "Point", "coordinates": [ 7.669389956507461, 52.316505213732121 ] } },
{ "type": "Feature", "properties": { "strassenschluessel": "05566000002802701", "bezeichnung": "Felchenweg" }, "geometry": { "type": "Point", "coordinates": [ 7.792441753364581, 52.265394873110587 ] } },
{ "type": "Feature", "properties": { "strassenschluessel": "05566000002802710", "bezeichnung": "Eslagestr." }, "geometry": { "type": "Point", "coordinates": [ 7.649615309542243, 52.289125134923864 ] } },
{ "type": "Feature", "properties": { "strassenschluessel": "05566000002802717", "bezeichnung": "Färbergasse" }, "geometry": { "type": "Point", "coordinates": [ 7.710396233232563, 52.272877392281814 ] } },
{ "type": "Feature", "properties": { "strassenschluessel": "05566000002802720", "bezeichnung": "Fahlbachtal" }, "geometry": { "type": "Point", "coordinates": [ 7.737599173629969, 52.29872428334577 ] } },
{ "type": "Feature", "properties": { "strassenschluessel": "05566000002802730", "bezeichnung": "Falkenhorst" }, "geometry": { "type": "Point", "coordinates": [ 7.75216584277196, 52.280041182889931 ] } },
{ "type": "Feature", "properties": { "strassenschluessel": "05566000002802740", "bezeichnung": "Fasanenhege" }, "geometry": { "type": "Point", "coordinates": [ 7.684715444183988, 52.27703026848426 ] } },
{ "type": "Feature", "properties": { "strassenschluessel": "05566000002802750", "bezeichnung": "Feldstr." }, "geometry": { "type": "Point", "coordinates": [ 7.701428944933555, 52.274318646065623 ] } },
{ "type": "Feature", "properties": { "strassenschluessel": "05566000002802755", "bezeichnung": "Felix-Schulz-Str." }, "geometry": { "type": "Point", "coordinates": [ 7.790503969276169, 52.263372028272805 ] } },
{ "type": "Feature", "properties": { "strassenschluessel": "05566000002802760", "bezeichnung": "Feuerbachstr." }, "geometry": { "type": "Point", "coordinates": [ 7.70400583313203, 52.283702610891076 ] } },
{ "type": "Feature", "properties": { "strassenschluessel": "05566000002802770", "bezeichnung": "Fichtengrund" }, "geometry": { "type": "Point", "coordinates": [ 7.682732222979542, 52.275692208570781 ] } },
{ "type": "Feature", "properties": { "strassenschluessel": "05566000002802780", "bezeichnung": "Finkenfeldstr." }, "geometry": { "type": "Point", "coordinates": [ 7.726779009666409, 52.271417531278487 ] } },
{ "type": "Feature", "properties": { "strassenschluessel": "05566000002802782", "bezeichnung": "Finkenweg" }, "geometry": { "type": "Point", "coordinates": [ 7.780582072392921, 52.26104489106681 ] } },
{ "type": "Feature", "properties": { "strassenschluessel": "05566000002802790", "bezeichnung": "Fisbecker Forst" }, "geometry": { "type": "Point", "coordinates": [ 7.777523984589935, 52.279899103257868 ] } },
{ "type": "Feature", "properties": { "strassenschluessel": "05566000002802795", "bezeichnung": "Flachsweg" }, "geometry": { "type": "Point", "coordinates": [ 7.658666827008345, 52.294982675844665 ] } },
{ "type": "Feature", "properties": { "strassenschluessel": "05566000002802800", "bezeichnung": "Fledder" }, "geometry": { "type": "Point", "coordinates": [ 7.804822131654609, 52.276279584391361 ] } },
{ "type": "Feature", "properties": { "strassenschluessel": "05566000002802805", "bezeichnung": "Flemingstr." }, "geometry": { "type": "Point", "coordinates": [ 7.701369117129222, 52.275801315234297 ] } },
{ "type": "Feature", "properties": { "strassenschluessel": "05566000002802810", "bezeichnung": "Flottwellstr." }, "geometry": { "type": "Point", "coordinates": [ 7.728650101990764, 52.293849192687098 ] } },
{ "type": "Feature", "properties": { "strassenschluessel": "05566000002802820", "bezeichnung": "Flurstr." }, "geometry": { "type": "Point", "coordinates": [ 7.700534477787605, 52.273132308246929 ] } },
{ "type": "Feature", "properties": { "strassenschluessel": "05566000002802830", "bezeichnung": "Föhrengrund" }, "geometry": { "type": "Point", "coordinates": [ 7.682344764286904, 52.270663459200193 ] } },
{ "type": "Feature", "properties": { "strassenschluessel": "05566000002802840", "bezeichnung": "Fordweg" }, "geometry": { "type": "Point", "coordinates": [ 7.73254401171086, 52.258879932668918 ] } },
{ "type": "Feature", "properties": { "strassenschluessel": "05566000002802841", "bezeichnung": "Forellengrund" }, "geometry": { "type": "Point", "coordinates": [ 7.793082693908031, 52.26597507395914 ] } },
{ "type": "Feature", "properties": { "strassenschluessel": "05566000002802850", "bezeichnung": "Forstweg" }, "geometry": { "type": "Point", "coordinates": [ 7.676627173294265, 52.32517396612473 ] } },
{ "type": "Feature", "properties": { "strassenschluessel": "05566000002802860", "bezeichnung": "Frankenstr." }, "geometry": { "type": "Point", "coordinates": [ 7.720245251504364, 52.287185931943135 ] } },
{ "type": "Feature", "properties": { "strassenschluessel": "05566000002802870", "bezeichnung": "Frau-Holle-Weg" }, "geometry": { "type": "Point", "coordinates": [ 7.774638318423124, 52.272519935005683 ] } },
{ "type": "Feature", "properties": { "strassenschluessel": "05566000002802880", "bezeichnung": "Freih.-v.-Stein-Str." }, "geometry": { "type": "Point", "coordinates": [ 7.783640662918062, 52.266883122157331 ] } },
{ "type": "Feature", "properties": { "strassenschluessel": "05566000002802890", "bezeichnung": "Friedastr." }, "geometry": { "type": "Point", "coordinates": [ 7.667937750278635, 52.316903109284645 ] } },
{ "type": "Feature", "properties": { "strassenschluessel": "05566000002802910", "bezeichnung": "Friedhofsweg" }, "geometry": { "type": "Point", "coordinates": [ 7.7868736441495, 52.258984896067183 ] } },
{ "type": "Feature", "properties": { "strassenschluessel": "05566000002802920", "bezeichnung": "Friedrichstr." }, "geometry": { "type": "Point", "coordinates": [ 7.712241977676912, 52.294356390825229 ] } },
{ "type": "Feature", "properties": { "strassenschluessel": "05566000002802930", "bezeichnung": "Friedrich-Wilhelm-Str." }, "geometry": { "type": "Point", "coordinates": [ 7.670100743350821, 52.316945779922072 ] } },
{ "type": "Feature", "properties": { "strassenschluessel": "05566000002802945", "bezeichnung": "Frieslandweg" }, "geometry": { "type": "Point", "coordinates": [ 7.699200778573555, 52.279142541423212 ] } },
{ "type": "Feature", "properties": { "strassenschluessel": "05566000002802950", "bezeichnung": "Fröbelplatz" }, "geometry": { "type": "Point", "coordinates": [ 7.707288316192487, 52.279434480776658 ] } },
{ "type": "Feature", "properties": { "strassenschluessel": "05566000002802960", "bezeichnung": "Fröbelstr." }, "geometry": { "type": "Point", "coordinates": [ 7.705475379996464, 52.280015314148379 ] } },
{ "type": "Feature", "properties": { "strassenschluessel": "05566000002802970", "bezeichnung": "Fuchsweg" }, "geometry": { "type": "Point", "coordinates": [ 7.809068765877028, 52.256948547279436 ] } },
{ "type": "Feature", "properties": { "strassenschluessel": "05566000002802975", "bezeichnung": "Fuggerstr." }, "geometry": { "type": "Point", "coordinates": [ 7.776915339061595, 52.264589406288572 ] } },
{ "type": "Feature", "properties": { "strassenschluessel": "05566000002802980", "bezeichnung": "Fürstenberger Str." }, "geometry": { "type": "Point", "coordinates": [ 7.68556523186274, 52.217572001604253 ] } },
{ "type": "Feature", "properties": { "strassenschluessel": "05566000002802990", "bezeichnung": "Garnaustr." }, "geometry": { "type": "Point", "coordinates": [ 7.701732372257615, 52.277448723538647 ] } },
{ "type": "Feature", "properties": { "strassenschluessel": "05566000002803000", "bezeichnung": "Gartenstr." }, "geometry": { "type": "Point", "coordinates": [ 7.714580956047458, 52.270816256420247 ] } },
{ "type": "Feature", "properties": { "strassenschluessel": "05566000002803010", "bezeichnung": "Gelber Esch" }, "geometry": { "type": "Point", "coordinates": [ 7.660749981762326, 52.323570457525648 ] } },
{ "type": "Feature", "properties": { "strassenschluessel": "05566000002803020", "bezeichnung": "Geranienweg" }, "geometry": { "type": "Point", "coordinates": [ 7.71737059747771, 52.29747660529717 ] } },
{ "type": "Feature", "properties": { "strassenschluessel": "05566000002803030", "bezeichnung": "Gerdastr." }, "geometry": { "type": "Point", "coordinates": [ 7.667364028438487, 52.316898678600822 ] } },
{ "type": "Feature", "properties": { "strassenschluessel": "05566000002803040", "bezeichnung": "Gerhardstr." }, "geometry": { "type": "Point", "coordinates": [ 7.756937701474456, 52.286486447740494 ] } },
{ "type": "Feature", "properties": { "strassenschluessel": "05566000002803045", "bezeichnung": "Gerichtsweg" }, "geometry": { "type": "Point", "coordinates": [ 7.720369705498815, 52.270288764298101 ] } },
{ "type": "Feature", "properties": { "strassenschluessel": "05566000002803046", "bezeichnung": "Gerstenweg" }, "geometry": { "type": "Point", "coordinates": [ 7.65696479035967, 52.293757836561838 ] } },
{ "type": "Feature", "properties": { "strassenschluessel": "05566000002803050", "bezeichnung": "Gildestr." }, "geometry": { "type": "Point", "coordinates": [ 7.733305499873887, 52.272155302259151 ] } },
{ "type": "Feature", "properties": { "strassenschluessel": "05566000002803060", "bezeichnung": "Gillmannstr." }, "geometry": { "type": "Point", "coordinates": [ 7.708343782288095, 52.284838622715235 ] } },
{ "type": "Feature", "properties": { "strassenschluessel": "05566000002803070", "bezeichnung": "Ginsterweg" }, "geometry": { "type": "Point", "coordinates": [ 7.671390505146903, 52.315547148395765 ] } },
{ "type": "Feature", "properties": { "strassenschluessel": "05566000002803080", "bezeichnung": "Glogauer Str." }, "geometry": { "type": "Point", "coordinates": [ 7.682032793997864, 52.218339195423688 ] } },
{ "type": "Feature", "properties": { "strassenschluessel": "05566000002803090", "bezeichnung": "Glück-Auf-Str." }, "geometry": { "type": "Point", "coordinates": [ 7.727337852388789, 52.294174569556525 ] } },
{ "type": "Feature", "properties": { "strassenschluessel": "05566000002803100", "bezeichnung": "Glücksburger Str." }, "geometry": { "type": "Point", "coordinates": [ 7.699021122374026, 52.289074437285073 ] } },
{ "type": "Feature", "properties": { "strassenschluessel": "05566000002803110", "bezeichnung": "Glückswinkel" }, "geometry": { "type": "Point", "coordinates": [ 7.727109295584184, 52.296313192984229 ] } },
{ "type": "Feature", "properties": { "strassenschluessel": "05566000002803120", "bezeichnung": "Goethestr." }, "geometry": { "type": "Point", "coordinates": [ 7.720945116101099, 52.274767424972637 ] } },
{ "type": "Feature", "properties": { "strassenschluessel": "05566000002803130", "bezeichnung": "Goldbusch" }, "geometry": { "type": "Point", "coordinates": [ 7.714804359613105, 52.256446329531983 ] } },
{ "type": "Feature", "properties": { "strassenschluessel": "05566000002803140", "bezeichnung": "Goldhügelstr." }, "geometry": { "type": "Point", "coordinates": [ 7.793746535552182, 52.277177043741524 ] } },
{ "type": "Feature", "properties": { "strassenschluessel": "05566000002803150", "bezeichnung": "Gotenstr." }, "geometry": { "type": "Point", "coordinates": [ 7.688647416860422, 52.287156533805664 ] } },
{ "type": "Feature", "properties": { "strassenschluessel": "05566000002803160", "bezeichnung": "Gottliebweg" }, "geometry": { "type": "Point", "coordinates": [ 7.777249253844429, 52.280712006840176 ] } },
{ "type": "Feature", "properties": { "strassenschluessel": "05566000002803170", "bezeichnung": "Gottschalkstr." }, "geometry": { "type": "Point", "coordinates": [ 7.708827038393111, 52.269500164023299 ] } },
{ "type": "Feature", "properties": { "strassenschluessel": "05566000002803180", "bezeichnung": "Gravenhorster Str." }, "geometry": { "type": "Point", "coordinates": [ 7.699359676253539, 52.27540328726765 ] } },
{ "type": "Feature", "properties": { "strassenschluessel": "05566000002803190", "bezeichnung": "Greifenhagener Str." }, "geometry": { "type": "Point", "coordinates": [ 7.680365108585584, 52.220358093388008 ] } },
{ "type": "Feature", "properties": { "strassenschluessel": "05566000002803195", "bezeichnung": "Grenzacker" }, "geometry": { "type": "Point", "coordinates": [ 7.696831665486407, 52.27888365575587 ] } },
{ "type": "Feature", "properties": { "strassenschluessel": "05566000002803200", "bezeichnung": "Grenzweg" }, "geometry": { "type": "Point", "coordinates": [ 7.69052769707915, 52.294601235865677 ] } },
{ "type": "Feature", "properties": { "strassenschluessel": "05566000002803210", "bezeichnung": "Gretelweg" }, "geometry": { "type": "Point", "coordinates": [ 7.776759718351173, 52.269759533416 ] } },
{ "type": "Feature", "properties": { "strassenschluessel": "05566000002803220", "bezeichnung": "Groner Allee" }, "geometry": { "type": "Point", "coordinates": [ 7.710423587236305, 52.271120890807026 ] } },
{ "type": "Feature", "properties": { "strassenschluessel": "05566000002803230", "bezeichnung": "Große Str." }, "geometry": { "type": "Point", "coordinates": [ 7.714966653726697, 52.27876335758485 ] } },
{ "type": "Feature", "properties": { "strassenschluessel": "05566000002803240", "bezeichnung": "Grote Hee" }, "geometry": { "type": "Point", "coordinates": [ 7.752710670324243, 52.260782343061798 ] } },
{ "type": "Feature", "properties": { "strassenschluessel": "05566000002803250", "bezeichnung": "Grothausstr." }, "geometry": { "type": "Point", "coordinates": [ 7.702972964565627, 52.26918134212567 ] } },
{ "type": "Feature", "properties": { "strassenschluessel": "05566000002803255", "bezeichnung": "Grube Sonnenschein" }, "geometry": { "type": "Point", "coordinates": [ 7.666172618795609, 52.31398937169908 ] } },
{ "type": "Feature", "properties": { "strassenschluessel": "05566000002803260", "bezeichnung": "Gründkenliet" }, "geometry": { "type": "Point", "coordinates": [ 7.790929780427946, 52.267021677177162 ] } },
{ "type": "Feature", "properties": { "strassenschluessel": "05566000002803270", "bezeichnung": "Grüner Brink" }, "geometry": { "type": "Point", "coordinates": [ 7.631743987204667, 52.320412526057318 ] } },
{ "type": "Feature", "properties": { "strassenschluessel": "05566000002803280", "bezeichnung": "Grüner Weg" }, "geometry": { "type": "Point", "coordinates": [ 7.705176145985765, 52.273471909241628 ] } },
{ "type": "Feature", "properties": { "strassenschluessel": "05566000002803282", "bezeichnung": "Grünewaldstr." }, "geometry": { "type": "Point", "coordinates": [ 7.701529890218408, 52.286018445877794 ] } },
{ "type": "Feature", "properties": { "strassenschluessel": "05566000002803290", "bezeichnung": "Guntherstr." }, "geometry": { "type": "Point", "coordinates": [ 7.776838403030692, 52.276038243428104 ] } },
{ "type": "Feature", "properties": { "strassenschluessel": "05566000002803295", "bezeichnung": "Gutenbergstr." }, "geometry": { "type": "Point", "coordinates": [ 7.716027578542985, 52.259185336330937 ] } },
{ "type": "Feature", "properties": { "strassenschluessel": "05566000002803300", "bezeichnung": "Gustav-Hugo-Str." }, "geometry": { "type": "Point", "coordinates": [ 7.683030876278239, 52.272279305194012 ] } },
{ "type": "Feature", "properties": { "strassenschluessel": "05566000002803310", "bezeichnung": "Haarweg" }, "geometry": { "type": "Point", "coordinates": [ 7.642833730058086, 52.289591639377186 ] } },
{ "type": "Feature", "properties": { "strassenschluessel": "05566000002803320", "bezeichnung": "Habichtshöhe" }, "geometry": { "type": "Point", "coordinates": [ 7.751087822071451, 52.279775617091673 ] } },
{ "type": "Feature", "properties": { "strassenschluessel": "05566000002803330", "bezeichnung": "Händelstr." }, "geometry": { "type": "Point", "coordinates": [ 7.70256388166069, 52.297538954737689 ] } },
{ "type": "Feature", "properties": { "strassenschluessel": "05566000002803340", "bezeichnung": "Hänselweg" }, "geometry": { "type": "Point", "coordinates": [ 7.776974677925452, 52.270591068432154 ] } },
{ "type": "Feature", "properties": { "strassenschluessel": "05566000002803350", "bezeichnung": "Hafenstr." }, "geometry": { "type": "Point", "coordinates": [ 7.679272373327242, 52.221429328199171 ] } },
{ "type": "Feature", "properties": { "strassenschluessel": "05566000002803355", "bezeichnung": "Haferweg" }, "geometry": { "type": "Point", "coordinates": [ 7.657094745451024, 52.294213357441109 ] } },
{ "type": "Feature", "properties": { "strassenschluessel": "05566000002803360", "bezeichnung": "Hagenpad" }, "geometry": null },
{ "type": "Feature", "properties": { "strassenschluessel": "05566000002803370", "bezeichnung": "Hainbuchenweg" }, "geometry": { "type": "Point", "coordinates": [ 7.670943359963744, 52.310665441912882 ] } },
{ "type": "Feature", "properties": { "strassenschluessel": "05566000002803380", "bezeichnung": "Halleschstr." }, "geometry": { "type": "Point", "coordinates": [ 7.708204072139242, 52.277216057924861 ] } },
{ "type": "Feature", "properties": { "strassenschluessel": "05566000002803390", "bezeichnung": "Hammerschlag" }, "geometry": { "type": "Point", "coordinates": [ 7.727548930268677, 52.295445680953875 ] } },
{ "type": "Feature", "properties": { "strassenschluessel": "05566000002803400", "bezeichnung": "Hangweg" }, "geometry": { "type": "Point", "coordinates": [ 7.743819250772319, 52.308804222569215 ] } },
{ "type": "Feature", "properties": { "strassenschluessel": "05566000002803410", "bezeichnung": "Hansastr." }, "geometry": { "type": "Point", "coordinates": [ 7.741065191500226, 52.272494974546625 ] } },
{ "type": "Feature", "properties": { "strassenschluessel": "05566000002803420", "bezeichnung": "Hardenbergstr." }, "geometry": { "type": "Point", "coordinates": [ 7.786621717401162, 52.263776745675607 ] } },
{ "type": "Feature", "properties": { "strassenschluessel": "05566000002803430", "bezeichnung": "Hardikskamp" }, "geometry": { "type": "Point", "coordinates": [ 7.71598170596024, 52.28869026828103 ] } },
{ "type": "Feature", "properties": { "strassenschluessel": "05566000002803440", "bezeichnung": "Haselnußweg" }, "geometry": { "type": "Point", "coordinates": [ 7.675426728949491, 52.313225525162132 ] } },
{ "type": "Feature", "properties": { "strassenschluessel": "05566000002803450", "bezeichnung": "Hasenkamp" }, "geometry": { "type": "Point", "coordinates": [ 7.641959922804442, 52.29661477116138 ] } },
{ "type": "Feature", "properties": { "strassenschluessel": "05566000002803460", "bezeichnung": "Hauereck" }, "geometry": { "type": "Point", "coordinates": [ 7.724600712351565, 52.296599852452957 ] } },
{ "type": "Feature", "properties": { "strassenschluessel": "05566000002803465", "bezeichnung": "Hauffstr." }, "geometry": { "type": "Point", "coordinates": [ 7.775525425992919, 52.269022778893316 ] } },
{ "type": "Feature", "properties": { "strassenschluessel": "05566000002803470", "bezeichnung": "Hauptstr." }, "geometry": { "type": "Point", "coordinates": [ 7.630459775411938, 52.312825726273111 ] } },
{ "type": "Feature", "properties": { "strassenschluessel": "05566000002803480", "bezeichnung": "Hausstätte" }, "geometry": { "type": "Point", "coordinates": [ 7.710829202109921, 52.281057875237813 ] } },
{ "type": "Feature", "properties": { "strassenschluessel": "05566000002803483", "bezeichnung": "Haydnstr." }, "geometry": { "type": "Point", "coordinates": [ 7.69974577857623, 52.298010399999676 ] } },
{ "type": "Feature", "properties": { "strassenschluessel": "05566000002803485", "bezeichnung": "Hebbelstr." }, "geometry": { "type": "Point", "coordinates": [ 7.770271471920755, 52.268639944828216 ] } },
{ "type": "Feature", "properties": { "strassenschluessel": "05566000002803487", "bezeichnung": "Heckelstr." }, "geometry": { "type": "Point", "coordinates": [ 7.701173691174121, 52.285286824799655 ] } },
{ "type": "Feature", "properties": { "strassenschluessel": "05566000002803490", "bezeichnung": "Heckenweg" }, "geometry": null },
{ "type": "Feature", "properties": { "strassenschluessel": "05566000002803500", "bezeichnung": "Heidburenweg" }, "geometry": { "type": "Point", "coordinates": [ 7.631624564567508, 52.319600782507969 ] } },
{ "type": "Feature", "properties": { "strassenschluessel": "05566000002803510", "bezeichnung": "Heideweg" }, "geometry": { "type": "Point", "coordinates": [ 7.701161360911382, 52.293310117188931 ] } },
{ "type": "Feature", "properties": { "strassenschluessel": "05566000002803520", "bezeichnung": "Heinr.-Brockmann-Str." }, "geometry": { "type": "Point", "coordinates": [ 7.660463597392684, 52.31778380197656 ] } },
{ "type": "Feature", "properties": { "strassenschluessel": "05566000002803530", "bezeichnung": "Heinrich-Lersch-Str." }, "geometry": { "type": "Point", "coordinates": [ 7.77403849738287, 52.281574707955912 ] } },
{ "type": "Feature", "properties": { "strassenschluessel": "05566000002803540", "bezeichnung": "Heinrichstr." }, "geometry": { "type": "Point", "coordinates": [ 7.672355752384664, 52.317956813493716 ] } },
{ "type": "Feature", "properties": { "strassenschluessel": "05566000002803550", "bezeichnung": "Heitkampweg" }, "geometry": { "type": "Point", "coordinates": [ 7.668324801833148, 52.313257919601 ] } },
{ "type": "Feature", "properties": { "strassenschluessel": "05566000002803557", "bezeichnung": "Heldermannstr." }, "geometry": { "type": "Point", "coordinates": [ 7.718509379686103, 52.276792161947249 ] } },
{ "type": "Feature", "properties": { "strassenschluessel": "05566000002803560", "bezeichnung": "Helgastr." }, "geometry": { "type": "Point", "coordinates": [ 7.666208977637382, 52.318364135059042 ] } },
{ "type": "Feature", "properties": { "strassenschluessel": "05566000002803570", "bezeichnung": "Hellendoorner Str." }, "geometry": { "type": "Point", "coordinates": [ 7.669649305456256, 52.312106404723899 ] } },
{ "type": "Feature", "properties": { "strassenschluessel": "05566000002803580", "bezeichnung": "Herbartstr." }, "geometry": { "type": "Point", "coordinates": [ 7.708213854091944, 52.279857256771351 ] } },
{ "type": "Feature", "properties": { "strassenschluessel": "05566000002803590", "bezeichnung": "Herbringskamp" }, "geometry": { "type": "Point", "coordinates": [ 7.71346068728479, 52.292882352257379 ] } },
{ "type": "Feature", "properties": { "strassenschluessel": "05566000002803600", "bezeichnung": "Hermannstr." }, "geometry": { "type": "Point", "coordinates": [ 7.668578957612703, 52.318477682441824 ] } },
{ "type": "Feature", "properties": { "strassenschluessel": "05566000002803605", "bezeichnung": "Heuwinkel" }, "geometry": { "type": "Point", "coordinates": [ 7.703877750946872, 52.273415476672255 ] } },
{ "type": "Feature", "properties": { "strassenschluessel": "05566000002803610", "bezeichnung": "Himbeerweg" }, "geometry": { "type": "Point", "coordinates": [ 7.671828752284581, 52.309939220313595 ] } },
{ "type": "Feature", "properties": { "strassenschluessel": "05566000002803620", "bezeichnung": "Höhenstr." }, "geometry": { "type": "Point", "coordinates": [ 7.748976352445514, 52.283470827107273 ] } },
{ "type": "Feature", "properties": { "strassenschluessel": "05566000002803630", "bezeichnung": "Hofmeierskamp" }, "geometry": { "type": "Point", "coordinates": [ 7.716778141875041, 52.297295346810785 ] } },
{ "type": "Feature", "properties": { "strassenschluessel": "05566000002803640", "bezeichnung": "Holbeinstr." }, "geometry": { "type": "Point", "coordinates": [ 7.703539369891563, 52.284698055817337 ] } },
{ "type": "Feature", "properties": { "strassenschluessel": "05566000002803650", "bezeichnung": "Holsterkampstr." }, "geometry": { "type": "Point", "coordinates": [ 7.718200339487809, 52.280084736130014 ] } },
{ "type": "Feature", "properties": { "strassenschluessel": "05566000002803660", "bezeichnung": "Holthauser Str." }, "geometry": { "type": "Point", "coordinates": [ 7.744881580307057, 52.246456139207098 ] } },
{ "type": "Feature", "properties": { "strassenschluessel": "05566000002803670", "bezeichnung": "Holtkamp" }, "geometry": { "type": "Point", "coordinates": [ 7.774887297853525, 52.278841716732366 ] } },
{ "type": "Feature", "properties": { "strassenschluessel": "05566000002803675", "bezeichnung": "Holunderweg" }, "geometry": { "type": "Point", "coordinates": [ 7.671115997217336, 52.313074361917742 ] } },
{ "type": "Feature", "properties": { "strassenschluessel": "05566000002803680", "bezeichnung": "Hoppenweg" }, "geometry": { "type": "Point", "coordinates": [ 7.733809495520879, 52.267987042566126 ] } },
{ "type": "Feature", "properties": { "strassenschluessel": "05566000002803690", "bezeichnung": "Hopstener Str." }, "geometry": { "type": "Point", "coordinates": [ 7.66934558554011, 52.324933516631361 ] } },
{ "type": "Feature", "properties": { "strassenschluessel": "05566000002803700", "bezeichnung": "Hubertusstr." }, "geometry": { "type": "Point", "coordinates": [ 7.758139991047166, 52.285566798091374 ] } },
{ "type": "Feature", "properties": { "strassenschluessel": "05566000002803705", "bezeichnung": "Hünefeldskamp" }, "geometry": { "type": "Point", "coordinates": [ 7.706624795636266, 52.284184900383472 ] } },
{ "type": "Feature", "properties": { "strassenschluessel": "05566000002803710", "bezeichnung": "Hünhügel" }, "geometry": { "type": "Point", "coordinates": [ 7.790667751459208, 52.255941596319694 ] } },
{ "type": "Feature", "properties": { "strassenschluessel": "05566000002803715", "bezeichnung": "Humboldtstr." }, "geometry": { "type": "Point", "coordinates": [ 7.767212002739991, 52.271815142674534 ] } },
{ "type": "Feature", "properties": { "strassenschluessel": "05566000002803720", "bezeichnung": "Hyddenburg" }, "geometry": { "type": "Point", "coordinates": [ 7.706200122588116, 52.2710665026041 ] } },
{ "type": "Feature", "properties": { "strassenschluessel": "05566000002803730", "bezeichnung": "Ibbenbürener Str." }, "geometry": { "type": "Point", "coordinates": [ 7.783761450115923, 52.26116276154184 ] } },
{ "type": "Feature", "properties": { "strassenschluessel": "05566000002803740", "bezeichnung": "Idastr." }, "geometry": { "type": "Point", "coordinates": [ 7.665692913233386, 52.317061270416396 ] } },
{ "type": "Feature", "properties": { "strassenschluessel": "05566000002803743", "bezeichnung": "Ignatz-Wiemeler-Str." }, "geometry": { "type": "Point", "coordinates": [ 7.72305571033344, 52.259822567158302 ] } },
{ "type": "Feature", "properties": { "strassenschluessel": "05566000002803745", "bezeichnung": "Iltisweg" }, "geometry": { "type": "Point", "coordinates": [ 7.641527957276278, 52.2993415168879 ] } },
{ "type": "Feature", "properties": { "strassenschluessel": "05566000002803750", "bezeichnung": "Im Brook" }, "geometry": { "type": "Point", "coordinates": [ 7.657581415467006, 52.204871143961512 ] } },
{ "type": "Feature", "properties": { "strassenschluessel": "05566000002803760", "bezeichnung": "Im Hilgen Feld" }, "geometry": { "type": "Point", "coordinates": [ 7.638580088816305, 52.338780974319434 ] } },
{ "type": "Feature", "properties": { "strassenschluessel": "05566000002803770", "bezeichnung": "Im Langewieser Esch" }, "geometry": { "type": "Point", "coordinates": [ 7.693475849363394, 52.27101037570926 ] } },
{ "type": "Feature", "properties": { "strassenschluessel": "05566000002803775", "bezeichnung": "Im Streb" }, "geometry": { "type": "Point", "coordinates": [ 7.724293801296502, 52.29432832550313 ] } },
{ "type": "Feature", "properties": { "strassenschluessel": "05566000002803780", "bezeichnung": "Im Venn" }, "geometry": { "type": "Point", "coordinates": [ 7.686337801630393, 52.219129538259629 ] } },
{ "type": "Feature", "properties": { "strassenschluessel": "05566000002803790", "bezeichnung": "In der Garte" }, "geometry": { "type": "Point", "coordinates": [ 7.780430295055241, 52.262456557031065 ] } },
{ "type": "Feature", "properties": { "strassenschluessel": "05566000002803800", "bezeichnung": "In der Nordfeldmark" }, "geometry": { "type": "Point", "coordinates": [ 7.694087729529435, 52.291053363820453 ] } },
{ "type": "Feature", "properties": { "strassenschluessel": "05566000002803810", "bezeichnung": "In der Ostfeldmark" }, "geometry": { "type": "Point", "coordinates": [ 7.726670831310324, 52.271932570537729 ] } },
{ "type": "Feature", "properties": { "strassenschluessel": "05566000002803820", "bezeichnung": "In der Südfeldmark" }, "geometry": { "type": "Point", "coordinates": [ 7.697038598185392, 52.267937442017718 ] } },
{ "type": "Feature", "properties": { "strassenschluessel": "05566000002803830", "bezeichnung": "In der Westfeldmark" }, "geometry": { "type": "Point", "coordinates": [ 7.701842219457111, 52.28131459740419 ] } },
{ "type": "Feature", "properties": { "strassenschluessel": "05566000002803837", "bezeichnung": "Isaak-Winkler-Weg" }, "geometry": { "type": "Point", "coordinates": [ 7.700345373301754, 52.28023709971837 ] } },
{ "type": "Feature", "properties": { "strassenschluessel": "05566000002803840", "bezeichnung": "Jägerstr." }, "geometry": { "type": "Point", "coordinates": [ 7.755562362904646, 52.278925902701388 ] } },
{ "type": "Feature", "properties": { "strassenschluessel": "05566000002803850", "bezeichnung": "Jagdgrund" }, "geometry": { "type": "Point", "coordinates": [ 7.755553377203233, 52.278588400399514 ] } },
{ "type": "Feature", "properties": { "strassenschluessel": "05566000002803860", "bezeichnung": "Jahnstr." }, "geometry": { "type": "Point", "coordinates": [ 7.794171604850156, 52.257891661966575 ] } },
{ "type": "Feature", "properties": { "strassenschluessel": "05566000002803870", "bezeichnung": "Jenaer Str." }, "geometry": { "type": "Point", "coordinates": [ 7.649372266925217, 52.293741103212206 ] } },
{ "type": "Feature", "properties": { "strassenschluessel": "05566000002803880", "bezeichnung": "Johannesstr." }, "geometry": { "type": "Point", "coordinates": [ 7.678855732569919, 52.274795979255877 ] } },
{ "type": "Feature", "properties": { "strassenschluessel": "05566000002803890", "bezeichnung": "Jordanstr." }, "geometry": { "type": "Point", "coordinates": [ 7.658672025783748, 52.29575363389651 ] } },
{ "type": "Feature", "properties": { "strassenschluessel": "05566000002803900", "bezeichnung": "Jorindeweg" }, "geometry": { "type": "Point", "coordinates": [ 7.78592901432593, 52.270135011862386 ] } },
{ "type": "Feature", "properties": { "strassenschluessel": "05566000002803910", "bezeichnung": "Josefshöhe" }, "geometry": { "type": "Point", "coordinates": [ 7.699571352034403, 52.25153451899525 ] } },
{ "type": "Feature", "properties": { "strassenschluessel": "05566000002803920", "bezeichnung": "Josef-Verlemann-Str." }, "geometry": { "type": "Point", "coordinates": [ 7.726942428130737, 52.310793307112938 ] } },
{ "type": "Feature", "properties": { "strassenschluessel": "05566000002803930", "bezeichnung": "Junkendiek" }, "geometry": { "type": "Point", "coordinates": [ 7.66432754785736, 52.276872152738051 ] } },
{ "type": "Feature", "properties": { "strassenschluessel": "05566000002803935", "bezeichnung": "Kampstr." }, "geometry": { "type": "Point", "coordinates": [ 7.695946591320783, 52.279092179263671 ] } },
{ "type": "Feature", "properties": { "strassenschluessel": "05566000002803937", "bezeichnung": "Käthe-Kollwitz-Str." }, "geometry": { "type": "Point", "coordinates": [ 7.749087330376794, 52.26616261254177 ] } },
{ "type": "Feature", "properties": { "strassenschluessel": "05566000002803950", "bezeichnung": "Kanalstr." }, "geometry": { "type": "Point", "coordinates": [ 7.714110615136646, 52.275598916926896 ] } },
{ "type": "Feature", "properties": { "strassenschluessel": "05566000002803952", "bezeichnung": "Kantweg" }, "geometry": { "type": "Point", "coordinates": [ 7.76942966254071, 52.270461952276563 ] } },
{ "type": "Feature", "properties": { "strassenschluessel": "05566000002803955", "bezeichnung": "Kastanienweg" }, "geometry": { "type": "Point", "coordinates": [ 7.785681596713241, 52.259115265957945 ] } },
{ "type": "Feature", "properties": { "strassenschluessel": "05566000002803960", "bezeichnung": "Keilhaue" }, "geometry": { "type": "Point", "coordinates": [ 7.722577063833291, 52.296226276536437 ] } },
{ "type": "Feature", "properties": { "strassenschluessel": "05566000002803970", "bezeichnung": "Keplerstr." }, "geometry": { "type": "Point", "coordinates": [ 7.737235038523658, 52.268738315716227 ] } },
{ "type": "Feature", "properties": { "strassenschluessel": "05566000002803980", "bezeichnung": "Kiebitzgrund" }, "geometry": { "type": "Point", "coordinates": [ 7.678033423402186, 52.277684446874865 ] } },
{ "type": "Feature", "properties": { "strassenschluessel": "05566000002803990", "bezeichnung": "Kiefernweg" }, "geometry": { "type": "Point", "coordinates": [ 7.6810105163767, 52.278360526382997 ] } },
{ "type": "Feature", "properties": { "strassenschluessel": "05566000002804000", "bezeichnung": "Kiesweg" }, "geometry": { "type": "Point", "coordinates": [ 7.726448935406765, 52.301345192931322 ] } },
{ "type": "Feature", "properties": { "strassenschluessel": "05566000002804010", "bezeichnung": "Kirchenesch" }, "geometry": { "type": "Point", "coordinates": [ 7.708671122352472, 52.276762827245683 ] } },
{ "type": "Feature", "properties": { "strassenschluessel": "05566000002804020", "bezeichnung": "Kirchstr." }, "geometry": { "type": "Point", "coordinates": [ 7.656137834608058, 52.297997877531202 ] } },
{ "type": "Feature", "properties": { "strassenschluessel": "05566000002804040", "bezeichnung": "Kleekamp" }, "geometry": { "type": "Point", "coordinates": [ 7.802947494264228, 52.269017499836657 ] } },
{ "type": "Feature", "properties": { "strassenschluessel": "05566000002804050", "bezeichnung": "Kleimannstr." }, "geometry": { "type": "Point", "coordinates": [ 7.631910618597, 52.321034402386907 ] } },
{ "type": "Feature", "properties": { "strassenschluessel": "05566000002804060", "bezeichnung": "Klippental" }, "geometry": { "type": "Point", "coordinates": [ 7.714041439321782, 52.235547443895861 ] } },
{ "type": "Feature", "properties": { "strassenschluessel": "05566000002804065", "bezeichnung": "Klostergasse" }, "geometry": { "type": "Point", "coordinates": [ 7.714983676669562, 52.273938450445641 ] } },
{ "type": "Feature", "properties": { "strassenschluessel": "05566000002804070", "bezeichnung": "Klosterstr." }, "geometry": { "type": "Point", "coordinates": [ 7.715646250816522, 52.272153660528666 ] } },
{ "type": "Feature", "properties": { "strassenschluessel": "05566000002804080", "bezeichnung": "Knappenstr." }, "geometry": { "type": "Point", "coordinates": [ 7.72406417313877, 52.297659308839698 ] } },
{ "type": "Feature", "properties": { "strassenschluessel": "05566000002804090", "bezeichnung": "Köllersweg" }, "geometry": { "type": "Point", "coordinates": [ 7.715257033256228, 52.323150451748695 ] } },
{ "type": "Feature", "properties": { "strassenschluessel": "05566000002804100", "bezeichnung": "Königsberger Str." }, "geometry": { "type": "Point", "coordinates": [ 7.683540512369224, 52.277956504321018 ] } },
{ "type": "Feature", "properties": { "strassenschluessel": "05566000002804110", "bezeichnung": "Köthener Str." }, "geometry": { "type": "Point", "coordinates": [ 7.652010520956084, 52.297026001720823 ] } },
{ "type": "Feature", "properties": { "strassenschluessel": "05566000002804115", "bezeichnung": "Kötterstr." }, "geometry": { "type": "Point", "coordinates": [ 7.780961284638633, 52.257992428289697 ] } },
{ "type": "Feature", "properties": { "strassenschluessel": "05566000002804120", "bezeichnung": "Kornstr." }, "geometry": { "type": "Point", "coordinates": [ 7.703931808334676, 52.272245678529721 ] } },
{ "type": "Feature", "properties": { "strassenschluessel": "05566000002804130", "bezeichnung": "Kraneburg" }, "geometry": { "type": "Point", "coordinates": [ 7.786696821819707, 52.26541165111761 ] } },
{ "type": "Feature", "properties": { "strassenschluessel": "05566000002804135", "bezeichnung": "Kranichweg" }, "geometry": { "type": "Point", "coordinates": [ 7.670265046455842, 52.278797351745823 ] } },
{ "type": "Feature", "properties": { "strassenschluessel": "05566000002804140", "bezeichnung": "Kriemhildstr." }, "geometry": { "type": "Point", "coordinates": [ 7.775882737688725, 52.276493032887366 ] } },
{ "type": "Feature", "properties": { "strassenschluessel": "05566000002804150", "bezeichnung": "Krokusweg" }, "geometry": { "type": "Point", "coordinates": [ 7.715616125536014, 52.297028501067757 ] } },
{ "type": "Feature", "properties": { "strassenschluessel": "05566000002804160", "bezeichnung": "Kronenburg" }, "geometry": { "type": "Point", "coordinates": [ 7.634642174288159, 52.334230220058501 ] } },
{ "type": "Feature", "properties": { "strassenschluessel": "05566000002804170", "bezeichnung": "Krummacherstr." }, "geometry": { "type": "Point", "coordinates": [ 7.718044357255117, 52.274894811256466 ] } },
{ "type": "Feature", "properties": { "strassenschluessel": "05566000002804180", "bezeichnung": "Kuckucksweg" }, "geometry": { "type": "Point", "coordinates": [ 7.675903868762476, 52.274196200766077 ] } },
{ "type": "Feature", "properties": { "strassenschluessel": "05566000002804190", "bezeichnung": "Kümperweg" }, "geometry": { "type": "Point", "coordinates": [ 7.770839446564535, 52.278474819881865 ] } },
{ "type": "Feature", "properties": { "strassenschluessel": "05566000002804200", "bezeichnung": "Kurze Str." }, "geometry": { "type": "Point", "coordinates": [ 7.716879991950996, 52.274330855972671 ] } },
{ "type": "Feature", "properties": { "strassenschluessel": "05566000002804205", "bezeichnung": "Lachsweg" }, "geometry": { "type": "Point", "coordinates": [ 7.794060168291211, 52.266647432802714 ] } },
{ "type": "Feature", "properties": { "strassenschluessel": "05566000002804210", "bezeichnung": "Laggenbecker Str." }, "geometry": { "type": "Point", "coordinates": [ 7.738926572330898, 52.274439409909043 ] } },
{ "type": "Feature", "properties": { "strassenschluessel": "05566000002804220", "bezeichnung": "Langeholz" }, "geometry": { "type": "Point", "coordinates": [ 7.793315537128573, 52.254658242924044 ] } },
{ "type": "Feature", "properties": { "strassenschluessel": "05566000002804230", "bezeichnung": "Langenpool" }, "geometry": { "type": "Point", "coordinates": [ 7.743294564020898, 52.255442586314821 ] } },
{ "type": "Feature", "properties": { "strassenschluessel": "05566000002804235", "bezeichnung": "Lausen-Martin-Gasse" }, "geometry": { "type": "Point", "coordinates": [ 7.716044475135294, 52.276472057952255 ] } },
{ "type": "Feature", "properties": { "strassenschluessel": "05566000002804237", "bezeichnung": "Lausitzweg" }, "geometry": { "type": "Point", "coordinates": [ 7.700682559971727, 52.277521979848807 ] } },
{ "type": "Feature", "properties": { "strassenschluessel": "05566000002804240", "bezeichnung": "Lauweg" }, "geometry": { "type": "Point", "coordinates": [ 7.761666681790246, 52.267842076504579 ] } },
{ "type": "Feature", "properties": { "strassenschluessel": "05566000002804245", "bezeichnung": "Ledder Dorfstr." }, "geometry": null },
{ "type": "Feature", "properties": { "strassenschluessel": "05566000002804250", "bezeichnung": "Ledder Str." }, "geometry": { "type": "Point", "coordinates": [ 7.74316251870302, 52.264746214066193 ] } },
{ "type": "Feature", "properties": { "strassenschluessel": "05566000002804260", "bezeichnung": "Lehener Esch" }, "geometry": { "type": "Point", "coordinates": [ 7.713590996871478, 52.252427401473739 ] } },
{ "type": "Feature", "properties": { "strassenschluessel": "05566000002804263", "bezeichnung": "Lehrer-Lämpel-Weg" }, "geometry": { "type": "Point", "coordinates": [ 7.771391999156392, 52.272003684973086 ] } },
{ "type": "Feature", "properties": { "strassenschluessel": "05566000002804265", "bezeichnung": "Leibnizweg" }, "geometry": { "type": "Point", "coordinates": [ 7.768236949452232, 52.271210239926958 ] } },
{ "type": "Feature", "properties": { "strassenschluessel": "05566000002804270", "bezeichnung": "Leipziger Str." }, "geometry": null },
{ "type": "Feature", "properties": { "strassenschluessel": "05566000002804280", "bezeichnung": "Leischultenkamp" }, "geometry": { "type": "Point", "coordinates": [ 7.72647322024555, 52.291570453384935 ] } },
{ "type": "Feature", "properties": { "strassenschluessel": "05566000002804290", "bezeichnung": "Lengericher Str." }, "geometry": { "type": "Point", "coordinates": [ 7.733110195939253, 52.24901636998846 ] } },
{ "type": "Feature", "properties": { "strassenschluessel": "05566000002804300", "bezeichnung": "Lerchenweg" }, "geometry": { "type": "Point", "coordinates": [ 7.703124911737513, 52.27887150415696 ] } },
{ "type": "Feature", "properties": { "strassenschluessel": "05566000002804310", "bezeichnung": "Lessingstr." }, "geometry": { "type": "Point", "coordinates": [ 7.72860007182059, 52.269406174235456 ] } },
{ "type": "Feature", "properties": { "strassenschluessel": "05566000002804320", "bezeichnung": "Liljenhof" }, "geometry": { "type": "Point", "coordinates": [ 7.72960698625197, 52.288166490706381 ] } },
{ "type": "Feature", "properties": { "strassenschluessel": "05566000002804330", "bezeichnung": "Lindenbrook" }, "geometry": { "type": "Point", "coordinates": [ 7.656499514467922, 52.273852267187152 ] } },
{ "type": "Feature", "properties": { "strassenschluessel": "05566000002804340", "bezeichnung": "Lindenstr." }, "geometry": { "type": "Point", "coordinates": [ 7.788571217593077, 52.260773612164762 ] } },
{ "type": "Feature", "properties": { "strassenschluessel": "05566000002804350", "bezeichnung": "Löchtweg" }, "geometry": { "type": "Point", "coordinates": [ 7.689129852968122, 52.232241915405346 ] } },
{ "type": "Feature", "properties": { "strassenschluessel": "05566000002804360", "bezeichnung": "Lönsweg" }, "geometry": { "type": "Point", "coordinates": [ 7.784797300572995, 52.256713913261905 ] } },
{ "type": "Feature", "properties": { "strassenschluessel": "05566000002804370", "bezeichnung": "Loismannweg" }, "geometry": { "type": "Point", "coordinates": [ 7.6775123526317, 52.23814047388997 ] } },
{ "type": "Feature", "properties": { "strassenschluessel": "05566000002804380", "bezeichnung": "Lortzingstr." }, "geometry": { "type": "Point", "coordinates": [ 7.703770457225865, 52.29723235580461 ] } },
{ "type": "Feature", "properties": { "strassenschluessel": "05566000002804390", "bezeichnung": "Lotsenweg" }, "geometry": { "type": "Point", "coordinates": [ 7.685450310404502, 52.21937089690276 ] } },
{ "type": "Feature", "properties": { "strassenschluessel": "05566000002804400", "bezeichnung": "Ludwigstr." }, "geometry": { "type": "Point", "coordinates": [ 7.67101416664082, 52.318105417813172 ] } },
{ "type": "Feature", "properties": { "strassenschluessel": "05566000002804401", "bezeichnung": "Ludgeriweg" }, "geometry": { "type": "Point", "coordinates": [ 7.651807597887822, 52.299196157247984 ] } },
{ "type": "Feature", "properties": { "strassenschluessel": "05566000002804410", "bezeichnung": "Lutherstr." }, "geometry": { "type": "Point", "coordinates": [ 7.728363781763202, 52.275298461230314 ] } },
{ "type": "Feature", "properties": { "strassenschluessel": "05566000002804420", "bezeichnung": "Magdeburger Str." }, "geometry": { "type": "Point", "coordinates": [ 7.65489320720366, 52.295757073284427 ] } },
{ "type": "Feature", "properties": { "strassenschluessel": "05566000002804430", "bezeichnung": "Mahlerstr." }, "geometry": { "type": "Point", "coordinates": [ 7.704598576312541, 52.297070585020286 ] } },
{ "type": "Feature", "properties": { "strassenschluessel": "05566000002804435", "bezeichnung": "Maisweg" }, "geometry": { "type": "Point", "coordinates": [ 7.656723015194714, 52.29280112778406 ] } },
{ "type": "Feature", "properties": { "strassenschluessel": "05566000002804440", "bezeichnung": "Marienstr." }, "geometry": { "type": "Point", "coordinates": [ 7.670080560311256, 52.294335932788449 ] } },
{ "type": "Feature", "properties": { "strassenschluessel": "05566000002804445", "bezeichnung": "Maria-Montessori-Str." }, "geometry": { "type": "Point", "coordinates": [ 7.752807316973962, 52.265220223155652 ] } },
{ "type": "Feature", "properties": { "strassenschluessel": "05566000002804450", "bezeichnung": "Marktstr." }, "geometry": { "type": "Point", "coordinates": [ 7.714851506210017, 52.274896902155376 ] } },
{ "type": "Feature", "properties": { "strassenschluessel": "05566000002804460", "bezeichnung": "Markweg" }, "geometry": { "type": "Point", "coordinates": [ 7.731029252606076, 52.256515612619125 ] } },
{ "type": "Feature", "properties": { "strassenschluessel": "05566000002804470", "bezeichnung": "Mauritiusstr." }, "geometry": { "type": "Point", "coordinates": [ 7.662692566694727, 52.297760752725416 ] } },
{ "type": "Feature", "properties": { "strassenschluessel": "05566000002804475", "bezeichnung": "Maybachstr." }, "geometry": { "type": "Point", "coordinates": [ 7.704618467887153, 52.259784123837441 ] } },
{ "type": "Feature", "properties": { "strassenschluessel": "05566000002804480", "bezeichnung": "Meisenweg" }, "geometry": { "type": "Point", "coordinates": [ 7.676688871029394, 52.274048879544218 ] } },
{ "type": "Feature", "properties": { "strassenschluessel": "05566000002804485", "bezeichnung": "Meißener Str." }, "geometry": { "type": "Point", "coordinates": [ 7.651388326313588, 52.291987658067775 ] } },
{ "type": "Feature", "properties": { "strassenschluessel": "05566000002804490", "bezeichnung": "Memelweg" }, "geometry": { "type": "Point", "coordinates": [ 7.687996437857225, 52.275887622069177 ] } },
{ "type": "Feature", "properties": { "strassenschluessel": "05566000002804500", "bezeichnung": "Menzelstr." }, "geometry": { "type": "Point", "coordinates": [ 7.708324982450364, 52.282510415422969 ] } },
{ "type": "Feature", "properties": { "strassenschluessel": "05566000002804510", "bezeichnung": "Merschweg" }, "geometry": { "type": "Point", "coordinates": [ 7.698640619786902, 52.274373451639477 ] } },
{ "type": "Feature", "properties": { "strassenschluessel": "05566000002804512", "bezeichnung": "Merschwiese" }, "geometry": { "type": "Point", "coordinates": [ 7.697734071387128, 52.274078842305045 ] } },
{ "type": "Feature", "properties": { "strassenschluessel": "05566000002804520", "bezeichnung": "Merseburger Str." }, "geometry": { "type": "Point", "coordinates": [ 7.651326989322503, 52.294904247841153 ] } },
{ "type": "Feature", "properties": { "strassenschluessel": "05566000002804530", "bezeichnung": "Mettebrink" }, "geometry": { "type": "Point", "coordinates": [ 7.77291008959519, 52.267342358281283 ] } },
{ "type": "Feature", "properties": { "strassenschluessel": "05566000002804540", "bezeichnung": "Mettinger Grenze" }, "geometry": { "type": "Point", "coordinates": [ 7.746824813672938, 52.297330144476106 ] } },
{ "type": "Feature", "properties": { "strassenschluessel": "05566000002804550", "bezeichnung": "Mettinger Str." }, "geometry": { "type": "Point", "coordinates": [ 7.78896052091468, 52.264465243726654 ] } },
{ "type": "Feature", "properties": { "strassenschluessel": "05566000002804560", "bezeichnung": "Meyringstr." }, "geometry": { "type": "Point", "coordinates": [ 7.78856912291978, 52.259499880888882 ] } },
{ "type": "Feature", "properties": { "strassenschluessel": "05566000002804570", "bezeichnung": "Michaelstr." }, "geometry": { "type": "Point", "coordinates": [ 7.723988054772424, 52.290935631784301 ] } },
{ "type": "Feature", "properties": { "strassenschluessel": "05566000002804580", "bezeichnung": "Mittelstr." }, "geometry": { "type": "Point", "coordinates": [ 7.721442371439853, 52.280065525990615 ] } },
{ "type": "Feature", "properties": { "strassenschluessel": "05566000002804585", "bezeichnung": "Mörikestr." }, "geometry": { "type": "Point", "coordinates": [ 7.77187108135393, 52.269332902715355 ] } },
{ "type": "Feature", "properties": { "strassenschluessel": "05566000002804590", "bezeichnung": "Moorweg" }, "geometry": { "type": "Point", "coordinates": [ 7.656061808081282, 52.326013261325095 ] } },
{ "type": "Feature", "properties": { "strassenschluessel": "05566000002804600", "bezeichnung": "Mozartstr." }, "geometry": { "type": "Point", "coordinates": [ 7.707058069812944, 52.2966502229838 ] } },
{ "type": "Feature", "properties": { "strassenschluessel": "05566000002804610", "bezeichnung": "Mühlengrube" }, "geometry": { "type": "Point", "coordinates": [ 7.734721743774871, 52.276450586937848 ] } },
{ "type": "Feature", "properties": { "strassenschluessel": "05566000002804620", "bezeichnung": "Mühlenweg" }, "geometry": { "type": "Point", "coordinates": [ 7.739965858419281, 52.307603413260125 ] } },
{ "type": "Feature", "properties": { "strassenschluessel": "05566000002804625", "bezeichnung": "Münsterlandweg" }, "geometry": { "type": "Point", "coordinates": [ 7.697495114219794, 52.280721557617078 ] } },
{ "type": "Feature", "properties": { "strassenschluessel": "05566000002804630", "bezeichnung": "Münsterstr." }, "geometry": { "type": "Point", "coordinates": [ 7.715721870741624, 52.264385200086245 ] } },
{ "type": "Feature", "properties": { "strassenschluessel": "05566000002804640", "bezeichnung": "Naumannstr." }, "geometry": { "type": "Point", "coordinates": [ 7.7311746135286, 52.273166298503696 ] } },
{ "type": "Feature", "properties": { "strassenschluessel": "05566000002804650", "bezeichnung": "Nelkenstr." }, "geometry": { "type": "Point", "coordinates": [ 7.720138322570375, 52.295228386504355 ] } },
{ "type": "Feature", "properties": { "strassenschluessel": "05566000002804652", "bezeichnung": "Nelly-Sachs-Str." }, "geometry": { "type": "Point", "coordinates": [ 7.751966871932301, 52.264701511222128 ] } },
{ "type": "Feature", "properties": { "strassenschluessel": "05566000002804660", "bezeichnung": "Neue Bockradener Str." }, "geometry": { "type": "Point", "coordinates": [ 7.720287995988921, 52.288997944830371 ] } },
{ "type": "Feature", "properties": { "strassenschluessel": "05566000002804670", "bezeichnung": "Neuentheilerstr." }, "geometry": { "type": "Point", "coordinates": [ 7.697040065868141, 52.277216062916338 ] } },
{ "type": "Feature", "properties": { "strassenschluessel": "05566000002804675", "bezeichnung": "Neumarkt" }, "geometry": { "type": "Point", "coordinates": [ 7.716518380111179, 52.277225476632474 ] } },
{ "type": "Feature", "properties": { "strassenschluessel": "05566000002804680", "bezeichnung": "Neumarktstr." }, "geometry": { "type": "Point", "coordinates": [ 7.717083568852571, 52.276585446747717 ] } },
{ "type": "Feature", "properties": { "strassenschluessel": "05566000002804690", "bezeichnung": "Neusalzer Str." }, "geometry": { "type": "Point", "coordinates": [ 7.684288353806818, 52.218571585356301 ] } },
{ "type": "Feature", "properties": { "strassenschluessel": "05566000002804700", "bezeichnung": "Neustr." }, "geometry": { "type": "Point", "coordinates": [ 7.713825687655646, 52.273188822759181 ] } },
{ "type": "Feature", "properties": { "strassenschluessel": "05566000002804710", "bezeichnung": "Nibelungenberg" }, "geometry": { "type": "Point", "coordinates": [ 7.775354320472184, 52.277841578255739 ] } },
{ "type": "Feature", "properties": { "strassenschluessel": "05566000002804720", "bezeichnung": "Niedersachsenring" }, "geometry": { "type": "Point", "coordinates": [ 7.692592637823884, 52.284020323973536 ] } },