{
"type": "FeatureCollection",
"features": [
{ "type": "Feature", "properties": { "strassenschluessel": "05962000002403401", "bezeichnung": "Neumarkt" }, "geometry": { "type": "Point", "coordinates": [ 7.617094789689871, 51.366360991918292 ] } },
{ "type": "Feature", "properties": { "strassenschluessel": "05962000002403402", "bezeichnung": "Auf dem Birnbaum" }, "geometry": { "type": "Point", "coordinates": [ 7.624248392406494, 51.370533344041824 ] } },
{ "type": "Feature", "properties": { "strassenschluessel": "05962000002403403", "bezeichnung": "Auf dem Gerre" }, "geometry": { "type": "Point", "coordinates": [ 7.620091977333109, 51.366113645654799 ] } },
{ "type": "Feature", "properties": { "strassenschluessel": "05962000002403404", "bezeichnung": "Auf dem Loh" }, "geometry": { "type": "Point", "coordinates": [ 7.626018229265278, 51.371330409148328 ] } },
{ "type": "Feature", "properties": { "strassenschluessel": "05962000002403405", "bezeichnung": "Berliner Allee" }, "geometry": { "type": "Point", "coordinates": [ 7.632782509931358, 51.372963644341141 ] } },
{ "type": "Feature", "properties": { "strassenschluessel": "05962000002403406", "bezeichnung": "Brabeckstraße" }, "geometry": { "type": "Point", "coordinates": [ 7.615973902055501, 51.368145465340774 ] } },
{ "type": "Feature", "properties": { "strassenschluessel": "05962000002403407", "bezeichnung": "Breddestraße" }, "geometry": { "type": "Point", "coordinates": [ 7.629506736099438, 51.370927805350931 ] } },
{ "type": "Feature", "properties": { "strassenschluessel": "05962000002403408", "bezeichnung": "Dietrich-Liesenhoff-Straße" }, "geometry": { "type": "Point", "coordinates": [ 7.622974854818351, 51.367068822636227 ] } },
{ "type": "Feature", "properties": { "strassenschluessel": "05962000002403409", "bezeichnung": "Eichendorffweg" }, "geometry": { "type": "Point", "coordinates": [ 7.61686453581161, 51.371582118960596 ] } },
{ "type": "Feature", "properties": { "strassenschluessel": "05962000002403410", "bezeichnung": "Flehmestraße" }, "geometry": { "type": "Point", "coordinates": [ 7.619548563780581, 51.365837926912697 ] } },
{ "type": "Feature", "properties": { "strassenschluessel": "05962000002403411", "bezeichnung": "Friedensstraße" }, "geometry": { "type": "Point", "coordinates": [ 7.613474150797166, 51.371599028318492 ] } },
{ "type": "Feature", "properties": { "strassenschluessel": "05962000002403412", "bezeichnung": "Friedrich-Ebert-Straße" }, "geometry": { "type": "Point", "coordinates": [ 7.62377900643801, 51.36830840136215 ] } },
{ "type": "Feature", "properties": { "strassenschluessel": "05962000002403413", "bezeichnung": "Marktstraße" }, "geometry": { "type": "Point", "coordinates": [ 7.611636641555904, 51.365646436655254 ] } },
{ "type": "Feature", "properties": { "strassenschluessel": "05962000002403414", "bezeichnung": "Kleiststraße" }, "geometry": { "type": "Point", "coordinates": [ 7.612081374932983, 51.368236927867713 ] } },
{ "type": "Feature", "properties": { "strassenschluessel": "05962000002403415", "bezeichnung": "Wiechertstraße" }, "geometry": { "type": "Point", "coordinates": [ 7.612334764888258, 51.369831702587774 ] } },
{ "type": "Feature", "properties": { "strassenschluessel": "05962000002403416", "bezeichnung": "An Pater und Nonne" }, "geometry": { "type": "Point", "coordinates": [ 7.620664308323955, 51.364929481031091 ] } },
{ "type": "Feature", "properties": { "strassenschluessel": "05962000002403417", "bezeichnung": "Hagener Straße" }, "geometry": { "type": "Point", "coordinates": [ 7.612529674668399, 51.365291884770073 ] } },
{ "type": "Feature", "properties": { "strassenschluessel": "05962000002403418", "bezeichnung": "Renteiweg" }, "geometry": null },
{ "type": "Feature", "properties": { "strassenschluessel": "05962000002403419", "bezeichnung": "Im Hakenacker" }, "geometry": { "type": "Point", "coordinates": [ 7.619834399934401, 51.36961175309348 ] } },
{ "type": "Feature", "properties": { "strassenschluessel": "05962000002403420", "bezeichnung": "Im Mühlental" }, "geometry": { "type": "Point", "coordinates": [ 7.624604152682262, 51.367283837225919 ] } },
{ "type": "Feature", "properties": { "strassenschluessel": "05962000002403421", "bezeichnung": "Zum Volksgarten" }, "geometry": { "type": "Point", "coordinates": [ 7.61802652176726, 51.36549972254781 ] } },
{ "type": "Feature", "properties": { "strassenschluessel": "05962000002403422", "bezeichnung": "Kühlingstraße" }, "geometry": { "type": "Point", "coordinates": [ 7.622636720930209, 51.369828189342918 ] } },
{ "type": "Feature", "properties": { "strassenschluessel": "05962000002403423", "bezeichnung": "Leopold-Schütte-Weg" }, "geometry": { "type": "Point", "coordinates": [ 7.621187354107041, 51.370322435850341 ] } },
{ "type": "Feature", "properties": { "strassenschluessel": "05962000002403424", "bezeichnung": "Fontaneweg" }, "geometry": { "type": "Point", "coordinates": [ 7.614231831361768, 51.371020908386996 ] } },
{ "type": "Feature", "properties": { "strassenschluessel": "05962000002403425", "bezeichnung": "Marienstraße" }, "geometry": { "type": "Point", "coordinates": [ 7.613520252638541, 51.365428959296807 ] } },
{ "type": "Feature", "properties": { "strassenschluessel": "05962000002403426", "bezeichnung": "Am Haus Letmathe" }, "geometry": { "type": "Point", "coordinates": [ 7.607417595286774, 51.366457546078351 ] } },
{ "type": "Feature", "properties": { "strassenschluessel": "05962000002403427", "bezeichnung": "Mörikeweg" }, "geometry": { "type": "Point", "coordinates": [ 7.620789285218537, 51.371630834938372 ] } },
{ "type": "Feature", "properties": { "strassenschluessel": "05962000002403428", "bezeichnung": "Overwegstraße" }, "geometry": { "type": "Point", "coordinates": [ 7.615299920621548, 51.366024198322577 ] } },
{ "type": "Feature", "properties": { "strassenschluessel": "05962000002403429", "bezeichnung": "Lessingstraße" }, "geometry": { "type": "Point", "coordinates": [ 7.612894978596068, 51.368540466166792 ] } },
{ "type": "Feature", "properties": { "strassenschluessel": "05962000002403430", "bezeichnung": "Schubertstraße" }, "geometry": { "type": "Point", "coordinates": [ 7.616628835727526, 51.368992588389538 ] } },
{ "type": "Feature", "properties": { "strassenschluessel": "05962000002403431", "bezeichnung": "Schwerter Straße" }, "geometry": { "type": "Point", "coordinates": [ 7.610518860141604, 51.367052760536552 ] } },
{ "type": "Feature", "properties": { "strassenschluessel": "05962000002403432", "bezeichnung": "Stifterweg" }, "geometry": { "type": "Point", "coordinates": [ 7.621574263435888, 51.37193845354583 ] } },
{ "type": "Feature", "properties": { "strassenschluessel": "05962000002403433", "bezeichnung": "Unterfeldstraße" }, "geometry": { "type": "Point", "coordinates": [ 7.624020925347263, 51.368676203629789 ] } },
{ "type": "Feature", "properties": { "strassenschluessel": "05962000002403434", "bezeichnung": "Vodekestraße" }, "geometry": { "type": "Point", "coordinates": [ 7.625082953414815, 51.370862123221315 ] } },
{ "type": "Feature", "properties": { "strassenschluessel": "05962000002403435", "bezeichnung": "Von-der-Kuhlen-Straße" }, "geometry": { "type": "Point", "coordinates": [ 7.611546193821274, 51.366258303464789 ] } },
{ "type": "Feature", "properties": { "strassenschluessel": "05962000002403436", "bezeichnung": "Vor dem Hopey" }, "geometry": { "type": "Point", "coordinates": [ 7.623518522684487, 51.372272993060136 ] } },
{ "type": "Feature", "properties": { "strassenschluessel": "05962000002403437", "bezeichnung": "Wiesenstraße" }, "geometry": { "type": "Point", "coordinates": [ 7.628492839934312, 51.370502537341167 ] } },
{ "type": "Feature", "properties": { "strassenschluessel": "05962000002403438", "bezeichnung": "Reinickendorfer Straße" }, "geometry": { "type": "Point", "coordinates": [ 7.615890448705672, 51.367779113806755 ] } },
{ "type": "Feature", "properties": { "strassenschluessel": "05962000002403439", "bezeichnung": "Zum Engelsknapp" }, "geometry": { "type": "Point", "coordinates": [ 7.620608042899846, 51.366657645978229 ] } },
{ "type": "Feature", "properties": { "strassenschluessel": "05962000002403440", "bezeichnung": "Zum Tannenkopf" }, "geometry": { "type": "Point", "coordinates": [ 7.62185934225642, 51.36659697062678 ] } },
{ "type": "Feature", "properties": { "strassenschluessel": "05962000002403441", "bezeichnung": "Am Flehmebach" }, "geometry": { "type": "Point", "coordinates": [ 7.618764953681018, 51.368543330342938 ] } },
{ "type": "Feature", "properties": { "strassenschluessel": "05962000002403442", "bezeichnung": "Herbert-Nolte-Platz" }, "geometry": null },
{ "type": "Feature", "properties": { "strassenschluessel": "05962000002403443", "bezeichnung": "Im Werth" }, "geometry": { "type": "Point", "coordinates": [ 7.603819675341927, 51.352394809410477 ] } },
{ "type": "Feature", "properties": { "strassenschluessel": "05962000002403444", "bezeichnung": "Märkischer Kreis Sondergebäude" }, "geometry": { "type": "Point", "coordinates": [ 7.690331991453377, 51.33243469694294 ] } },
{ "type": "Feature", "properties": { "strassenschluessel": "05962000002403445", "bezeichnung": "Luisenbrücke" }, "geometry": null },
{ "type": "Feature", "properties": { "strassenschluessel": "05962000002403450", "bezeichnung": "Am Baumberg" }, "geometry": { "type": "Point", "coordinates": [ 7.63203106780769, 51.374589131013892 ] } },
{ "type": "Feature", "properties": { "strassenschluessel": "05962000002403451", "bezeichnung": "Am Burgberg" }, "geometry": { "type": "Point", "coordinates": [ 7.630435109369454, 51.368746822716417 ] } },
{ "type": "Feature", "properties": { "strassenschluessel": "05962000002403452", "bezeichnung": "Am Lührenbach" }, "geometry": { "type": "Point", "coordinates": [ 7.627526146167479, 51.372952155876995 ] } },
{ "type": "Feature", "properties": { "strassenschluessel": "05962000002403453", "bezeichnung": "An der Fliehburg" }, "geometry": { "type": "Point", "coordinates": [ 7.633128769116836, 51.369139941837055 ] } },
{ "type": "Feature", "properties": { "strassenschluessel": "05962000002403454", "bezeichnung": "Beilstraße" }, "geometry": { "type": "Point", "coordinates": [ 7.635661214752733, 51.372143322059678 ] } },
{ "type": "Feature", "properties": { "strassenschluessel": "05962000002403455", "bezeichnung": "Brinkhofstraße" }, "geometry": { "type": "Point", "coordinates": [ 7.625791894417217, 51.368809612700666 ] } },
{ "type": "Feature", "properties": { "strassenschluessel": "05962000002403456", "bezeichnung": "Imhofstraße" }, "geometry": { "type": "Point", "coordinates": [ 7.63281201140402, 51.370795522081998 ] } },
{ "type": "Feature", "properties": { "strassenschluessel": "05962000002403457", "bezeichnung": "Heimbergweg" }, "geometry": { "type": "Point", "coordinates": [ 7.634171023710488, 51.374971864069849 ] } },
{ "type": "Feature", "properties": { "strassenschluessel": "05962000002403458", "bezeichnung": "Im Klepping" }, "geometry": { "type": "Point", "coordinates": [ 7.630832235010833, 51.37171746724816 ] } },
{ "type": "Feature", "properties": { "strassenschluessel": "05962000002403459", "bezeichnung": "Kirchstraße" }, "geometry": { "type": "Point", "coordinates": [ 7.634579629889729, 51.373706519585788 ] } },
{ "type": "Feature", "properties": { "strassenschluessel": "05962000002403460", "bezeichnung": "Op De Brüggen" }, "geometry": { "type": "Point", "coordinates": [ 7.633964685848293, 51.371293537282661 ] } },
{ "type": "Feature", "properties": { "strassenschluessel": "05962000002403461", "bezeichnung": "Heinrich-Steden-Weg" }, "geometry": { "type": "Point", "coordinates": [ 7.634222544902671, 51.370891863707371 ] } },
{ "type": "Feature", "properties": { "strassenschluessel": "05962000002403462", "bezeichnung": "Schleddestraße" }, "geometry": { "type": "Point", "coordinates": [ 7.64019024500953, 51.364849412293907 ] } },
{ "type": "Feature", "properties": { "strassenschluessel": "05962000002403463", "bezeichnung": "Unterdorfstraße" }, "geometry": { "type": "Point", "coordinates": [ 7.632773033684339, 51.372025383541519 ] } },
{ "type": "Feature", "properties": { "strassenschluessel": "05962000002403464", "bezeichnung": "Wittekindweg" }, "geometry": { "type": "Point", "coordinates": [ 7.632065503399194, 51.374264886398343 ] } },
{ "type": "Feature", "properties": { "strassenschluessel": "05962000002403465", "bezeichnung": "Gravemannring" }, "geometry": { "type": "Point", "coordinates": [ 7.634541412317764, 51.372619952876022 ] } },
{ "type": "Feature", "properties": { "strassenschluessel": "05962000002403466", "bezeichnung": "Feldbrand" }, "geometry": { "type": "Point", "coordinates": [ 7.636157573461142, 51.374418192618165 ] } },
{ "type": "Feature", "properties": { "strassenschluessel": "05962000002403475", "bezeichnung": "Akazienstraße" }, "geometry": { "type": "Point", "coordinates": [ 7.596533104285625, 51.363287163169602 ] } },
{ "type": "Feature", "properties": { "strassenschluessel": "05962000002403476", "bezeichnung": "Am Erbsenbach" }, "geometry": { "type": "Point", "coordinates": [ 7.599511032726618, 51.36872272313331 ] } },
{ "type": "Feature", "properties": { "strassenschluessel": "05962000002403477", "bezeichnung": "Arndtstraße" }, "geometry": { "type": "Point", "coordinates": [ 7.609355201038012, 51.369579877356223 ] } },
{ "type": "Feature", "properties": { "strassenschluessel": "05962000002403478", "bezeichnung": "Aucheler Straße" }, "geometry": { "type": "Point", "coordinates": [ 7.609821382187502, 51.372878331716947 ] } },
{ "type": "Feature", "properties": { "strassenschluessel": "05962000002403479", "bezeichnung": "Bachstraße" }, "geometry": { "type": "Point", "coordinates": [ 7.604143904798792, 51.367240123843217 ] } },
{ "type": "Feature", "properties": { "strassenschluessel": "05962000002403480", "bezeichnung": "Beulstraße" }, "geometry": { "type": "Point", "coordinates": [ 7.599899672273992, 51.365969200122237 ] } },
{ "type": "Feature", "properties": { "strassenschluessel": "05962000002403481", "bezeichnung": "Grabenstraße" }, "geometry": { "type": "Point", "coordinates": [ 7.60929310558076, 51.365221358953455 ] } },
{ "type": "Feature", "properties": { "strassenschluessel": "05962000002403482", "bezeichnung": "Dechant-Meckel-Straße" }, "geometry": { "type": "Point", "coordinates": [ 7.60385815289098, 51.364871865683313 ] } },
{ "type": "Feature", "properties": { "strassenschluessel": "05962000002403483", "bezeichnung": "Dechant-Heimann-Straße" }, "geometry": { "type": "Point", "coordinates": [ 7.608137319634059, 51.365014059607773 ] } },
{ "type": "Feature", "properties": { "strassenschluessel": "05962000002403484", "bezeichnung": "Dümpelacker" }, "geometry": { "type": "Point", "coordinates": [ 7.603451474459857, 51.36393746115175 ] } },
{ "type": "Feature", "properties": { "strassenschluessel": "05962000002403485", "bezeichnung": "Friedhofstraße" }, "geometry": { "type": "Point", "coordinates": [ 7.599477949004374, 51.365105552871604 ] } },
{ "type": "Feature", "properties": { "strassenschluessel": "05962000002403486", "bezeichnung": "Fritz-Reuter-Weg" }, "geometry": { "type": "Point", "coordinates": [ 7.603013560427224, 51.368111001521214 ] } },
{ "type": "Feature", "properties": { "strassenschluessel": "05962000002403487", "bezeichnung": "Im Oberdorf" }, "geometry": { "type": "Point", "coordinates": [ 7.602762886757207, 51.36628875335937 ] } },
{ "type": "Feature", "properties": { "strassenschluessel": "05962000002403488", "bezeichnung": "Fingerhutsmühle" }, "geometry": { "type": "Point", "coordinates": [ 7.610499466522218, 51.364931780723282 ] } },
{ "type": "Feature", "properties": { "strassenschluessel": "05962000002403489", "bezeichnung": "Heinrichstraße" }, "geometry": { "type": "Point", "coordinates": [ 7.604317333219362, 51.366316266407743 ] } },
{ "type": "Feature", "properties": { "strassenschluessel": "05962000002403490", "bezeichnung": "Humpfertstraße" }, "geometry": { "type": "Point", "coordinates": [ 7.601165254978333, 51.366864803667639 ] } },
{ "type": "Feature", "properties": { "strassenschluessel": "05962000002403491", "bezeichnung": "Hofweide" }, "geometry": { "type": "Point", "coordinates": [ 7.609147948078604, 51.367314100493203 ] } },
{ "type": "Feature", "properties": { "strassenschluessel": "05962000002403492", "bezeichnung": "Im Grünen Busch" }, "geometry": { "type": "Point", "coordinates": [ 7.600093390588305, 51.3668453636188 ] } },
{ "type": "Feature", "properties": { "strassenschluessel": "05962000002403493", "bezeichnung": "Im Kröllken" }, "geometry": { "type": "Point", "coordinates": [ 7.60322194203444, 51.36550061061628 ] } },
{ "type": "Feature", "properties": { "strassenschluessel": "05962000002403494", "bezeichnung": "Im Nordfeld" }, "geometry": { "type": "Point", "coordinates": [ 7.599903022509989, 51.369059763059688 ] } },
{ "type": "Feature", "properties": { "strassenschluessel": "05962000002403495", "bezeichnung": "Jahnstraße" }, "geometry": { "type": "Point", "coordinates": [ 7.608536675642557, 51.368723252501248 ] } },
{ "type": "Feature", "properties": { "strassenschluessel": "05962000002403496", "bezeichnung": "Kilianstraße" }, "geometry": { "type": "Point", "coordinates": [ 7.6078015755299, 51.368047553329696 ] } },
{ "type": "Feature", "properties": { "strassenschluessel": "05962000002403497", "bezeichnung": "Kolpingstraße" }, "geometry": { "type": "Point", "coordinates": [ 7.60662517015163, 51.365455817258294 ] } },
{ "type": "Feature", "properties": { "strassenschluessel": "05962000002403498", "bezeichnung": "Lindenstraße" }, "geometry": { "type": "Point", "coordinates": [ 7.603240144708205, 51.364226722056131 ] } },
{ "type": "Feature", "properties": { "strassenschluessel": "05962000002403499", "bezeichnung": "Schattweg" }, "geometry": { "type": "Point", "coordinates": [ 7.60707937728421, 51.368710394752306 ] } },
{ "type": "Feature", "properties": { "strassenschluessel": "05962000002403500", "bezeichnung": "Theodor-Hürth-Straße" }, "geometry": { "type": "Point", "coordinates": [ 7.602187965248035, 51.369590107805884 ] } },
{ "type": "Feature", "properties": { "strassenschluessel": "05962000002403501", "bezeichnung": "Uhlandstraße" }, "geometry": { "type": "Point", "coordinates": [ 7.609276021026953, 51.369873577045723 ] } },
{ "type": "Feature", "properties": { "strassenschluessel": "05962000002403502", "bezeichnung": "Vom-Stein-Straße" }, "geometry": { "type": "Point", "coordinates": [ 7.609810576510484, 51.367583386935067 ] } },
{ "type": "Feature", "properties": { "strassenschluessel": "05962000002403503", "bezeichnung": "Windhügelstraße" }, "geometry": { "type": "Point", "coordinates": [ 7.606131988458815, 51.368082761599766 ] } },
{ "type": "Feature", "properties": { "strassenschluessel": "05962000002403504", "bezeichnung": "Winkelgasse" }, "geometry": { "type": "Point", "coordinates": [ 7.604236092085063, 51.366583815134184 ] } },
{ "type": "Feature", "properties": { "strassenschluessel": "05962000002403505", "bezeichnung": "Eselweg" }, "geometry": null },
{ "type": "Feature", "properties": { "strassenschluessel": "05962000002403520", "bezeichnung": "Am Bülzgraben" }, "geometry": { "type": "Point", "coordinates": [ 7.593793005055786, 51.364417253700054 ] } },
{ "type": "Feature", "properties": { "strassenschluessel": "05962000002403521", "bezeichnung": "Breslauer Straße" }, "geometry": { "type": "Point", "coordinates": [ 7.588579575938196, 51.366282457410733 ] } },
{ "type": "Feature", "properties": { "strassenschluessel": "05962000002403522", "bezeichnung": "Droste-Hülshoff-Weg" }, "geometry": { "type": "Point", "coordinates": [ 7.594541313962704, 51.368570314341142 ] } },
{ "type": "Feature", "properties": { "strassenschluessel": "05962000002403523", "bezeichnung": "Gerhart-Hauptmann-Weg" }, "geometry": { "type": "Point", "coordinates": [ 7.597832377193387, 51.369368359949455 ] } },
{ "type": "Feature", "properties": { "strassenschluessel": "05962000002403524", "bezeichnung": "Im Ostfeld" }, "geometry": { "type": "Point", "coordinates": [ 7.593417638327317, 51.36404862168434 ] } },
{ "type": "Feature", "properties": { "strassenschluessel": "05962000002403525", "bezeichnung": "Steltenberg" }, "geometry": { "type": "Point", "coordinates": [ 7.589572446922902, 51.362770690635067 ] } },
{ "type": "Feature", "properties": { "strassenschluessel": "05962000002403527", "bezeichnung": "Liegnitzer Straße" }, "geometry": { "type": "Point", "coordinates": [ 7.591146514772757, 51.367778266074652 ] } },
{ "type": "Feature", "properties": { "strassenschluessel": "05962000002403528", "bezeichnung": "Theodor-Storm-Weg" }, "geometry": { "type": "Point", "coordinates": [ 7.596573250118194, 51.368046300700996 ] } },
{ "type": "Feature", "properties": { "strassenschluessel": "05962000002403529", "bezeichnung": "Im Markenfeld" }, "geometry": { "type": "Point", "coordinates": [ 7.595534958318389, 51.366698206871945 ] } },
{ "type": "Feature", "properties": { "strassenschluessel": "05962000002403530", "bezeichnung": "Oppelner Straße" }, "geometry": null },
{ "type": "Feature", "properties": { "strassenschluessel": "05962000002403531", "bezeichnung": "Hohenlimburger Straße" }, "geometry": { "type": "Point", "coordinates": [ 7.586220180016052, 51.368871625943576 ] } },
{ "type": "Feature", "properties": { "strassenschluessel": "05962000002403532", "bezeichnung": "Am Lennebogen" }, "geometry": { "type": "Point", "coordinates": [ 7.609697383553499, 51.361973122731413 ] } },
{ "type": "Feature", "properties": { "strassenschluessel": "05962000002403550", "bezeichnung": "Ursulastraße" }, "geometry": { "type": "Point", "coordinates": [ 7.617174332703472, 51.363710848728459 ] } },
{ "type": "Feature", "properties": { "strassenschluessel": "05962000002403551", "bezeichnung": "Bahnhofstraße" }, "geometry": { "type": "Point", "coordinates": [ 7.618124248348225, 51.36363568474308 ] } },
{ "type": "Feature", "properties": { "strassenschluessel": "05962000002403552", "bezeichnung": "Bergstraße" }, "geometry": { "type": "Point", "coordinates": [ 7.613457313706765, 51.3610091028726 ] } },
{ "type": "Feature", "properties": { "strassenschluessel": "05962000002403553", "bezeichnung": "Brückenstraße" }, "geometry": { "type": "Point", "coordinates": [ 7.61344040640277, 51.362485501315177 ] } },
{ "type": "Feature", "properties": { "strassenschluessel": "05962000002403554", "bezeichnung": "Gennaer Straße" }, "geometry": { "type": "Point", "coordinates": [ 7.62020675695396, 51.363947614227776 ] } },
{ "type": "Feature", "properties": { "strassenschluessel": "05962000002403555", "bezeichnung": "Helmkestraße" }, "geometry": { "type": "Point", "coordinates": [ 7.620207159233907, 51.359365825538454 ] } },
{ "type": "Feature", "properties": { "strassenschluessel": "05962000002403556", "bezeichnung": "Kanalstraße" }, "geometry": { "type": "Point", "coordinates": [ 7.6109644141496, 51.362594716666358 ] } },
{ "type": "Feature", "properties": { "strassenschluessel": "05962000002403557", "bezeichnung": "Kupferbergstraße" }, "geometry": { "type": "Point", "coordinates": [ 7.620520983938457, 51.359968207291743 ] } },
{ "type": "Feature", "properties": { "strassenschluessel": "05962000002403558", "bezeichnung": "Lennestraße" }, "geometry": { "type": "Point", "coordinates": [ 7.609871708902446, 51.362738278859858 ] } },
{ "type": "Feature", "properties": { "strassenschluessel": "05962000002403559", "bezeichnung": "Luisenstraße" }, "geometry": { "type": "Point", "coordinates": [ 7.611890494343078, 51.362934541213527 ] } },
{ "type": "Feature", "properties": { "strassenschluessel": "05962000002403560", "bezeichnung": "Lennedamm" }, "geometry": { "type": "Point", "coordinates": [ 7.607963445761193, 51.363931983076654 ] } },
{ "type": "Feature", "properties": { "strassenschluessel": "05962000002403561", "bezeichnung": "Zum Laurenzisbrunnen" }, "geometry": { "type": "Point", "coordinates": [ 7.606370056809202, 51.360625785241432 ] } },
{ "type": "Feature", "properties": { "strassenschluessel": "05962000002403562", "bezeichnung": "Alter Markt" }, "geometry": { "type": "Point", "coordinates": [ 7.60993559610521, 51.365105813892349 ] } },
{ "type": "Feature", "properties": { "strassenschluessel": "05962000002403563", "bezeichnung": "Langer Kummer" }, "geometry": { "type": "Point", "coordinates": [ 7.616305081845866, 51.36483419887422 ] } },
{ "type": "Feature", "properties": { "strassenschluessel": "05962000002403564", "bezeichnung": "Letnetti Platz" }, "geometry": null },
{ "type": "Feature", "properties": { "strassenschluessel": "05962000002403571", "bezeichnung": "Honselweg" }, "geometry": { "type": "Point", "coordinates": [ 7.618912637862709, 51.343622088628031 ] } },
{ "type": "Feature", "properties": { "strassenschluessel": "05962000002403572", "bezeichnung": "Fingerhutsplatz" }, "geometry": null },
{ "type": "Feature", "properties": { "strassenschluessel": "05962000002403590", "bezeichnung": "Auf der Insel" }, "geometry": { "type": "Point", "coordinates": [ 7.604228633244912, 51.356581221886643 ] } },
{ "type": "Feature", "properties": { "strassenschluessel": "05962000002403591", "bezeichnung": "In den Lärchen" }, "geometry": { "type": "Point", "coordinates": [ 7.602511558924003, 51.361788845746375 ] } },
{ "type": "Feature", "properties": { "strassenschluessel": "05962000002403592", "bezeichnung": "Oeger Straße" }, "geometry": { "type": "Point", "coordinates": [ 7.601499754193497, 51.353724423894164 ] } },
{ "type": "Feature", "properties": { "strassenschluessel": "05962000002403600", "bezeichnung": "Am Hangstein" }, "geometry": { "type": "Point", "coordinates": [ 7.643686747114169, 51.371529798391776 ] } },
{ "type": "Feature", "properties": { "strassenschluessel": "05962000002403601", "bezeichnung": "Am Kohlberg" }, "geometry": { "type": "Point", "coordinates": [ 7.64576386736156, 51.375125269312171 ] } },
{ "type": "Feature", "properties": { "strassenschluessel": "05962000002403602", "bezeichnung": "Am Lindenplatz" }, "geometry": { "type": "Point", "coordinates": [ 7.637550697968553, 51.370587462417461 ] } },
{ "type": "Feature", "properties": { "strassenschluessel": "05962000002403603", "bezeichnung": "An der Lanfert" }, "geometry": { "type": "Point", "coordinates": [ 7.646304433100913, 51.373758824398976 ] } },
{ "type": "Feature", "properties": { "strassenschluessel": "05962000002403604", "bezeichnung": "An der Stennert" }, "geometry": { "type": "Point", "coordinates": [ 7.639864135280678, 51.372078050149227 ] } },
{ "type": "Feature", "properties": { "strassenschluessel": "05962000002403605", "bezeichnung": "Heetmannstraße" }, "geometry": { "type": "Point", "coordinates": [ 7.643948884597519, 51.372137792896559 ] } },
{ "type": "Feature", "properties": { "strassenschluessel": "05962000002403606", "bezeichnung": "Im Oberfeld" }, "geometry": { "type": "Point", "coordinates": [ 7.644545263833924, 51.373555137337497 ] } },
{ "type": "Feature", "properties": { "strassenschluessel": "05962000002403607", "bezeichnung": "Im Wietloh" }, "geometry": { "type": "Point", "coordinates": [ 7.641295284095413, 51.373144447587748 ] } },
{ "type": "Feature", "properties": { "strassenschluessel": "05962000002403608", "bezeichnung": "Kampstraße" }, "geometry": { "type": "Point", "coordinates": [ 7.656975770037872, 51.374326308144006 ] } },
{ "type": "Feature", "properties": { "strassenschluessel": "05962000002403609", "bezeichnung": "Sonderhorstweg" }, "geometry": { "type": "Point", "coordinates": [ 7.63928706969886, 51.370438754833899 ] } },
{ "type": "Feature", "properties": { "strassenschluessel": "05962000002403610", "bezeichnung": "Zum Heersiepen" }, "geometry": { "type": "Point", "coordinates": [ 7.64252744079808, 51.373170528918919 ] } },
{ "type": "Feature", "properties": { "strassenschluessel": "05962000002403612", "bezeichnung": "Op Kerstingskamp" }, "geometry": { "type": "Point", "coordinates": [ 7.652844693466981, 51.375611077569452 ] } },
{ "type": "Feature", "properties": { "strassenschluessel": "05962000002403613", "bezeichnung": "Op Schultenkamp" }, "geometry": { "type": "Point", "coordinates": [ 7.655279253827581, 51.376252511803393 ] } },
{ "type": "Feature", "properties": { "strassenschluessel": "05962000002403615", "bezeichnung": "Kuhlenstück" }, "geometry": { "type": "Point", "coordinates": [ 7.646185623961967, 51.371051768328037 ] } },
{ "type": "Feature", "properties": { "strassenschluessel": "05962000002403616", "bezeichnung": "Am Wunderhügel" }, "geometry": { "type": "Point", "coordinates": [ 7.647498477588866, 51.371591921735337 ] } },
{ "type": "Feature", "properties": { "strassenschluessel": "05962000002403617", "bezeichnung": "Wapschledde" }, "geometry": { "type": "Point", "coordinates": [ 7.649274331519875, 51.372288355876726 ] } },
{ "type": "Feature", "properties": { "strassenschluessel": "05962000002403618", "bezeichnung": "Am Buschwald" }, "geometry": { "type": "Point", "coordinates": [ 7.646436544781976, 51.372059154323232 ] } },
{ "type": "Feature", "properties": { "strassenschluessel": "05962000002403619", "bezeichnung": "Op Lückenkamp" }, "geometry": { "type": "Point", "coordinates": [ 7.654722189685718, 51.375394593292199 ] } },
{ "type": "Feature", "properties": { "strassenschluessel": "05962000002403620", "bezeichnung": "Am Südenberg" }, "geometry": { "type": "Point", "coordinates": [ 7.659901784042356, 51.373619005265724 ] } },
{ "type": "Feature", "properties": { "strassenschluessel": "05962000002403621", "bezeichnung": "Vor dem Nücksberg" }, "geometry": { "type": "Point", "coordinates": [ 7.652110997726653, 51.371510228868026 ] } },
{ "type": "Feature", "properties": { "strassenschluessel": "05962000002403622", "bezeichnung": "Dröscheder Berg" }, "geometry": { "type": "Point", "coordinates": [ 7.663905540186629, 51.376186272523114 ] } },
{ "type": "Feature", "properties": { "strassenschluessel": "05962000002403623", "bezeichnung": "Rauhe Hardt" }, "geometry": { "type": "Point", "coordinates": [ 7.655898823969828, 51.376286940445759 ] } },
{ "type": "Feature", "properties": { "strassenschluessel": "05962000002403624", "bezeichnung": "Im Hütten" }, "geometry": { "type": "Point", "coordinates": [ 7.655919121346011, 51.367652604581394 ] } },
{ "type": "Feature", "properties": { "strassenschluessel": "05962000002403625", "bezeichnung": "Oestricher Straße" }, "geometry": { "type": "Point", "coordinates": [ 7.661177064388514, 51.374759171860084 ] } },
{ "type": "Feature", "properties": { "strassenschluessel": "05962000002403626", "bezeichnung": "Lanferkamp" }, "geometry": { "type": "Point", "coordinates": [ 7.662598563167949, 51.379339069751929 ] } },
{ "type": "Feature", "properties": { "strassenschluessel": "05962000002403627", "bezeichnung": "Königsweg" }, "geometry": { "type": "Point", "coordinates": [ 7.658326484239487, 51.377059404798409 ] } },
{ "type": "Feature", "properties": { "strassenschluessel": "05962000002403628", "bezeichnung": "Kuhloweg" }, "geometry": { "type": "Point", "coordinates": [ 7.657585182130592, 51.375516628661956 ] } },
{ "type": "Feature", "properties": { "strassenschluessel": "05962000002403629", "bezeichnung": "Hirtenweg" }, "geometry": { "type": "Point", "coordinates": [ 7.655178644813923, 51.37463746141821 ] } },
{ "type": "Feature", "properties": { "strassenschluessel": "05962000002403630", "bezeichnung": "Zum Wennigerloh" }, "geometry": { "type": "Point", "coordinates": [ 7.653030651841346, 51.372884298367225 ] } },
{ "type": "Feature", "properties": { "strassenschluessel": "05962000002403631", "bezeichnung": "Im Westerfeld" }, "geometry": { "type": "Point", "coordinates": [ 7.652370554530076, 51.372627768726957 ] } },
{ "type": "Feature", "properties": { "strassenschluessel": "05962000002403632", "bezeichnung": "Obere Hüttenwiese" }, "geometry": { "type": "Point", "coordinates": [ 7.655514213365624, 51.373463767324061 ] } },
{ "type": "Feature", "properties": { "strassenschluessel": "05962000002403633", "bezeichnung": "Am Dorfanger" }, "geometry": { "type": "Point", "coordinates": [ 7.659131056742418, 51.376128373017309 ] } },
{ "type": "Feature", "properties": { "strassenschluessel": "05962000002403634", "bezeichnung": "Am Kreuzberg" }, "geometry": { "type": "Point", "coordinates": [ 7.658750917524975, 51.378162792149006 ] } },
{ "type": "Feature", "properties": { "strassenschluessel": "05962000002403635", "bezeichnung": "Hellweg" }, "geometry": { "type": "Point", "coordinates": [ 7.658927937473331, 51.375305018514787 ] } },
{ "type": "Feature", "properties": { "strassenschluessel": "05962000002403636", "bezeichnung": "Im Brauck" }, "geometry": { "type": "Point", "coordinates": [ 7.658359501911761, 51.375159478058613 ] } },
{ "type": "Feature", "properties": { "strassenschluessel": "05962000002403637", "bezeichnung": "An der Rausche" }, "geometry": { "type": "Point", "coordinates": [ 7.656828506429771, 51.377052024907627 ] } },
{ "type": "Feature", "properties": { "strassenschluessel": "05962000002403638", "bezeichnung": "Schultenhof" }, "geometry": { "type": "Point", "coordinates": [ 7.657191315495809, 51.376049954259152 ] } },
{ "type": "Feature", "properties": { "strassenschluessel": "05962000002403639", "bezeichnung": "Zur Helle" }, "geometry": { "type": "Point", "coordinates": [ 7.661713965028157, 51.377805215418704 ] } },
{ "type": "Feature", "properties": { "strassenschluessel": "05962000002403640", "bezeichnung": "Am Wiesenrain" }, "geometry": { "type": "Point", "coordinates": [ 7.660824935116938, 51.375941711516717 ] } },
{ "type": "Feature", "properties": { "strassenschluessel": "05962000002403641", "bezeichnung": "Unter der Emst" }, "geometry": { "type": "Point", "coordinates": [ 7.657668976418532, 51.373012935670808 ] } },
{ "type": "Feature", "properties": { "strassenschluessel": "05962000002403642", "bezeichnung": "Walter-Ewig-Weg" }, "geometry": { "type": "Point", "coordinates": [ 7.65712265394974, 51.377310665707299 ] } },
{ "type": "Feature", "properties": { "strassenschluessel": "05962000002403643", "bezeichnung": "Sachsenweg" }, "geometry": null },
{ "type": "Feature", "properties": { "strassenschluessel": "05962000002403645", "bezeichnung": "Medice Allee" }, "geometry": null },
{ "type": "Feature", "properties": { "strassenschluessel": "05962000002403660", "bezeichnung": "Altenaer Straße" }, "geometry": { "type": "Point", "coordinates": [ 7.63611944791378, 51.362651075446607 ] } },
{ "type": "Feature", "properties": { "strassenschluessel": "05962000002403661", "bezeichnung": "Am Mühlenberg" }, "geometry": { "type": "Point", "coordinates": [ 7.651100936633664, 51.365832911068864 ] } },
{ "type": "Feature", "properties": { "strassenschluessel": "05962000002403662", "bezeichnung": "Streckenbacher Weg" }, "geometry": { "type": "Point", "coordinates": [ 7.64309219461397, 51.361378245829663 ] } },
{ "type": "Feature", "properties": { "strassenschluessel": "05962000002403663", "bezeichnung": "Ernststraße" }, "geometry": { "type": "Point", "coordinates": [ 7.649262010697148, 51.365330786781172 ] } },
{ "type": "Feature", "properties": { "strassenschluessel": "05962000002403664", "bezeichnung": "Grudene" }, "geometry": { "type": "Point", "coordinates": [ 7.639106020518946, 51.360230550729781 ] } },
{ "type": "Feature", "properties": { "strassenschluessel": "05962000002403665", "bezeichnung": "Untergrüner Straße" }, "geometry": { "type": "Point", "coordinates": [ 7.649825153241827, 51.366359912597105 ] } },
{ "type": "Feature", "properties": { "strassenschluessel": "05962000002403666", "bezeichnung": "Insterburger Weg" }, "geometry": { "type": "Point", "coordinates": [ 7.641462951515253, 51.361562710219218 ] } },
{ "type": "Feature", "properties": { "strassenschluessel": "05962000002403667", "bezeichnung": "Pillingser Höhe" }, "geometry": { "type": "Point", "coordinates": [ 7.649466779536035, 51.348792341521076 ] } },
{ "type": "Feature", "properties": { "strassenschluessel": "05962000002403668", "bezeichnung": "Pillingser Weg" }, "geometry": { "type": "Point", "coordinates": [ 7.64419595764025, 51.361486381963921 ] } },
{ "type": "Feature", "properties": { "strassenschluessel": "05962000002403669", "bezeichnung": "Glatzer Weg" }, "geometry": { "type": "Point", "coordinates": [ 7.641442065355215, 51.361175844619545 ] } },
{ "type": "Feature", "properties": { "strassenschluessel": "05962000002403670", "bezeichnung": "Uferstraße" }, "geometry": { "type": "Point", "coordinates": [ 7.638241942923798, 51.362946279572277 ] } },
{ "type": "Feature", "properties": { "strassenschluessel": "05962000002403671", "bezeichnung": "Dümpel" }, "geometry": { "type": "Point", "coordinates": [ 7.651416183556836, 51.335758792387203 ] } },
{ "type": "Feature", "properties": { "strassenschluessel": "05962000002403672", "bezeichnung": "Dechenhöhle" }, "geometry": { "type": "Point", "coordinates": [ 7.644286205246575, 51.365485002238891 ] } },
{ "type": "Feature", "properties": { "strassenschluessel": "05962000002403680", "bezeichnung": "Emberg" }, "geometry": null },
{ "type": "Feature", "properties": { "strassenschluessel": "05962000002403681", "bezeichnung": "Auf dem Mühlenberg" }, "geometry": { "type": "Point", "coordinates": [ 7.657688210169832, 51.36328100702891 ] } },
{ "type": "Feature", "properties": { "strassenschluessel": "05962000002403690", "bezeichnung": "Düsingstraße" }, "geometry": { "type": "Point", "coordinates": [ 7.666138555140564, 51.367252689309957 ] } },
{ "type": "Feature", "properties": { "strassenschluessel": "05962000002403691", "bezeichnung": "Igelstraße" }, "geometry": { "type": "Point", "coordinates": [ 7.658174934458515, 51.367764755410377 ] } },
{ "type": "Feature", "properties": { "strassenschluessel": "05962000002403700", "bezeichnung": "Alter Weg" }, "geometry": { "type": "Point", "coordinates": [ 7.662939037528854, 51.36148715634171 ] } },
{ "type": "Feature", "properties": { "strassenschluessel": "05962000002403701", "bezeichnung": "Am Hang" }, "geometry": { "type": "Point", "coordinates": [ 7.666930043179305, 51.36472602889657 ] } },
{ "type": "Feature", "properties": { "strassenschluessel": "05962000002403702", "bezeichnung": "Am Katzenellbogen" }, "geometry": { "type": "Point", "coordinates": [ 7.660641521681061, 51.35997313188939 ] } },
{ "type": "Feature", "properties": { "strassenschluessel": "05962000002403703", "bezeichnung": "Am Schierloh" }, "geometry": { "type": "Point", "coordinates": [ 7.662189432119542, 51.362521213216397 ] } },
{ "type": "Feature", "properties": { "strassenschluessel": "05962000002403704", "bezeichnung": "Gerickestraße" }, "geometry": { "type": "Point", "coordinates": [ 7.663444976509862, 51.365161239343003 ] } },
{ "type": "Feature", "properties": { "strassenschluessel": "05962000002403705", "bezeichnung": "Haydnweg" }, "geometry": { "type": "Point", "coordinates": [ 7.659308468802693, 51.36352007466769 ] } },
{ "type": "Feature", "properties": { "strassenschluessel": "05962000002403706", "bezeichnung": "Holzweg" }, "geometry": { "type": "Point", "coordinates": [ 7.659103556759851, 51.362544338461198 ] } },
{ "type": "Feature", "properties": { "strassenschluessel": "05962000002403707", "bezeichnung": "Lösseler Straße" }, "geometry": { "type": "Point", "coordinates": [ 7.665772070225298, 51.365644385454821 ] } },
{ "type": "Feature", "properties": { "strassenschluessel": "05962000002403708", "bezeichnung": "Mittelstraße" }, "geometry": { "type": "Point", "coordinates": [ 7.663708931722604, 51.364624908927468 ] } },
{ "type": "Feature", "properties": { "strassenschluessel": "05962000002403710", "bezeichnung": "Rodener Straße" }, "geometry": { "type": "Point", "coordinates": [ 7.66064278149402, 51.362969045124544 ] } },
{ "type": "Feature", "properties": { "strassenschluessel": "05962000002403711", "bezeichnung": "Saatweg" }, "geometry": { "type": "Point", "coordinates": [ 7.657366725649373, 51.361458422639537 ] } },
{ "type": "Feature", "properties": { "strassenschluessel": "05962000002403712", "bezeichnung": "Selbergweg" }, "geometry": { "type": "Point", "coordinates": [ 7.662910172156758, 51.360373701804519 ] } },
{ "type": "Feature", "properties": { "strassenschluessel": "05962000002403713", "bezeichnung": "Zum Amtswald" }, "geometry": { "type": "Point", "coordinates": [ 7.663071987071699, 51.360967325735963 ] } },
{ "type": "Feature", "properties": { "strassenschluessel": "05962000002403714", "bezeichnung": "Waltersruh" }, "geometry": { "type": "Point", "coordinates": [ 7.6607654542309, 51.364958926987732 ] } },
{ "type": "Feature", "properties": { "strassenschluessel": "05962000002403730", "bezeichnung": "Am Liethbach" }, "geometry": { "type": "Point", "coordinates": [ 7.659664759061307, 51.353651086002039 ] } },
{ "type": "Feature", "properties": { "strassenschluessel": "05962000002403731", "bezeichnung": "Auf der Westhelle" }, "geometry": { "type": "Point", "coordinates": [ 7.653156467001564, 51.349396037821869 ] } },
{ "type": "Feature", "properties": { "strassenschluessel": "05962000002403732", "bezeichnung": "Brunnenweg" }, "geometry": { "type": "Point", "coordinates": [ 7.655909281835627, 51.348911191483225 ] } },
{ "type": "Feature", "properties": { "strassenschluessel": "05962000002403733", "bezeichnung": "Düsternsiepen" }, "geometry": { "type": "Point", "coordinates": [ 7.649475799402333, 51.343903064098399 ] } },
{ "type": "Feature", "properties": { "strassenschluessel": "05962000002403734", "bezeichnung": "Hilkenhohler Weg" }, "geometry": { "type": "Point", "coordinates": [ 7.655632050246233, 51.349218242345621 ] } },
{ "type": "Feature", "properties": { "strassenschluessel": "05962000002403735", "bezeichnung": "In der Bühr" }, "geometry": null },
{ "type": "Feature", "properties": { "strassenschluessel": "05962000002403736", "bezeichnung": "In der Lieth" }, "geometry": null },
{ "type": "Feature", "properties": { "strassenschluessel": "05962000002403737", "bezeichnung": "Mooskamp" }, "geometry": null },
{ "type": "Feature", "properties": { "strassenschluessel": "05962000002403738", "bezeichnung": "Mooskampweg" }, "geometry": { "type": "Point", "coordinates": [ 7.657925556694654, 51.349218869028398 ] } },
{ "type": "Feature", "properties": { "strassenschluessel": "05962000002403739", "bezeichnung": "Osthelle" }, "geometry": { "type": "Point", "coordinates": [ 7.665627851382546, 51.351243766611162 ] } },
{ "type": "Feature", "properties": { "strassenschluessel": "05962000002403740", "bezeichnung": "Pillingsen" }, "geometry": null },
{ "type": "Feature", "properties": { "strassenschluessel": "05962000002403741", "bezeichnung": "Quiete" }, "geometry": { "type": "Point", "coordinates": [ 7.657874141354172, 51.352137370827599 ] } },
{ "type": "Feature", "properties": { "strassenschluessel": "05962000002403742", "bezeichnung": "Schorhelle" }, "geometry": { "type": "Point", "coordinates": [ 7.666483593278377, 51.34409054802515 ] } },
{ "type": "Feature", "properties": { "strassenschluessel": "05962000002403743", "bezeichnung": "Felsenburg" }, "geometry": { "type": "Point", "coordinates": [ 7.656206495789307, 51.342909981051115 ] } },
{ "type": "Feature", "properties": { "strassenschluessel": "05962000002403744", "bezeichnung": "Vogelbrink" }, "geometry": { "type": "Point", "coordinates": [ 7.659186849913445, 51.350688245777931 ] } },
{ "type": "Feature", "properties": { "strassenschluessel": "05962000002403745", "bezeichnung": "Zur Friedenseiche" }, "geometry": { "type": "Point", "coordinates": [ 7.656596180111386, 51.349320640601022 ] } },
{ "type": "Feature", "properties": { "strassenschluessel": "05962000002403746", "bezeichnung": "Goschotte" }, "geometry": { "type": "Point", "coordinates": [ 7.658202834350786, 51.347579942883733 ] } },
{ "type": "Feature", "properties": { "strassenschluessel": "05962000002403747", "bezeichnung": "Stütberg" }, "geometry": { "type": "Point", "coordinates": [ 7.658397109254573, 51.35030116764927 ] } },
{ "type": "Feature", "properties": { "strassenschluessel": "05962000002403748", "bezeichnung": "Kühlenberg" }, "geometry": { "type": "Point", "coordinates": [ 7.656603766096655, 51.352211978016463 ] } },
{ "type": "Feature", "properties": { "strassenschluessel": "05962000002403749", "bezeichnung": "Bauckloh" }, "geometry": null },
{ "type": "Feature", "properties": { "strassenschluessel": "05962000002403770", "bezeichnung": "Am Komer" }, "geometry": { "type": "Point", "coordinates": [ 7.633954919961545, 51.34357499743335 ] } },
{ "type": "Feature", "properties": { "strassenschluessel": "05962000002403771", "bezeichnung": "Diepke" }, "geometry": { "type": "Point", "coordinates": [ 7.6346721348158, 51.35749574674324 ] } },
{ "type": "Feature", "properties": { "strassenschluessel": "05962000002403772", "bezeichnung": "In der Rolle" }, "geometry": { "type": "Point", "coordinates": [ 7.633452925229304, 51.345866840292011 ] } },
{ "type": "Feature", "properties": { "strassenschluessel": "05962000002403773", "bezeichnung": "Lasbecker Weg" }, "geometry": { "type": "Point", "coordinates": [ 7.629134499980608, 51.344078230255441 ] } },
{ "type": "Feature", "properties": { "strassenschluessel": "05962000002403774", "bezeichnung": "Wulfeistraße" }, "geometry": { "type": "Point", "coordinates": [ 7.636051497892666, 51.34773189069675 ] } },
{ "type": "Feature", "properties": { "strassenschluessel": "05962000002403775", "bezeichnung": "Stenglingser Weg" }, "geometry": { "type": "Point", "coordinates": [ 7.639305495938124, 51.356442339307044 ] } },
{ "type": "Feature", "properties": { "strassenschluessel": "05962000002403800", "bezeichnung": "Am Dorfplatz" }, "geometry": { "type": "Point", "coordinates": [ 7.604391232371521, 51.37816827826471 ] } },
{ "type": "Feature", "properties": { "strassenschluessel": "05962000002403801", "bezeichnung": "Fürst-Adolf-Weg" }, "geometry": { "type": "Point", "coordinates": [ 7.606278200695351, 51.376582971060841 ] } },
{ "type": "Feature", "properties": { "strassenschluessel": "05962000002403802", "bezeichnung": "Im Stübbeken" }, "geometry": { "type": "Point", "coordinates": [ 7.606990668920572, 51.379897815862755 ] } },
{ "type": "Feature", "properties": { "strassenschluessel": "05962000002403803", "bezeichnung": "Rosenstraße" }, "geometry": { "type": "Point", "coordinates": [ 7.603531667661037, 51.378884891033891 ] } },
{ "type": "Feature", "properties": { "strassenschluessel": "05962000002403804", "bezeichnung": "Siepenpad" }, "geometry": { "type": "Point", "coordinates": [ 7.600364113440902, 51.378332065711199 ] } },
{ "type": "Feature", "properties": { "strassenschluessel": "05962000002403805", "bezeichnung": "Im Kump" }, "geometry": { "type": "Point", "coordinates": [ 7.617618383269142, 51.38145533258497 ] } },
{ "type": "Feature", "properties": { "strassenschluessel": "05962000002403807", "bezeichnung": "Zum Humpfertturm" }, "geometry": { "type": "Point", "coordinates": [ 7.600434919266749, 51.373015685680123 ] } },
{ "type": "Feature", "properties": { "strassenschluessel": "05962000002403808", "bezeichnung": "Piepers Kopf" }, "geometry": { "type": "Point", "coordinates": [ 7.596713455889214, 51.372244205094546 ] } },
{ "type": "Feature", "properties": { "strassenschluessel": "05962000002403810", "bezeichnung": "Schälk" }, "geometry": { "type": "Point", "coordinates": [ 7.592052163047529, 51.379281288289775 ] } },
{ "type": "Feature", "properties": { "strassenschluessel": "05962000002403811", "bezeichnung": "Schälkstraße" }, "geometry": { "type": "Point", "coordinates": [ 7.626307627139166, 51.383927454315156 ] } },
{ "type": "Feature", "properties": { "strassenschluessel": "05962000002403812", "bezeichnung": "Bürenbrucher Weg" }, "geometry": null },
{ "type": "Feature", "properties": { "strassenschluessel": "05962000002403813", "bezeichnung": "Bauordenweg" }, "geometry": null },
{ "type": "Feature", "properties": { "strassenschluessel": "05962000002403814", "bezeichnung": "Reher Weg" }, "geometry": null },
{ "type": "Feature", "properties": { "strassenschluessel": "05962000002403830", "bezeichnung": "Brakenweg" }, "geometry": { "type": "Point", "coordinates": [ 7.642538238611608, 51.397105562901977 ] } },
{ "type": "Feature", "properties": { "strassenschluessel": "05962000002403831", "bezeichnung": "Gehrweg" }, "geometry": { "type": "Point", "coordinates": [ 7.639620311604865, 51.38794096770944 ] } },
{ "type": "Feature", "properties": { "strassenschluessel": "05962000002403832", "bezeichnung": "Grürmannsheider Straße" }, "geometry": { "type": "Point", "coordinates": [ 7.633498212784521, 51.374078411777738 ] } },
{ "type": "Feature", "properties": { "strassenschluessel": "05962000002403834", "bezeichnung": "Korbeslühr" }, "geometry": { "type": "Point", "coordinates": [ 7.648118893890332, 51.392685736870511 ] } },
{ "type": "Feature", "properties": { "strassenschluessel": "05962000002403835", "bezeichnung": "Leckerhorstweg" }, "geometry": { "type": "Point", "coordinates": [ 7.641612105617278, 51.376059786499063 ] } },
{ "type": "Feature", "properties": { "strassenschluessel": "05962000002403836", "bezeichnung": "Papenholzweg" }, "geometry": { "type": "Point", "coordinates": [ 7.642201770400196, 51.383267053512519 ] } },
{ "type": "Feature", "properties": { "strassenschluessel": "05962000002403837", "bezeichnung": "Rotehausstraße" }, "geometry": { "type": "Point", "coordinates": [ 7.634597184312893, 51.397530519649905 ] } },
{ "type": "Feature", "properties": { "strassenschluessel": "05962000002403838", "bezeichnung": "Fuhrweg" }, "geometry": { "type": "Point", "coordinates": [ 7.632907504084116, 51.385382221336201 ] } },
{ "type": "Feature", "properties": { "strassenschluessel": "05962000002404001", "bezeichnung": "Am Dicken Turm" }, "geometry": { "type": "Point", "coordinates": [ 7.698960590424619, 51.375535772744485 ] } },
{ "type": "Feature", "properties": { "strassenschluessel": "05962000002404002", "bezeichnung": "Am Nolten" }, "geometry": null },
{ "type": "Feature", "properties": { "strassenschluessel": "05962000002404003", "bezeichnung": "An der Lehmkuhle" }, "geometry": { "type": "Point", "coordinates": [ 7.702884684058044, 51.37622714221029 ] } },
{ "type": "Feature", "properties": { "strassenschluessel": "05962000002404004", "bezeichnung": "Gosengasse" }, "geometry": null },
{ "type": "Feature", "properties": { "strassenschluessel": "05962000002404005", "bezeichnung": "Nordengraben" }, "geometry": { "type": "Point", "coordinates": [ 7.699925296053002, 51.375727337262724 ] } },
{ "type": "Feature", "properties": { "strassenschluessel": "05962000002404006", "bezeichnung": "Heilige-Geist-Straße" }, "geometry": { "type": "Point", "coordinates": [ 7.697270222845602, 51.375301773666145 ] } },
{ "type": "Feature", "properties": { "strassenschluessel": "05962000002404007", "bezeichnung": "Marktplatz" }, "geometry": { "type": "Point", "coordinates": [ 7.700028570492915, 51.374910891555594 ] } },
{ "type": "Feature", "properties": { "strassenschluessel": "05962000002404008", "bezeichnung": "Westertor-Passage" }, "geometry": null },
{ "type": "Feature", "properties": { "strassenschluessel": "05962000002404009", "bezeichnung": "Werner-Jacobi-Platz" }, "geometry": { "type": "Point", "coordinates": [ 7.699910678054182, 51.376405617773713 ] } },
{ "type": "Feature", "properties": { "strassenschluessel": "05962000002404010", "bezeichnung": "Laarstraße" }, "geometry": { "type": "Point", "coordinates": [ 7.70147861985699, 51.374656236754092 ] } },
{ "type": "Feature", "properties": { "strassenschluessel": "05962000002404011", "bezeichnung": "Von-Scheibler-Straße" }, "geometry": { "type": "Point", "coordinates": [ 7.698841858670916, 51.374536159553159 ] } },
{ "type": "Feature", "properties": { "strassenschluessel": "05962000002404012", "bezeichnung": "Theodor-Heuss-Ring" }, "geometry": { "type": "Point", "coordinates": [ 7.697939043223774, 51.376547232241336 ] } },
{ "type": "Feature", "properties": { "strassenschluessel": "05962000002404013", "bezeichnung": "Nußstraße" }, "geometry": { "type": "Point", "coordinates": [ 7.699352403110286, 51.374907514620013 ] } },
{ "type": "Feature", "properties": { "strassenschluessel": "05962000002404014", "bezeichnung": "Ohl" }, "geometry": { "type": "Point", "coordinates": [ 7.695840619725338, 51.374773210374478 ] } },
{ "type": "Feature", "properties": { "strassenschluessel": "05962000002404015", "bezeichnung": "Poth" }, "geometry": { "type": "Point", "coordinates": [ 7.695789557844627, 51.373982908463418 ] } },
{ "type": "Feature", "properties": { "strassenschluessel": "05962000002404016", "bezeichnung": "Schillerplatz" }, "geometry": { "type": "Point", "coordinates": [ 7.701179415743314, 51.37556513911963 ] } },
{ "type": "Feature", "properties": { "strassenschluessel": "05962000002404017", "bezeichnung": "Stahlschmiede" }, "geometry": { "type": "Point", "coordinates": [ 7.702963147141016, 51.374617755028709 ] } },
{ "type": "Feature", "properties": { "strassenschluessel": "05962000002404018", "bezeichnung": "Steinstraße" }, "geometry": { "type": "Point", "coordinates": [ 7.698403058063968, 51.375561593237229 ] } },
{ "type": "Feature", "properties": { "strassenschluessel": "05962000002404019", "bezeichnung": "Turmstraße" }, "geometry": { "type": "Point", "coordinates": [ 7.700950356918392, 51.374793081533944 ] } },
{ "type": "Feature", "properties": { "strassenschluessel": "05962000002404020", "bezeichnung": "Unnaer Straße" }, "geometry": { "type": "Point", "coordinates": [ 7.697465606078975, 51.374819191003034 ] } },
{ "type": "Feature", "properties": { "strassenschluessel": "05962000002404021", "bezeichnung": "Vinckestraße" }, "geometry": { "type": "Point", "coordinates": [ 7.703864936196493, 51.375033527156376 ] } },
{ "type": "Feature", "properties": { "strassenschluessel": "05962000002404022", "bezeichnung": "Wasserstraße" }, "geometry": { "type": "Point", "coordinates": [ 7.69804089284274, 51.374861096468706 ] } },
{ "type": "Feature", "properties": { "strassenschluessel": "05962000002404023", "bezeichnung": "Wermingser Straße" }, "geometry": { "type": "Point", "coordinates": [ 7.698263945653289, 51.374339262251254 ] } },
{ "type": "Feature", "properties": { "strassenschluessel": "05962000002404024", "bezeichnung": "Westergraben" }, "geometry": { "type": "Point", "coordinates": [ 7.695481124677646, 51.375262209281708 ] } },
{ "type": "Feature", "properties": { "strassenschluessel": "05962000002404025", "bezeichnung": "Kurt-Schumacher-Ring" }, "geometry": { "type": "Point", "coordinates": [ 7.697893604709379, 51.373520180709512 ] } },
{ "type": "Feature", "properties": { "strassenschluessel": "05962000002404026", "bezeichnung": "Katzenpoth" }, "geometry": null },
{ "type": "Feature", "properties": { "strassenschluessel": "05962000002404032", "bezeichnung": "Bahnhofsplatz" }, "geometry": { "type": "Point", "coordinates": [ 7.692615429573233, 51.372998100777345 ] } },
{ "type": "Feature", "properties": { "strassenschluessel": "05962000002404034", "bezeichnung": "Bleichstraße" }, "geometry": { "type": "Point", "coordinates": [ 7.692545324537852, 51.375621823932981 ] } },
{ "type": "Feature", "properties": { "strassenschluessel": "05962000002404035", "bezeichnung": "Gerichtstraße" }, "geometry": { "type": "Point", "coordinates": [ 7.694480942543747, 51.376547480559402 ] } },
{ "type": "Feature", "properties": { "strassenschluessel": "05962000002404036", "bezeichnung": "Hans-Böckler-Straße" }, "geometry": { "type": "Point", "coordinates": [ 7.695378570829949, 51.375902848253148 ] } },
{ "type": "Feature", "properties": { "strassenschluessel": "05962000002404037", "bezeichnung": "Hochstraße" }, "geometry": { "type": "Point", "coordinates": [ 7.691339017431904, 51.379251487210723 ] } },
{ "type": "Feature", "properties": { "strassenschluessel": "05962000002404038", "bezeichnung": "Julius-Schult-Straße" }, "geometry": { "type": "Point", "coordinates": [ 7.688757177167905, 51.376263300833401 ] } },
{ "type": "Feature", "properties": { "strassenschluessel": "05962000002404039", "bezeichnung": "Kluse" }, "geometry": { "type": "Point", "coordinates": [ 7.691247585465275, 51.374654702956434 ] } },
{ "type": "Feature", "properties": { "strassenschluessel": "05962000002404040", "bezeichnung": "Kurze Straße" }, "geometry": { "type": "Point", "coordinates": [ 7.692063671659134, 51.37769874479023 ] } },
{ "type": "Feature", "properties": { "strassenschluessel": "05962000002404041", "bezeichnung": "Lohkamp" }, "geometry": { "type": "Point", "coordinates": [ 7.69387269356073, 51.374873351355305 ] } },
{ "type": "Feature", "properties": { "strassenschluessel": "05962000002404042", "bezeichnung": "Mauerstraße" }, "geometry": { "type": "Point", "coordinates": [ 7.690333197634079, 51.375974025836406 ] } },
{ "type": "Feature", "properties": { "strassenschluessel": "05962000002404043", "bezeichnung": "Rahmenstraße" }, "geometry": { "type": "Point", "coordinates": [ 7.689771107693009, 51.374199432408844 ] } },
{ "type": "Feature", "properties": { "strassenschluessel": "05962000002404044", "bezeichnung": "Hall-Straße" }, "geometry": { "type": "Point", "coordinates": [ 7.688350086717131, 51.377344643660727 ] } },
{ "type": "Feature", "properties": { "strassenschluessel": "05962000002404045", "bezeichnung": "Stefanstraße" }, "geometry": { "type": "Point", "coordinates": [ 7.692720890178586, 51.37848116431055 ] } },
{ "type": "Feature", "properties": { "strassenschluessel": "05962000002404046", "bezeichnung": "Treppenstraße" }, "geometry": { "type": "Point", "coordinates": [ 7.693678656109342, 51.374473452630447 ] } },
{ "type": "Feature", "properties": { "strassenschluessel": "05962000002404047", "bezeichnung": "Wallstraße" }, "geometry": { "type": "Point", "coordinates": [ 7.693003079521137, 51.37675510402557 ] } },
{ "type": "Feature", "properties": { "strassenschluessel": "05962000002404048", "bezeichnung": "Webergang" }, "geometry": null },
{ "type": "Feature", "properties": { "strassenschluessel": "05962000002404049", "bezeichnung": "Westertor" }, "geometry": { "type": "Point", "coordinates": [ 7.69452179604105, 51.375370520640232 ] } },
{ "type": "Feature", "properties": { "strassenschluessel": "05962000002404050", "bezeichnung": "Weststraße" }, "geometry": { "type": "Point", "coordinates": [ 7.69132166816808, 51.375859365861885 ] } },
{ "type": "Feature", "properties": { "strassenschluessel": "05962000002404051", "bezeichnung": "Zimmerstraße" }, "geometry": { "type": "Point", "coordinates": [ 7.694868694573221, 51.373595960758053 ] } },
{ "type": "Feature", "properties": { "strassenschluessel": "05962000002404052", "bezeichnung": "Am Teutoburger Platz" }, "geometry": null },
{ "type": "Feature", "properties": { "strassenschluessel": "05962000002404056", "bezeichnung": "Am Tiefbau" }, "geometry": { "type": "Point", "coordinates": [ 7.703910778152387, 51.376427716337048 ] } },
{ "type": "Feature", "properties": { "strassenschluessel": "05962000002404057", "bezeichnung": "An der Isenburg" }, "geometry": { "type": "Point", "coordinates": [ 7.704583327473657, 51.376215973045809 ] } },
{ "type": "Feature", "properties": { "strassenschluessel": "05962000002404058", "bezeichnung": "Annastraße" }, "geometry": { "type": "Point", "coordinates": [ 7.709350126664487, 51.377520460446839 ] } },
{ "type": "Feature", "properties": { "strassenschluessel": "05962000002404060", "bezeichnung": "Bergwerkstraße" }, "geometry": { "type": "Point", "coordinates": [ 7.704505097930584, 51.37659083851095 ] } },
{ "type": "Feature", "properties": { "strassenschluessel": "05962000002404061", "bezeichnung": "Duesbergstraße" }, "geometry": { "type": "Point", "coordinates": [ 7.70802946693531, 51.377577610404565 ] } },
{ "type": "Feature", "properties": { "strassenschluessel": "05962000002404062", "bezeichnung": "Elisabethstraße" }, "geometry": { "type": "Point", "coordinates": [ 7.70611856512823, 51.377349589534994 ] } },
{ "type": "Feature", "properties": { "strassenschluessel": "05962000002404063", "bezeichnung": "Galmeistraße" }, "geometry": { "type": "Point", "coordinates": [ 7.705432192359336, 51.377571710034779 ] } },
{ "type": "Feature", "properties": { "strassenschluessel": "05962000002404064", "bezeichnung": "Gartenstraße" }, "geometry": { "type": "Point", "coordinates": [ 7.702000160489569, 51.381444955991768 ] } },
{ "type": "Feature", "properties": { "strassenschluessel": "05962000002404065", "bezeichnung": "Hindenburgstraße" }, "geometry": { "type": "Point", "coordinates": [ 7.703651341679217, 51.377661061520577 ] } },
{ "type": "Feature", "properties": { "strassenschluessel": "05962000002404066", "bezeichnung": "Hövelstraße" }, "geometry": { "type": "Point", "coordinates": [ 7.70651527389403, 51.377818590272653 ] } },
{ "type": "Feature", "properties": { "strassenschluessel": "05962000002404067", "bezeichnung": "Lange Straße" }, "geometry": { "type": "Point", "coordinates": [ 7.702525877614941, 51.378730328973447 ] } },
{ "type": "Feature", "properties": { "strassenschluessel": "05962000002404068", "bezeichnung": "Nohlstraße" }, "geometry": { "type": "Point", "coordinates": [ 7.699809443616942, 51.377222373596183 ] } },
{ "type": "Feature", "properties": { "strassenschluessel": "05962000002404069", "bezeichnung": "Nordstraße" }, "geometry": { "type": "Point", "coordinates": [ 7.70093625450644, 51.376885058386002 ] } },
{ "type": "Feature", "properties": { "strassenschluessel": "05962000002404070", "bezeichnung": "Piepenstockstraße" }, "geometry": { "type": "Point", "coordinates": [ 7.703461508936342, 51.378521684964362 ] } },
{ "type": "Feature", "properties": { "strassenschluessel": "05962000002404071", "bezeichnung": "Schleddenhofer Weg" }, "geometry": { "type": "Point", "coordinates": [ 7.70978032762846, 51.377735747146779 ] } },
{ "type": "Feature", "properties": { "strassenschluessel": "05962000002404072", "bezeichnung": "Sofienstraße" }, "geometry": { "type": "Point", "coordinates": [ 7.703371682179259, 51.377027328252822 ] } },
{ "type": "Feature", "properties": { "strassenschluessel": "05962000002404073", "bezeichnung": "Stennerstraße" }, "geometry": { "type": "Point", "coordinates": [ 7.697279459658933, 51.378664649030718 ] } },
{ "type": "Feature", "properties": { "strassenschluessel": "05962000002404074", "bezeichnung": "Trift" }, "geometry": { "type": "Point", "coordinates": [ 7.69758270391488, 51.377030634241351 ] } },
{ "type": "Feature", "properties": { "strassenschluessel": "05962000002404075", "bezeichnung": "Viktoriastraße" }, "geometry": { "type": "Point", "coordinates": [ 7.700012220862861, 51.377435747879659 ] } },
{ "type": "Feature", "properties": { "strassenschluessel": "05962000002404076", "bezeichnung": "Rathausstraße" }, "geometry": { "type": "Point", "coordinates": [ 7.700556204483774, 51.376827635697246 ] } },
{ "type": "Feature", "properties": { "strassenschluessel": "05962000002404077", "bezeichnung": "Teutoburger Platz" }, "geometry": null },
{ "type": "Feature", "properties": { "strassenschluessel": "05962000002404081", "bezeichnung": "Am Ostbahnhof" }, "geometry": { "type": "Point", "coordinates": [ 7.708791551821506, 51.372272236063864 ] } },
{ "type": "Feature", "properties": { "strassenschluessel": "05962000002404082", "bezeichnung": "Arnsberger Straße" }, "geometry": { "type": "Point", "coordinates": [ 7.711121635806229, 51.37375580753033 ] } },
{ "type": "Feature", "properties": { "strassenschluessel": "05962000002404083", "bezeichnung": "Bonstedtstraße" }, "geometry": { "type": "Point", "coordinates": [ 7.710063747210331, 51.376158603133426 ] } },
{ "type": "Feature", "properties": { "strassenschluessel": "05962000002404084", "bezeichnung": "Brausestraße" }, "geometry": { "type": "Point", "coordinates": [ 7.709455811928953, 51.374509505425777 ] } },
{ "type": "Feature", "properties": { "strassenschluessel": "05962000002404085", "bezeichnung": "Müllensiefenstraße" }, "geometry": { "type": "Point", "coordinates": [ 7.706931763409959, 51.375158166457808 ] } },
{ "type": "Feature", "properties": { "strassenschluessel": "05962000002404086", "bezeichnung": "Friedrichstraße" }, "geometry": { "type": "Point", "coordinates": [ 7.702710761793523, 51.37386742911351 ] } },
{ "type": "Feature", "properties": { "strassenschluessel": "05962000002404087", "bezeichnung": "Grafenstraße" }, "geometry": { "type": "Point", "coordinates": [ 7.707471866200121, 51.373909188379486 ] } },
{ "type": "Feature", "properties": { "strassenschluessel": "05962000002404088", "bezeichnung": "Karnacksweg" }, "geometry": { "type": "Point", "coordinates": [ 7.707282257528316, 51.375020547429919 ] } },
{ "type": "Feature", "properties": { "strassenschluessel": "05962000002404089", "bezeichnung": "Mendener Straße" }, "geometry": { "type": "Point", "coordinates": [ 7.717331956650773, 51.380710766010232 ] } },
{ "type": "Feature", "properties": { "strassenschluessel": "05962000002404090", "bezeichnung": "Oststraße" }, "geometry": { "type": "Point", "coordinates": [ 7.706493469866423, 51.373849849337304 ] } },
{ "type": "Feature", "properties": { "strassenschluessel": "05962000002404091", "bezeichnung": "Prinzenstraße" }, "geometry": { "type": "Point", "coordinates": [ 7.708231481634875, 51.373483771547605 ] } },
{ "type": "Feature", "properties": { "strassenschluessel": "05962000002404092", "bezeichnung": "Pütterstraße" }, "geometry": { "type": "Point", "coordinates": [ 7.712185489968606, 51.375977573282178 ] } },
{ "type": "Feature", "properties": { "strassenschluessel": "05962000002404093", "bezeichnung": "Teutoburger Straße" }, "geometry": { "type": "Point", "coordinates": [ 7.711185121993002, 51.37547707085357 ] } },
{ "type": "Feature", "properties": { "strassenschluessel": "05962000002404095", "bezeichnung": "Konrad-Adenauer-Ring" }, "geometry": { "type": "Point", "coordinates": [ 7.704246756996007, 51.374539327348337 ] } },
{ "type": "Feature", "properties": { "strassenschluessel": "05962000002404101", "bezeichnung": "Aloysiusstraße" }, "geometry": { "type": "Point", "coordinates": [ 7.703180354378164, 51.372303484866947 ] } },
{ "type": "Feature", "properties": { "strassenschluessel": "05962000002404102", "bezeichnung": "Altstadt" }, "geometry": { "type": "Point", "coordinates": [ 7.69489922232664, 51.372874091312099 ] } },
{ "type": "Feature", "properties": { "strassenschluessel": "05962000002404103", "bezeichnung": "Am Zeughaus" }, "geometry": { "type": "Point", "coordinates": [ 7.697405434737534, 51.372866651462303 ] } },
{ "type": "Feature", "properties": { "strassenschluessel": "05962000002404104", "bezeichnung": "An der Langen Hecke" }, "geometry": { "type": "Point", "coordinates": [ 7.704980965806713, 51.370976380796854 ] } },
{ "type": "Feature", "properties": { "strassenschluessel": "05962000002404105", "bezeichnung": "An der Schlacht" }, "geometry": { "type": "Point", "coordinates": [ 7.698060426704291, 51.372362918900883 ] } },
{ "type": "Feature", "properties": { "strassenschluessel": "05962000002404107", "bezeichnung": "Bohnenstraße" }, "geometry": { "type": "Point", "coordinates": [ 7.696290795151635, 51.373931250280201 ] } },
{ "type": "Feature", "properties": { "strassenschluessel": "05962000002404108", "bezeichnung": "Brüderstraße" }, "geometry": { "type": "Point", "coordinates": [ 7.701141225510627, 51.372268819242194 ] } },
{ "type": "Feature", "properties": { "strassenschluessel": "05962000002404110", "bezeichnung": "Hardtstraße" }, "geometry": { "type": "Point", "coordinates": [ 7.699205824640377, 51.371543940451822 ] } },
{ "type": "Feature", "properties": { "strassenschluessel": "05962000002404111", "bezeichnung": "Hinterm Hohler Weg" }, "geometry": { "type": "Point", "coordinates": [ 7.701883291196898, 51.372834313684159 ] } },
{ "type": "Feature", "properties": { "strassenschluessel": "05962000002404112", "bezeichnung": "Hinterm Schützenhof" }, "geometry": { "type": "Point", "coordinates": [ 7.700500382129709, 51.373383842510201 ] } },
{ "type": "Feature", "properties": { "strassenschluessel": "05962000002404113", "bezeichnung": "Hohler Weg" }, "geometry": { "type": "Point", "coordinates": [ 7.700407943451279, 51.373153905826889 ] } },
{ "type": "Feature", "properties": { "strassenschluessel": "05962000002404114", "bezeichnung": "Fritz-Kühn-Platz" }, "geometry": { "type": "Point", "coordinates": [ 7.6973265139306, 51.37239489410981 ] } },
{ "type": "Feature", "properties": { "strassenschluessel": "05962000002404115", "bezeichnung": "Inselstraße" }, "geometry": null },
{ "type": "Feature", "properties": { "strassenschluessel": "05962000002404116", "bezeichnung": "Karlstraße" }, "geometry": { "type": "Point", "coordinates": [ 7.702315766159507, 51.372922707331114 ] } },
{ "type": "Feature", "properties": { "strassenschluessel": "05962000002404118", "bezeichnung": "Am Bilstein" }, "geometry": { "type": "Point", "coordinates": [ 7.697075184023142, 51.37335959538548 ] } },
{ "type": "Feature", "properties": { "strassenschluessel": "05962000002404120", "bezeichnung": "Knallenbrink" }, "geometry": { "type": "Point", "coordinates": [ 7.699118324505564, 51.373714102080065 ] } },
{ "type": "Feature", "properties": { "strassenschluessel": "05962000002404122", "bezeichnung": "Ostengraben" }, "geometry": { "type": "Point", "coordinates": [ 7.699045609188376, 51.373433315282469 ] } },
{ "type": "Feature", "properties": { "strassenschluessel": "05962000002404124", "bezeichnung": "Mühlentor" }, "geometry": { "type": "Point", "coordinates": [ 7.69850004997316, 51.373793742626368 ] } },
{ "type": "Feature", "properties": { "strassenschluessel": "05962000002404127", "bezeichnung": "Peterstraße" }, "geometry": { "type": "Point", "coordinates": [ 7.70003488942862, 51.371784365055809 ] } },
{ "type": "Feature", "properties": { "strassenschluessel": "05962000002404130", "bezeichnung": "Alter Rathausplatz" }, "geometry": { "type": "Point", "coordinates": [ 7.697242473471268, 51.374567008253443 ] } },
{ "type": "Feature", "properties": { "strassenschluessel": "05962000002404131", "bezeichnung": "Schützenhof" }, "geometry": { "type": "Point", "coordinates": [ 7.700219356908176, 51.373484102106026 ] } },
{ "type": "Feature", "properties": { "strassenschluessel": "05962000002404132", "bezeichnung": "Sporenstraße" }, "geometry": { "type": "Point", "coordinates": [ 7.704535163884671, 51.371696583859666 ] } },
{ "type": "Feature", "properties": { "strassenschluessel": "05962000002404133", "bezeichnung": "Südengraben" }, "geometry": { "type": "Point", "coordinates": [ 7.69799770412591, 51.37304898307476 ] } },
{ "type": "Feature", "properties": { "strassenschluessel": "05962000002404134", "bezeichnung": "Wiemer" }, "geometry": { "type": "Point", "coordinates": [ 7.696975240657967, 51.371671979580057 ] } },
{ "type": "Feature", "properties": { "strassenschluessel": "05962000002404151", "bezeichnung": "Am Toten Mann" }, "geometry": { "type": "Point", "coordinates": [ 7.685861432010859, 51.382021031211529 ] } },
{ "type": "Feature", "properties": { "strassenschluessel": "05962000002404152", "bezeichnung": "An der Kochsburg" }, "geometry": { "type": "Point", "coordinates": [ 7.696222327611522, 51.381051062165518 ] } },
{ "type": "Feature", "properties": { "strassenschluessel": "05962000002404153", "bezeichnung": "Baarstraße" }, "geometry": { "type": "Point", "coordinates": [ 7.695790404342618, 51.382905969017422 ] } },
{ "type": "Feature", "properties": { "strassenschluessel": "05962000002404154", "bezeichnung": "Beethovenstraße" }, "geometry": { "type": "Point", "coordinates": [ 7.687483775704671, 51.378868197077708 ] } },
{ "type": "Feature", "properties": { "strassenschluessel": "05962000002404155", "bezeichnung": "Bodelschwinghstraße" }, "geometry": { "type": "Point", "coordinates": [ 7.683463622518465, 51.380272853239518 ] } },
{ "type": "Feature", "properties": { "strassenschluessel": "05962000002404157", "bezeichnung": "Burgweg" }, "geometry": { "type": "Point", "coordinates": [ 7.694530137008893, 51.380367922495985 ] } },
{ "type": "Feature", "properties": { "strassenschluessel": "05962000002404158", "bezeichnung": "Dördelweg" }, "geometry": { "type": "Point", "coordinates": [ 7.689091874843923, 51.378904527174377 ] } },
{ "type": "Feature", "properties": { "strassenschluessel": "05962000002404159", "bezeichnung": "Dortmunder Straße" }, "geometry": { "type": "Point", "coordinates": [ 7.681764906454006, 51.38072017280065 ] } },
{ "type": "Feature", "properties": { "strassenschluessel": "05962000002404160", "bezeichnung": "Dröscheder Weg" }, "geometry": { "type": "Point", "coordinates": [ 7.685303887474608, 51.376486964944753 ] } },
{ "type": "Feature", "properties": { "strassenschluessel": "05962000002404161", "bezeichnung": "Elsenbornstraße" }, "geometry": { "type": "Point", "coordinates": [ 7.687663812897069, 51.379929171656762 ] } },
{ "type": "Feature", "properties": { "strassenschluessel": "05962000002404163", "bezeichnung": "Gerlingser Weg" }, "geometry": { "type": "Point", "coordinates": [ 7.689790793184774, 51.375081100321275 ] } },
{ "type": "Feature", "properties": { "strassenschluessel": "05962000002404164", "bezeichnung": "Am Hauptfriedhof" }, "geometry": { "type": "Point", "coordinates": [ 7.683152592255191, 51.377597992637583 ] } },
{ "type": "Feature", "properties": { "strassenschluessel": "05962000002404165", "bezeichnung": "Hermannstraße" }, "geometry": { "type": "Point", "coordinates": [ 7.687668341603107, 51.381435814244981 ] } },
{ "type": "Feature", "properties": { "strassenschluessel": "05962000002404166", "bezeichnung": "Im Weingarten" }, "geometry": { "type": "Point", "coordinates": [ 7.695762417131269, 51.37978666237683 ] } },
{ "type": "Feature", "properties": { "strassenschluessel": "05962000002404167", "bezeichnung": "Josefstraße" }, "geometry": { "type": "Point", "coordinates": [ 7.686061302104749, 51.380786372876734 ] } },
{ "type": "Feature", "properties": { "strassenschluessel": "05962000002404168", "bezeichnung": "Auf der Alm" }, "geometry": { "type": "Point", "coordinates": [ 7.686056142113507, 51.379532428154057 ] } },
{ "type": "Feature", "properties": { "strassenschluessel": "05962000002404169", "bezeichnung": "Lilienthalstraße" }, "geometry": { "type": "Point", "coordinates": [ 7.679374987069353, 51.380801465297992 ] } },
{ "type": "Feature", "properties": { "strassenschluessel": "05962000002404170", "bezeichnung": "Ludwigstraße" }, "geometry": { "type": "Point", "coordinates": [ 7.685522163556008, 51.374955420737656 ] } },
{ "type": "Feature", "properties": { "strassenschluessel": "05962000002404171", "bezeichnung": "Märkische Straße" }, "geometry": { "type": "Point", "coordinates": [ 7.687564270023039, 51.380734614811459 ] } },
{ "type": "Feature", "properties": { "strassenschluessel": "05962000002404172", "bezeichnung": "Memelstraße" }, "geometry": { "type": "Point", "coordinates": [ 7.68830423518611, 51.378701367428526 ] } },
{ "type": "Feature", "properties": { "strassenschluessel": "05962000002404173", "bezeichnung": "Ottostraße" }, "geometry": { "type": "Point", "coordinates": [ 7.684179834737691, 51.381266730323183 ] } },
{ "type": "Feature", "properties": { "strassenschluessel": "05962000002404174", "bezeichnung": "Rudolfstraße" }, "geometry": { "type": "Point", "coordinates": [ 7.686419826946236, 51.375611982095414 ] } },
{ "type": "Feature", "properties": { "strassenschluessel": "05962000002404175", "bezeichnung": "Schnadeweg" }, "geometry": { "type": "Point", "coordinates": [ 7.688686821467113, 51.379332764267197 ] } },
{ "type": "Feature", "properties": { "strassenschluessel": "05962000002404176", "bezeichnung": "Vödeweg" }, "geometry": { "type": "Point", "coordinates": [ 7.687548740127092, 51.376099533412592 ] } },
{ "type": "Feature", "properties": { "strassenschluessel": "05962000002404177", "bezeichnung": "Wilhelm-Raabe-Straße" }, "geometry": { "type": "Point", "coordinates": [ 7.684566433751644, 51.376940575134455 ] } },
{ "type": "Feature", "properties": { "strassenschluessel": "05962000002404178", "bezeichnung": "Auf der Burg" }, "geometry": { "type": "Point", "coordinates": [ 7.692874294091129, 51.379791714894438 ] } },
{ "type": "Feature", "properties": { "strassenschluessel": "05962000002404180", "bezeichnung": "Sternberger Straße" }, "geometry": { "type": "Point", "coordinates": [ 7.697430966569753, 51.383968391536357 ] } },
{ "type": "Feature", "properties": { "strassenschluessel": "05962000002404181", "bezeichnung": "Albrechtstraße" }, "geometry": { "type": "Point", "coordinates": [ 7.713861956224141, 51.379157523810875 ] } },
{ "type": "Feature", "properties": { "strassenschluessel": "05962000002404182", "bezeichnung": "Am Schmachtenberg" }, "geometry": { "type": "Point", "coordinates": [ 7.705465590529028, 51.381136314170455 ] } },
{ "type": "Feature", "properties": { "strassenschluessel": "05962000002404183", "bezeichnung": "Am Tyrol" }, "geometry": { "type": "Point", "coordinates": [ 7.701009269886794, 51.381688504912582 ] } },
{ "type": "Feature", "properties": { "strassenschluessel": "05962000002404184", "bezeichnung": "An den Sieben Gäßchen" }, "geometry": { "type": "Point", "coordinates": [ 7.70321444330449, 51.380986641570466 ] } },
{ "type": "Feature", "properties": { "strassenschluessel": "05962000002404185", "bezeichnung": "An den Stadtsgärten" }, "geometry": { "type": "Point", "coordinates": [ 7.703401356340194, 51.379817492559319 ] } },
{ "type": "Feature", "properties": { "strassenschluessel": "05962000002404186", "bezeichnung": "Bömbergring" }, "geometry": { "type": "Point", "coordinates": [ 7.709860208576856, 51.381353915674715 ] } },
{ "type": "Feature", "properties": { "strassenschluessel": "05962000002404187", "bezeichnung": "Am Gartenbad" }, "geometry": { "type": "Point", "coordinates": [ 7.699998107977487, 51.38052460570465 ] } },
{ "type": "Feature", "properties": { "strassenschluessel": "05962000002404188", "bezeichnung": "Engelbertstraße" }, "geometry": { "type": "Point", "coordinates": [ 7.712034487543598, 51.378568157377259 ] } },
{ "type": "Feature", "properties": { "strassenschluessel": "05962000002404189", "bezeichnung": "Freiligrathstraße" }, "geometry": { "type": "Point", "coordinates": [ 7.710318713187664, 51.378126019578602 ] } },
{ "type": "Feature", "properties": { "strassenschluessel": "05962000002404192", "bezeichnung": "Harkortstraße" }, "geometry": { "type": "Point", "coordinates": [ 7.70665293642752, 51.380088447541837 ] } },
{ "type": "Feature", "properties": { "strassenschluessel": "05962000002404194", "bezeichnung": "Hinterm Caller Weg" }, "geometry": { "type": "Point", "coordinates": [ 7.702481948156456, 51.38369902592521 ] } },
{ "type": "Feature", "properties": { "strassenschluessel": "05962000002404196", "bezeichnung": "Im Bürgergarten" }, "geometry": { "type": "Point", "coordinates": [ 7.700974781766059, 51.382847721833251 ] } },
{ "type": "Feature", "properties": { "strassenschluessel": "05962000002404197", "bezeichnung": "Im Sonnenwinkel" }, "geometry": { "type": "Point", "coordinates": [ 7.69933553173792, 51.37992480452224 ] } },
{ "type": "Feature", "properties": { "strassenschluessel": "05962000002404198", "bezeichnung": "Im Tückwinkel" }, "geometry": { "type": "Point", "coordinates": [ 7.701080514911404, 51.383635172950356 ] } },
{ "type": "Feature", "properties": { "strassenschluessel": "05962000002404200", "bezeichnung": "Florentine-Benfer-Straße" }, "geometry": { "type": "Point", "coordinates": [ 7.707715861848023, 51.381054837728641 ] } },
{ "type": "Feature", "properties": { "strassenschluessel": "05962000002404201", "bezeichnung": "Van-Hees-Straße" }, "geometry": { "type": "Point", "coordinates": [ 7.702170572447036, 51.379064976468051 ] } },
{ "type": "Feature", "properties": { "strassenschluessel": "05962000002404203", "bezeichnung": "Schüttestraße" }, "geometry": { "type": "Point", "coordinates": [ 7.697547826075446, 51.380678212860722 ] } },
{ "type": "Feature", "properties": { "strassenschluessel": "05962000002404204", "bezeichnung": "Schwalbenstraße" }, "geometry": { "type": "Point", "coordinates": [ 7.699276107084063, 51.381154236204978 ] } },
{ "type": "Feature", "properties": { "strassenschluessel": "05962000002404205", "bezeichnung": "Straußgäßchen" }, "geometry": null },
{ "type": "Feature", "properties": { "strassenschluessel": "05962000002404206", "bezeichnung": "Varnhagenstraße" }, "geometry": { "type": "Point", "coordinates": [ 7.704096787027712, 51.382666691298695 ] } },
{ "type": "Feature", "properties": { "strassenschluessel": "05962000002404207", "bezeichnung": "Grabbestraße" }, "geometry": { "type": "Point", "coordinates": [ 7.704870978979259, 51.38477388279825 ] } },
{ "type": "Feature", "properties": { "strassenschluessel": "05962000002404208", "bezeichnung": "Erich-Nörrenberg-Straße" }, "geometry": { "type": "Point", "coordinates": [ 7.708893590631142, 51.386371994397848 ] } },
{ "type": "Feature", "properties": { "strassenschluessel": "05962000002404211", "bezeichnung": "Caller Weg" }, "geometry": { "type": "Point", "coordinates": [ 7.703778177533504, 51.385043548760237 ] } },
{ "type": "Feature", "properties": { "strassenschluessel": "05962000002404212", "bezeichnung": "Dürerstraße" }, "geometry": { "type": "Point", "coordinates": [ 7.701631349125284, 51.385785618159993 ] } },
{ "type": "Feature", "properties": { "strassenschluessel": "05962000002404213", "bezeichnung": "Roseggerstraße" }, "geometry": { "type": "Point", "coordinates": [ 7.707518714617097, 51.385030807196671 ] } },
{ "type": "Feature", "properties": { "strassenschluessel": "05962000002404214", "bezeichnung": "Görresstraße" }, "geometry": { "type": "Point", "coordinates": [ 7.711447557700224, 51.382369100349713 ] } },
{ "type": "Feature", "properties": { "strassenschluessel": "05962000002404215", "bezeichnung": "Goethestraße" }, "geometry": { "type": "Point", "coordinates": [ 7.706152848680457, 51.386097564436227 ] } },
{ "type": "Feature", "properties": { "strassenschluessel": "05962000002404216", "bezeichnung": "Holbeinstraße" }, "geometry": { "type": "Point", "coordinates": [ 7.702711184815438, 51.386264689625747 ] } },
{ "type": "Feature", "properties": { "strassenschluessel": "05962000002404217", "bezeichnung": "Im Schlehdorn" }, "geometry": { "type": "Point", "coordinates": [ 7.704478947858849, 51.383703651236914 ] } },
{ "type": "Feature", "properties": { "strassenschluessel": "05962000002404218", "bezeichnung": "In der Huckschlade" }, "geometry": { "type": "Point", "coordinates": [ 7.709458114027098, 51.385527405980639 ] } },
{ "type": "Feature", "properties": { "strassenschluessel": "05962000002404219", "bezeichnung": "Friesenstraße" }, "geometry": { "type": "Point", "coordinates": [ 7.70955300761591, 51.386117516666772 ] } },
{ "type": "Feature", "properties": { "strassenschluessel": "05962000002404220", "bezeichnung": "Klopstockstraße" }, "geometry": { "type": "Point", "coordinates": [ 7.707623890326071, 51.386053378981252 ] } },
{ "type": "Feature", "properties": { "strassenschluessel": "05962000002404221", "bezeichnung": "Rahlenbeckallee" }, "geometry": { "type": "Point", "coordinates": [ 7.709823204094261, 51.38500264608934 ] } },
{ "type": "Feature", "properties": { "strassenschluessel": "05962000002404222", "bezeichnung": "Rembrandtstraße" }, "geometry": { "type": "Point", "coordinates": [ 7.699155743560086, 51.383197794129565 ] } },
{ "type": "Feature", "properties": { "strassenschluessel": "05962000002404223", "bezeichnung": "Rubensstraße" }, "geometry": { "type": "Point", "coordinates": [ 7.70166401077046, 51.385019529748966 ] } },
{ "type": "Feature", "properties": { "strassenschluessel": "05962000002404224", "bezeichnung": "Seilerblick" }, "geometry": { "type": "Point", "coordinates": [ 7.708539394728589, 51.383491464569346 ] } },
{ "type": "Feature", "properties": { "strassenschluessel": "05962000002404225", "bezeichnung": "Ulrich-Fust-Straße" }, "geometry": { "type": "Point", "coordinates": [ 7.706880062676531, 51.383147188371524 ] } },
{ "type": "Feature", "properties": { "strassenschluessel": "05962000002404226", "bezeichnung": "Markgrafenstraße" }, "geometry": { "type": "Point", "coordinates": [ 7.700801809517599, 51.386377386038419 ] } },
{ "type": "Feature", "properties": { "strassenschluessel": "05962000002404227", "bezeichnung": "Woestestraße" }, "geometry": { "type": "Point", "coordinates": [ 7.708718781288415, 51.385975526229565 ] } },
{ "type": "Feature", "properties": { "strassenschluessel": "05962000002404228", "bezeichnung": "Ziegelstraße" }, "geometry": { "type": "Point", "coordinates": [ 7.713312152113717, 51.382629248020216 ] } },
{ "type": "Feature", "properties": { "strassenschluessel": "05962000002404229", "bezeichnung": "Haselbuschweg" }, "geometry": { "type": "Point", "coordinates": [ 7.705158119486475, 51.382985003423947 ] } },
{ "type": "Feature", "properties": { "strassenschluessel": "05962000002404231", "bezeichnung": "Baedekerstraße" }, "geometry": { "type": "Point", "coordinates": [ 7.716587481468102, 51.379361179939274 ] } },
{ "type": "Feature", "properties": { "strassenschluessel": "05962000002404232", "bezeichnung": "Bäumerstraße" }, "geometry": { "type": "Point", "coordinates": [ 7.715203749011756, 51.378135527964957 ] } },
{ "type": "Feature", "properties": { "strassenschluessel": "05962000002404233", "bezeichnung": "Barbarossastraße" }, "geometry": { "type": "Point", "coordinates": [ 7.713520466906338, 51.376165397389549 ] } },
{ "type": "Feature", "properties": { "strassenschluessel": "05962000002404234", "bezeichnung": "Calvinstraße" }, "geometry": { "type": "Point", "coordinates": [ 7.714604580590597, 51.376045935080235 ] } },
{ "type": "Feature", "properties": { "strassenschluessel": "05962000002404235", "bezeichnung": "Hansaallee" }, "geometry": { "type": "Point", "coordinates": [ 7.712343503429335, 51.374891317221731 ] } },
{ "type": "Feature", "properties": { "strassenschluessel": "05962000002404236", "bezeichnung": "Im Wiesengrund" }, "geometry": { "type": "Point", "coordinates": [ 7.718009097196252, 51.380541979748109 ] } },
{ "type": "Feature", "properties": { "strassenschluessel": "05962000002404237", "bezeichnung": "In der Bredde" }, "geometry": { "type": "Point", "coordinates": [ 7.711539976398361, 51.3768111504017 ] } },
{ "type": "Feature", "properties": { "strassenschluessel": "05962000002404238", "bezeichnung": "Kriemhildenstraße" }, "geometry": { "type": "Point", "coordinates": [ 7.716641513160383, 51.374344535445033 ] } },
{ "type": "Feature", "properties": { "strassenschluessel": "05962000002404242", "bezeichnung": "Parkstraße" }, "geometry": { "type": "Point", "coordinates": [ 7.715591733883229, 51.368310140696579 ] } },
{ "type": "Feature", "properties": { "strassenschluessel": "05962000002404243", "bezeichnung": "Seidenstraße" }, "geometry": { "type": "Point", "coordinates": [ 7.718181134759496, 51.373816188870492 ] } },
{ "type": "Feature", "properties": { "strassenschluessel": "05962000002404244", "bezeichnung": "Siegfriedstraße" }, "geometry": { "type": "Point", "coordinates": [ 7.714028127536736, 51.375161661626194 ] } },
{ "type": "Feature", "properties": { "strassenschluessel": "05962000002404245", "bezeichnung": "Soenneckenstraße" }, "geometry": { "type": "Point", "coordinates": [ 7.717170088031286, 51.377715024933174 ] } },
{ "type": "Feature", "properties": { "strassenschluessel": "05962000002404246", "bezeichnung": "Sundernallee" }, "geometry": { "type": "Point", "coordinates": [ 7.715345594713713, 51.378706473894873 ] } },
{ "type": "Feature", "properties": { "strassenschluessel": "05962000002404247", "bezeichnung": "Waldemeistraße" }, "geometry": { "type": "Point", "coordinates": [ 7.717186671513256, 51.370920680039838 ] } },
{ "type": "Feature", "properties": { "strassenschluessel": "05962000002404249", "bezeichnung": "Zeppelinstraße" }, "geometry": { "type": "Point", "coordinates": [ 7.714657074335412, 51.377254327285172 ] } },
{ "type": "Feature", "properties": { "strassenschluessel": "05962000002404250", "bezeichnung": "Zollernstraße" }, "geometry": { "type": "Point", "coordinates": [ 7.713239234622187, 51.372896999526844 ] } },
{ "type": "Feature", "properties": { "strassenschluessel": "05962000002404256", "bezeichnung": "Am Hochbehälter" }, "geometry": { "type": "Point", "coordinates": [ 7.706253193512349, 51.370598708445186 ] } },
{ "type": "Feature", "properties": { "strassenschluessel": "05962000002404257", "bezeichnung": "Einsteinstraße" }, "geometry": { "type": "Point", "coordinates": [ 7.705315076356696, 51.368608148439201 ] } },
{ "type": "Feature", "properties": { "strassenschluessel": "05962000002404258", "bezeichnung": "An der Landwehr" }, "geometry": { "type": "Point", "coordinates": [ 7.714567990115158, 51.370161855599846 ] } },
{ "type": "Feature", "properties": { "strassenschluessel": "05962000002404259", "bezeichnung": "Brändströmstraße" }, "geometry": { "type": "Point", "coordinates": [ 7.708267436893523, 51.37158298914111 ] } },
{ "type": "Feature", "properties": { "strassenschluessel": "05962000002404260", "bezeichnung": "Fraunhoferstraße" }, "geometry": { "type": "Point", "coordinates": [ 7.708725589993708, 51.368669987196832 ] } },
{ "type": "Feature", "properties": { "strassenschluessel": "05962000002404261", "bezeichnung": "Gürtlerstraße" }, "geometry": { "type": "Point", "coordinates": [ 7.71211007678124, 51.371111834963507 ] } },
{ "type": "Feature", "properties": { "strassenschluessel": "05962000002404262", "bezeichnung": "Gustav-Pfingsten-Straße" }, "geometry": { "type": "Point", "coordinates": [ 7.712134242866813, 51.368545490929563 ] } },
{ "type": "Feature", "properties": { "strassenschluessel": "05962000002404264", "bezeichnung": "Helmholtzstraße" }, "geometry": { "type": "Point", "coordinates": [ 7.707643064432063, 51.368317714056772 ] } },
{ "type": "Feature", "properties": { "strassenschluessel": "05962000002404265", "bezeichnung": "Ihmerter Weg" }, "geometry": { "type": "Point", "coordinates": [ 7.710368502095535, 51.36833192952129 ] } },
{ "type": "Feature", "properties": { "strassenschluessel": "05962000002404266", "bezeichnung": "In der Läger" }, "geometry": { "type": "Point", "coordinates": [ 7.700423570362439, 51.358912127896808 ] } },
{ "type": "Feature", "properties": { "strassenschluessel": "05962000002404267", "bezeichnung": "Industriestraße" }, "geometry": { "type": "Point", "coordinates": [ 7.70176834316151, 51.36973876162044 ] } },
{ "type": "Feature", "properties": { "strassenschluessel": "05962000002404268", "bezeichnung": "Langewieschestraße" }, "geometry": { "type": "Point", "coordinates": [ 7.714107536029558, 51.367558413737548 ] } },
{ "type": "Feature", "properties": { "strassenschluessel": "05962000002404269", "bezeichnung": "Lünkerhohl" }, "geometry": { "type": "Point", "coordinates": [ 7.70225652404419, 51.369855343731537 ] } },
{ "type": "Feature", "properties": { "strassenschluessel": "05962000002404270", "bezeichnung": "Maler-Vogt-Weg" }, "geometry": { "type": "Point", "coordinates": [ 7.712704351570406, 51.368166745794923 ] } },
{ "type": "Feature", "properties": { "strassenschluessel": "05962000002404271", "bezeichnung": "Nadelstraße" }, "geometry": { "type": "Point", "coordinates": [ 7.702907384923789, 51.369353031186932 ] } },
{ "type": "Feature", "properties": { "strassenschluessel": "05962000002404272", "bezeichnung": "Obere Mühle" }, "geometry": { "type": "Point", "coordinates": [ 7.698474311286867, 51.370982106947075 ] } },
{ "type": "Feature", "properties": { "strassenschluessel": "05962000002404273", "bezeichnung": "Osterholdweg" }, "geometry": { "type": "Point", "coordinates": [ 7.710935452519484, 51.368599642003296 ] } },
{ "type": "Feature", "properties": { "strassenschluessel": "05962000002404274", "bezeichnung": "Panzermacherstraße" }, "geometry": { "type": "Point", "coordinates": [ 7.709873827223051, 51.370536813406702 ] } },
{ "type": "Feature", "properties": { "strassenschluessel": "05962000002404275", "bezeichnung": "Rektor-Kruse-Weg" }, "geometry": { "type": "Point", "coordinates": [ 7.71032193900179, 51.369624645316343 ] } },
{ "type": "Feature", "properties": { "strassenschluessel": "05962000002404276", "bezeichnung": "Röntgenstraße" }, "geometry": { "type": "Point", "coordinates": [ 7.706353186510495, 51.3681177483016 ] } },
{ "type": "Feature", "properties": { "strassenschluessel": "05962000002404277", "bezeichnung": "Schödderweg" }, "geometry": { "type": "Point", "coordinates": [ 7.709753548559141, 51.368067237609289 ] } },
{ "type": "Feature", "properties": { "strassenschluessel": "05962000002404278", "bezeichnung": "Siebrechtsweg" }, "geometry": { "type": "Point", "coordinates": [ 7.713015873070701, 51.369772223408582 ] } },
{ "type": "Feature", "properties": { "strassenschluessel": "05962000002404279", "bezeichnung": "Siemensstraße" }, "geometry": { "type": "Point", "coordinates": [ 7.708183748736661, 51.368495189878253 ] } },
{ "type": "Feature", "properties": { "strassenschluessel": "05962000002404281", "bezeichnung": "Teichstraße" }, "geometry": { "type": "Point", "coordinates": [ 7.709514738409935, 51.371544731524814 ] } },
{ "type": "Feature", "properties": { "strassenschluessel": "05962000002404282", "bezeichnung": "Thomees Kamp" }, "geometry": { "type": "Point", "coordinates": [ 7.706868239881041, 51.36849850892844 ] } },
{ "type": "Feature", "properties": { "strassenschluessel": "05962000002404283", "bezeichnung": "Torleystraße" }, "geometry": { "type": "Point", "coordinates": [ 7.712804309300589, 51.369078678210819 ] } },
{ "type": "Feature", "properties": { "strassenschluessel": "05962000002404284", "bezeichnung": "Turkweg" }, "geometry": { "type": "Point", "coordinates": [ 7.710027874367517, 51.369282591051153 ] } },
{ "type": "Feature", "properties": { "strassenschluessel": "05962000002404285", "bezeichnung": "Wolfsgasse" }, "geometry": { "type": "Point", "coordinates": [ 7.706851256550288, 51.371359875044568 ] } },
{ "type": "Feature", "properties": { "strassenschluessel": "05962000002404299", "bezeichnung": "Max-Planck-Straße" }, "geometry": { "type": "Point", "coordinates": [ 7.668789989456632, 51.375838741035658 ] } },
{ "type": "Feature", "properties": { "strassenschluessel": "05962000002404300", "bezeichnung": "Kalkofen" }, "geometry": { "type": "Point", "coordinates": [ 7.666777495219817, 51.370712691066359 ] } },
{ "type": "Feature", "properties": { "strassenschluessel": "05962000002404301", "bezeichnung": "Adlerweg" }, "geometry": { "type": "Point", "coordinates": [ 7.665940618209915, 51.375464006218976 ] } },
{ "type": "Feature", "properties": { "strassenschluessel": "05962000002404302", "bezeichnung": "Wachtelweg" }, "geometry": { "type": "Point", "coordinates": [ 7.673638268463535, 51.373964541818644 ] } },
{ "type": "Feature", "properties": { "strassenschluessel": "05962000002404303", "bezeichnung": "Falkenweg" }, "geometry": { "type": "Point", "coordinates": [ 7.672839321488377, 51.374075660313046 ] } },
{ "type": "Feature", "properties": { "strassenschluessel": "05962000002404304", "bezeichnung": "Dohlenweg" }, "geometry": { "type": "Point", "coordinates": [ 7.670632744977181, 51.374065328400107 ] } },
{ "type": "Feature", "properties": { "strassenschluessel": "05962000002404305", "bezeichnung": "Grasweg" }, "geometry": { "type": "Point", "coordinates": [ 7.677008407224553, 51.375724664631868 ] } },
{ "type": "Feature", "properties": { "strassenschluessel": "05962000002404306", "bezeichnung": "Zedernweg" }, "geometry": { "type": "Point", "coordinates": [ 7.669475501729091, 51.375198145181585 ] } },
{ "type": "Feature", "properties": { "strassenschluessel": "05962000002404307", "bezeichnung": "Im Hasenwinkel" }, "geometry": { "type": "Point", "coordinates": [ 7.674970747938191, 51.374340018739026 ] } },
{ "type": "Feature", "properties": { "strassenschluessel": "05962000002404308", "bezeichnung": "Landweg" }, "geometry": { "type": "Point", "coordinates": [ 7.675090782726538, 51.375710449627761 ] } },
{ "type": "Feature", "properties": { "strassenschluessel": "05962000002404309", "bezeichnung": "Oestricher Straße" }, "geometry": { "type": "Point", "coordinates": [ 7.665570191211828, 51.3739963642251 ] } },
{ "type": "Feature", "properties": { "strassenschluessel": "05962000002404310", "bezeichnung": "Rabenweg" }, "geometry": { "type": "Point", "coordinates": [ 7.671092196131919, 51.37381341952225 ] } },
{ "type": "Feature", "properties": { "strassenschluessel": "05962000002404311", "bezeichnung": "Siedlerweg" }, "geometry": { "type": "Point", "coordinates": [ 7.670991314509137, 51.376500703669372 ] } },
{ "type": "Feature", "properties": { "strassenschluessel": "05962000002404312", "bezeichnung": "Im Boden" }, "geometry": { "type": "Point", "coordinates": [ 7.677616174107212, 51.377050528885292 ] } },
{ "type": "Feature", "properties": { "strassenschluessel": "05962000002404313", "bezeichnung": "Sonnenweg" }, "geometry": { "type": "Point", "coordinates": [ 7.67237711476155, 51.37615689706378 ] } },
{ "type": "Feature", "properties": { "strassenschluessel": "05962000002404314", "bezeichnung": "Paul-Gerhardt-Weg" }, "geometry": { "type": "Point", "coordinates": [ 7.676322776247419, 51.369064304424299 ] } },
{ "type": "Feature", "properties": { "strassenschluessel": "05962000002404315", "bezeichnung": "Strobler Platz" }, "geometry": { "type": "Point", "coordinates": [ 7.689831483810685, 51.371518310027582 ] } },
{ "type": "Feature", "properties": { "strassenschluessel": "05962000002404316", "bezeichnung": "Ackenbrock" }, "geometry": { "type": "Point", "coordinates": [ 7.686599264422231, 51.37305788343096 ] } },
{ "type": "Feature", "properties": { "strassenschluessel": "05962000002404317", "bezeichnung": "Platanenstraße" }, "geometry": { "type": "Point", "coordinates": [ 7.684277912073195, 51.371703877558808 ] } },
{ "type": "Feature", "properties": { "strassenschluessel": "05962000002404318", "bezeichnung": "Alexanderhöhe" }, "geometry": { "type": "Point", "coordinates": [ 7.68793067745839, 51.371602851956439 ] } },
{ "type": "Feature", "properties": { "strassenschluessel": "05962000002404319", "bezeichnung": "Alexanderstraße" }, "geometry": { "type": "Point", "coordinates": [ 7.689792184592848, 51.37245812925341 ] } },
{ "type": "Feature", "properties": { "strassenschluessel": "05962000002404320", "bezeichnung": "Ludorffstraße" }, "geometry": { "type": "Point", "coordinates": [ 7.683338211133667, 51.37134348736889 ] } },
{ "type": "Feature", "properties": { "strassenschluessel": "05962000002404321", "bezeichnung": "Am Casparstein" }, "geometry": { "type": "Point", "coordinates": [ 7.68555269910168, 51.371937377860405 ] } },
{ "type": "Feature", "properties": { "strassenschluessel": "05962000002404322", "bezeichnung": "Ankerstraße" }, "geometry": { "type": "Point", "coordinates": [ 7.674014537907022, 51.371717630256569 ] } },
{ "type": "Feature", "properties": { "strassenschluessel": "05962000002404323", "bezeichnung": "Augustastraße" }, "geometry": { "type": "Point", "coordinates": [ 7.682469553369105, 51.371285441308565 ] } },
{ "type": "Feature", "properties": { "strassenschluessel": "05962000002404324", "bezeichnung": "Birkenstraße" }, "geometry": { "type": "Point", "coordinates": [ 7.681486102763455, 51.370146733123683 ] } },
{ "type": "Feature", "properties": { "strassenschluessel": "05962000002404325", "bezeichnung": "Blumenstraße" }, "geometry": { "type": "Point", "coordinates": [ 7.683776386380578, 51.371702326716253 ] } },
{ "type": "Feature", "properties": { "strassenschluessel": "05962000002404326", "bezeichnung": "Brandkopfweg" }, "geometry": { "type": "Point", "coordinates": [ 7.676471717219723, 51.366421403977668 ] } },
{ "type": "Feature", "properties": { "strassenschluessel": "05962000002404327", "bezeichnung": "Drosselweg" }, "geometry": { "type": "Point", "coordinates": [ 7.674873695344981, 51.370470970233306 ] } },
{ "type": "Feature", "properties": { "strassenschluessel": "05962000002404328", "bezeichnung": "Düsingstraße" }, "geometry": { "type": "Point", "coordinates": [ 7.668625763913647, 51.36855100528205 ] } },