{
"type": "FeatureCollection",
"features": [
{ "type": "Feature", "properties": { "strassenschluessel": "05162000001201005", "bezeichnung": "Asternweg" }, "geometry": { "type": "Point", "coordinates": [ 6.565637851673245, 51.137834534701753 ] } },
{ "type": "Feature", "properties": { "strassenschluessel": "05162000001201010", "bezeichnung": "Becherhof" }, "geometry": { "type": "Point", "coordinates": [ 6.573134805030783, 51.133106717132925 ] } },
{ "type": "Feature", "properties": { "strassenschluessel": "05162000001201015", "bezeichnung": "Gürtelweg" }, "geometry": { "type": "Point", "coordinates": [ 6.569529942420843, 51.139136002585978 ] } },
{ "type": "Feature", "properties": { "strassenschluessel": "05162000001201020", "bezeichnung": "Höningstraße" }, "geometry": { "type": "Point", "coordinates": [ 6.566377009721784, 51.137171202073688 ] } },
{ "type": "Feature", "properties": { "strassenschluessel": "05162000001201025", "bezeichnung": "Ginsterweg" }, "geometry": { "type": "Point", "coordinates": [ 6.566117941889549, 51.134359487997415 ] } },
{ "type": "Feature", "properties": { "strassenschluessel": "05162000001201030", "bezeichnung": "Königstraße" }, "geometry": { "type": "Point", "coordinates": [ 6.567425652830797, 51.135296535109319 ] } },
{ "type": "Feature", "properties": { "strassenschluessel": "05162000001201035", "bezeichnung": "Dycker Mühle" }, "geometry": { "type": "Point", "coordinates": [ 6.576372746030354, 51.133475342157723 ] } },
{ "type": "Feature", "properties": { "strassenschluessel": "05162000001201040", "bezeichnung": "Nelkenweg" }, "geometry": { "type": "Point", "coordinates": [ 6.565257678985898, 51.137005814399011 ] } },
{ "type": "Feature", "properties": { "strassenschluessel": "05162000001201045", "bezeichnung": "Ringstraße" }, "geometry": { "type": "Point", "coordinates": [ 6.563629755854214, 51.135904476346049 ] } },
{ "type": "Feature", "properties": { "strassenschluessel": "05162000001201050", "bezeichnung": "Schlossstraße" }, "geometry": { "type": "Point", "coordinates": [ 6.567631768823895, 51.136597094774835 ] } },
{ "type": "Feature", "properties": { "strassenschluessel": "05162000001201052", "bezeichnung": "St. Sebastianus Platz" }, "geometry": null },
{ "type": "Feature", "properties": { "strassenschluessel": "05162000001201060", "bezeichnung": "Wiesenweg" }, "geometry": { "type": "Point", "coordinates": [ 6.570233270757925, 51.137051667074367 ] } },
{ "type": "Feature", "properties": { "strassenschluessel": "05162000001201105", "bezeichnung": "Aldenhovener Straße" }, "geometry": { "type": "Point", "coordinates": [ 6.560338452039587, 51.121412304165062 ] } },
{ "type": "Feature", "properties": { "strassenschluessel": "05162000001201110", "bezeichnung": "Am Broicher Weg" }, "geometry": { "type": "Point", "coordinates": [ 6.569383238839569, 51.116994632613533 ] } },
{ "type": "Feature", "properties": { "strassenschluessel": "05162000001201112", "bezeichnung": "Am Friedhof" }, "geometry": { "type": "Point", "coordinates": [ 6.563577359344288, 51.11600439750805 ] } },
{ "type": "Feature", "properties": { "strassenschluessel": "05162000001201115", "bezeichnung": "Am Kirchblick" }, "geometry": { "type": "Point", "coordinates": [ 6.565587892665816, 51.119063045559471 ] } },
{ "type": "Feature", "properties": { "strassenschluessel": "05162000001201120", "bezeichnung": "Am Scheideweg" }, "geometry": { "type": "Point", "coordinates": [ 6.566620221235311, 51.120548636717857 ] } },
{ "type": "Feature", "properties": { "strassenschluessel": "05162000001201125", "bezeichnung": "An der Maar" }, "geometry": { "type": "Point", "coordinates": [ 6.558934755731723, 51.116407536227598 ] } },
{ "type": "Feature", "properties": { "strassenschluessel": "05162000001201127", "bezeichnung": "Auf dem Acker" }, "geometry": { "type": "Point", "coordinates": [ 6.563680394444376, 51.114860434952533 ] } },
{ "type": "Feature", "properties": { "strassenschluessel": "05162000001201130", "bezeichnung": "Bendweg" }, "geometry": { "type": "Point", "coordinates": [ 6.561169927882739, 51.121431896759148 ] } },
{ "type": "Feature", "properties": { "strassenschluessel": "05162000001201132", "bezeichnung": "Dechant-Königs-Straße" }, "geometry": { "type": "Point", "coordinates": [ 6.56578042319872, 51.121086278524636 ] } },
{ "type": "Feature", "properties": { "strassenschluessel": "05162000001201133", "bezeichnung": "Dinkelweg" }, "geometry": { "type": "Point", "coordinates": [ 6.562230342867577, 51.116232018193237 ] } },
{ "type": "Feature", "properties": { "strassenschluessel": "05162000001201134", "bezeichnung": "Ernteweg" }, "geometry": { "type": "Point", "coordinates": [ 6.563704530857552, 51.115672110554321 ] } },
{ "type": "Feature", "properties": { "strassenschluessel": "05162000001201135", "bezeichnung": "Gierather Straße" }, "geometry": { "type": "Point", "coordinates": [ 6.561334919519909, 51.118269276421522 ] } },
{ "type": "Feature", "properties": { "strassenschluessel": "05162000001201140", "bezeichnung": "Grevenbroicher Straße" }, "geometry": { "type": "Point", "coordinates": [ 6.562563675404287, 51.118757175394535 ] } },
{ "type": "Feature", "properties": { "strassenschluessel": "05162000001201143", "bezeichnung": "Gutenbergstraße" }, "geometry": { "type": "Point", "coordinates": [ 6.557662000586282, 51.115311769344117 ] } },
{ "type": "Feature", "properties": { "strassenschluessel": "05162000001201144", "bezeichnung": "Haferweg" }, "geometry": { "type": "Point", "coordinates": [ 6.563044650994559, 51.114591147008419 ] } },
{ "type": "Feature", "properties": { "strassenschluessel": "05162000001201145", "bezeichnung": "Hemmerdener Straße" }, "geometry": { "type": "Point", "coordinates": [ 6.565467320434849, 51.118753855548427 ] } },
{ "type": "Feature", "properties": { "strassenschluessel": "05162000001201148", "bezeichnung": "Hubert-Granderath-Platz" }, "geometry": null },
{ "type": "Feature", "properties": { "strassenschluessel": "05162000001201149", "bezeichnung": "Im Wiesengrund" }, "geometry": { "type": "Point", "coordinates": [ 6.56275915313374, 51.116028278449022 ] } },
{ "type": "Feature", "properties": { "strassenschluessel": "05162000001201150", "bezeichnung": "In der Bausch" }, "geometry": { "type": "Point", "coordinates": [ 6.560206233463126, 51.121133481212411 ] } },
{ "type": "Feature", "properties": { "strassenschluessel": "05162000001201155", "bezeichnung": "Kirchgasse" }, "geometry": { "type": "Point", "coordinates": [ 6.562317252852183, 51.117974429432067 ] } },
{ "type": "Feature", "properties": { "strassenschluessel": "05162000001201160", "bezeichnung": "Lindenhof" }, "geometry": { "type": "Point", "coordinates": [ 6.560253301346362, 51.116851609831379 ] } },
{ "type": "Feature", "properties": { "strassenschluessel": "05162000001201165", "bezeichnung": "Lingenstraße" }, "geometry": { "type": "Point", "coordinates": [ 6.565604440495536, 51.115947757820656 ] } },
{ "type": "Feature", "properties": { "strassenschluessel": "05162000001201170", "bezeichnung": "Martinusstraße" }, "geometry": { "type": "Point", "coordinates": [ 6.564845175530932, 51.116935153054314 ] } },
{ "type": "Feature", "properties": { "strassenschluessel": "05162000001201175", "bezeichnung": "Mittelstraße" }, "geometry": { "type": "Point", "coordinates": [ 6.567201041566562, 51.11596187305593 ] } },
{ "type": "Feature", "properties": { "strassenschluessel": "05162000001201180", "bezeichnung": "Peter-Stahs-Straße" }, "geometry": { "type": "Point", "coordinates": [ 6.564561438059529, 51.121187214258207 ] } },
{ "type": "Feature", "properties": { "strassenschluessel": "05162000001201185", "bezeichnung": "Oststraße" }, "geometry": { "type": "Point", "coordinates": [ 6.568941411747895, 51.115960177539648 ] } },
{ "type": "Feature", "properties": { "strassenschluessel": "05162000001201190", "bezeichnung": "Paul-Körschgen-Straße" }, "geometry": { "type": "Point", "coordinates": [ 6.56550096592648, 51.119636394273108 ] } },
{ "type": "Feature", "properties": { "strassenschluessel": "05162000001201192", "bezeichnung": "Pommernstraße" }, "geometry": { "type": "Point", "coordinates": [ 6.560674621785068, 51.115503913683575 ] } },
{ "type": "Feature", "properties": { "strassenschluessel": "05162000001201193", "bezeichnung": "Roggenweg" }, "geometry": { "type": "Point", "coordinates": [ 6.561634800585673, 51.115999348520937 ] } },
{ "type": "Feature", "properties": { "strassenschluessel": "05162000001201194", "bezeichnung": "Rederhof" }, "geometry": { "type": "Point", "coordinates": [ 6.557323739500437, 51.117359201258431 ] } },
{ "type": "Feature", "properties": { "strassenschluessel": "05162000001201195", "bezeichnung": "Stessener Pfad" }, "geometry": { "type": "Point", "coordinates": [ 6.561101817474095, 51.118859799756187 ] } },
{ "type": "Feature", "properties": { "strassenschluessel": "05162000001201200", "bezeichnung": "Walter-Schönheit-Straße" }, "geometry": { "type": "Point", "coordinates": [ 6.567834482223812, 51.117407959175033 ] } },
{ "type": "Feature", "properties": { "strassenschluessel": "05162000001201205", "bezeichnung": "Weizenweg" }, "geometry": { "type": "Point", "coordinates": [ 6.561300740259166, 51.116492537036585 ] } },
{ "type": "Feature", "properties": { "strassenschluessel": "05162000001201210", "bezeichnung": "Gerstenweg" }, "geometry": { "type": "Point", "coordinates": [ 6.561486390964746, 51.115545398722887 ] } },
{ "type": "Feature", "properties": { "strassenschluessel": "05162000001201303", "bezeichnung": "Dahlienweg" }, "geometry": { "type": "Point", "coordinates": [ 6.575873309028676, 51.144903715754296 ] } },
{ "type": "Feature", "properties": { "strassenschluessel": "05162000001201304", "bezeichnung": "Eugen-von-Mazenod-Weg" }, "geometry": { "type": "Point", "coordinates": [ 6.576036552060763, 51.143442178402026 ] } },
{ "type": "Feature", "properties": { "strassenschluessel": "05162000001201305", "bezeichnung": "Zum Ruhdall" }, "geometry": { "type": "Point", "coordinates": [ 6.576801323372655, 51.145062821688242 ] } },
{ "type": "Feature", "properties": { "strassenschluessel": "05162000001201306", "bezeichnung": "Dycker Weinhaus" }, "geometry": { "type": "Point", "coordinates": [ 6.572008948201021, 51.146336350751582 ] } },
{ "type": "Feature", "properties": { "strassenschluessel": "05162000001201307", "bezeichnung": "Hahnerhof" }, "geometry": { "type": "Point", "coordinates": [ 6.572530437652011, 51.152381811345954 ] } },
{ "type": "Feature", "properties": { "strassenschluessel": "05162000001201310", "bezeichnung": "Hubertusstraße" }, "geometry": { "type": "Point", "coordinates": [ 6.57608999613218, 51.143834839787608 ] } },
{ "type": "Feature", "properties": { "strassenschluessel": "05162000001201315", "bezeichnung": "Klosterstraße" }, "geometry": { "type": "Point", "coordinates": [ 6.573493069200133, 51.145085514048738 ] } },
{ "type": "Feature", "properties": { "strassenschluessel": "05162000001201320", "bezeichnung": "Leostraße" }, "geometry": { "type": "Point", "coordinates": [ 6.572531456913779, 51.144958143384699 ] } },
{ "type": "Feature", "properties": { "strassenschluessel": "05162000001201323", "bezeichnung": "Marienweg" }, "geometry": { "type": "Point", "coordinates": [ 6.576177902061118, 51.142859088122506 ] } },
{ "type": "Feature", "properties": { "strassenschluessel": "05162000001201325", "bezeichnung": "Vellrather Straße" }, "geometry": { "type": "Point", "coordinates": [ 6.575302408144727, 51.143245472358167 ] } },
{ "type": "Feature", "properties": { "strassenschluessel": "05162000001201330", "bezeichnung": "Nikolauskloster" }, "geometry": { "type": "Point", "coordinates": [ 6.574498438953426, 51.150288019172955 ] } },
{ "type": "Feature", "properties": { "strassenschluessel": "05162000001201350", "bezeichnung": "Ahornweg" }, "geometry": { "type": "Point", "coordinates": [ 6.54956757254351, 51.111106589971293 ] } },
{ "type": "Feature", "properties": { "strassenschluessel": "05162000001201355", "bezeichnung": "Akazienweg" }, "geometry": { "type": "Point", "coordinates": [ 6.542834681410178, 51.108916218975388 ] } },
{ "type": "Feature", "properties": { "strassenschluessel": "05162000001201357", "bezeichnung": "Alte Lindenschule" }, "geometry": { "type": "Point", "coordinates": [ 6.54514533795991, 51.109325756518601 ] } },
{ "type": "Feature", "properties": { "strassenschluessel": "05162000001201360", "bezeichnung": "Am Ackergrund" }, "geometry": { "type": "Point", "coordinates": [ 6.540644057031096, 51.110847990935831 ] } },
{ "type": "Feature", "properties": { "strassenschluessel": "05162000001201365", "bezeichnung": "Auf'm Pilgerweg" }, "geometry": { "type": "Point", "coordinates": [ 6.540586180431037, 51.11186537023179 ] } },
{ "type": "Feature", "properties": { "strassenschluessel": "05162000001201370", "bezeichnung": "Bedburdycker Straße" }, "geometry": { "type": "Point", "coordinates": [ 6.544778584140032, 51.113203526928302 ] } },
{ "type": "Feature", "properties": { "strassenschluessel": "05162000001201373", "bezeichnung": "Beethovenstraße" }, "geometry": { "type": "Point", "coordinates": [ 6.542566686115682, 51.110793268969296 ] } },
{ "type": "Feature", "properties": { "strassenschluessel": "05162000001201375", "bezeichnung": "Birkenweg" }, "geometry": { "type": "Point", "coordinates": [ 6.550036634123463, 51.111685919318006 ] } },
{ "type": "Feature", "properties": { "strassenschluessel": "05162000001201380", "bezeichnung": "Blumenweg" }, "geometry": { "type": "Point", "coordinates": [ 6.549785754270556, 51.11386601008104 ] } },
{ "type": "Feature", "properties": { "strassenschluessel": "05162000001201385", "bezeichnung": "Broicher Kaul" }, "geometry": { "type": "Point", "coordinates": [ 6.5514443287836, 51.112952958976948 ] } },
{ "type": "Feature", "properties": { "strassenschluessel": "05162000001201390", "bezeichnung": "Buchenweg" }, "geometry": { "type": "Point", "coordinates": [ 6.550351616872539, 51.112035195865914 ] } },
{ "type": "Feature", "properties": { "strassenschluessel": "05162000001201395", "bezeichnung": "Burgstraße" }, "geometry": { "type": "Point", "coordinates": [ 6.546437582154284, 51.114288847973988 ] } },
{ "type": "Feature", "properties": { "strassenschluessel": "05162000001201400", "bezeichnung": "Damaschkestraße" }, "geometry": { "type": "Point", "coordinates": [ 6.551606918855794, 51.11099726995144 ] } },
{ "type": "Feature", "properties": { "strassenschluessel": "05162000001201405", "bezeichnung": "Eibenweg" }, "geometry": { "type": "Point", "coordinates": [ 6.550855964411018, 51.112269754442927 ] } },
{ "type": "Feature", "properties": { "strassenschluessel": "05162000001201410", "bezeichnung": "Eichenweg" }, "geometry": { "type": "Point", "coordinates": [ 6.550746520501177, 51.112742392259882 ] } },
{ "type": "Feature", "properties": { "strassenschluessel": "05162000001201413", "bezeichnung": "Erftstraße" }, "geometry": { "type": "Point", "coordinates": [ 6.54093459730974, 51.113465013098292 ] } },
{ "type": "Feature", "properties": { "strassenschluessel": "05162000001201415", "bezeichnung": "Erlenweg" }, "geometry": { "type": "Point", "coordinates": [ 6.5520755065245, 51.112940161469673 ] } },
{ "type": "Feature", "properties": { "strassenschluessel": "05162000001201420", "bezeichnung": "Eschenweg" }, "geometry": { "type": "Point", "coordinates": [ 6.55231869297575, 51.112855404332421 ] } },
{ "type": "Feature", "properties": { "strassenschluessel": "05162000001201425", "bezeichnung": "Espenweg" }, "geometry": { "type": "Point", "coordinates": [ 6.55215572134022, 51.112601785225657 ] } },
{ "type": "Feature", "properties": { "strassenschluessel": "05162000001201427", "bezeichnung": "Fasanenweg" }, "geometry": { "type": "Point", "coordinates": [ 6.544269632733082, 51.108928464868818 ] } },
{ "type": "Feature", "properties": { "strassenschluessel": "05162000001201430", "bezeichnung": "Mozartstraße" }, "geometry": { "type": "Point", "coordinates": [ 6.541035758747784, 51.109668700192323 ] } },
{ "type": "Feature", "properties": { "strassenschluessel": "05162000001201435", "bezeichnung": "Fichtenweg" }, "geometry": { "type": "Point", "coordinates": [ 6.552789076166537, 51.112424411238877 ] } },
{ "type": "Feature", "properties": { "strassenschluessel": "05162000001201440", "bezeichnung": "Auf der Hecke" }, "geometry": { "type": "Point", "coordinates": [ 6.547186120273097, 51.11188263829419 ] } },
{ "type": "Feature", "properties": { "strassenschluessel": "05162000001201445", "bezeichnung": "Bismarckstraße" }, "geometry": { "type": "Point", "coordinates": [ 6.546967979820172, 51.111529575600528 ] } },
{ "type": "Feature", "properties": { "strassenschluessel": "05162000001201450", "bezeichnung": "Grüner Weg" }, "geometry": { "type": "Point", "coordinates": [ 6.548278687284456, 51.1128456146742 ] } },
{ "type": "Feature", "properties": { "strassenschluessel": "05162000001201455", "bezeichnung": "Gubberather Straße" }, "geometry": { "type": "Point", "coordinates": [ 6.545930419877458, 51.109450947573038 ] } },
{ "type": "Feature", "properties": { "strassenschluessel": "05162000001201460", "bezeichnung": "Herberather Weg" }, "geometry": { "type": "Point", "coordinates": [ 6.538336271851541, 51.112305515380527 ] } },
{ "type": "Feature", "properties": { "strassenschluessel": "05162000001201463", "bezeichnung": "Humboldtstraße" }, "geometry": { "type": "Point", "coordinates": [ 6.54792622616629, 51.110097709841689 ] } },
{ "type": "Feature", "properties": { "strassenschluessel": "05162000001201465", "bezeichnung": "Im Broich" }, "geometry": { "type": "Point", "coordinates": [ 6.542366050918184, 51.114903982279749 ] } },
{ "type": "Feature", "properties": { "strassenschluessel": "05162000001201468", "bezeichnung": "Im Gierather Feld" }, "geometry": { "type": "Point", "coordinates": [ 6.543782263339367, 51.110329195075948 ] } },
{ "type": "Feature", "properties": { "strassenschluessel": "05162000001201470", "bezeichnung": "Jüchener Straße" }, "geometry": { "type": "Point", "coordinates": [ 6.540560026014066, 51.110468453254029 ] } },
{ "type": "Feature", "properties": { "strassenschluessel": "05162000001201475", "bezeichnung": "Kastanienweg" }, "geometry": { "type": "Point", "coordinates": [ 6.552157461684785, 51.112268294959108 ] } },
{ "type": "Feature", "properties": { "strassenschluessel": "05162000001201480", "bezeichnung": "Kiefernweg" }, "geometry": { "type": "Point", "coordinates": [ 6.552883522670403, 51.112082393127011 ] } },
{ "type": "Feature", "properties": { "strassenschluessel": "05162000001201485", "bezeichnung": "Am Lindenkreuz" }, "geometry": { "type": "Point", "coordinates": [ 6.552659431077279, 51.11304794372424 ] } },
{ "type": "Feature", "properties": { "strassenschluessel": "05162000001201490", "bezeichnung": "Ligusterweg" }, "geometry": { "type": "Point", "coordinates": [ 6.551964194528812, 51.111868319216619 ] } },
{ "type": "Feature", "properties": { "strassenschluessel": "05162000001201495", "bezeichnung": "Wacholderweg" }, "geometry": { "type": "Point", "coordinates": [ 6.552533345986001, 51.111579775306183 ] } },
{ "type": "Feature", "properties": { "strassenschluessel": "05162000001201496", "bezeichnung": "Memelstraße" }, "geometry": { "type": "Point", "coordinates": [ 6.541549279859598, 51.11328432976638 ] } },
{ "type": "Feature", "properties": { "strassenschluessel": "05162000001201497", "bezeichnung": "Meyerkamp" }, "geometry": { "type": "Point", "coordinates": [ 6.543015655036612, 51.113396824467955 ] } },
{ "type": "Feature", "properties": { "strassenschluessel": "05162000001201498", "bezeichnung": "Montessoristraße" }, "geometry": { "type": "Point", "coordinates": [ 6.54753702879015, 51.109661146552412 ] } },
{ "type": "Feature", "properties": { "strassenschluessel": "05162000001201500", "bezeichnung": "Neuenhovener Straße" }, "geometry": { "type": "Point", "coordinates": [ 6.541947542717088, 51.114384299558026 ] } },
{ "type": "Feature", "properties": { "strassenschluessel": "05162000001201505", "bezeichnung": "Am Engelrath" }, "geometry": { "type": "Point", "coordinates": [ 6.551480410648124, 51.113335800584395 ] } },
{ "type": "Feature", "properties": { "strassenschluessel": "05162000001201510", "bezeichnung": "Pappelweg" }, "geometry": { "type": "Point", "coordinates": [ 6.552199582309725, 51.110666237653412 ] } },
{ "type": "Feature", "properties": { "strassenschluessel": "05162000001201511", "bezeichnung": "Oehmenhof" }, "geometry": null },
{ "type": "Feature", "properties": { "strassenschluessel": "05162000001201512", "bezeichnung": "Pestalozzistraße" }, "geometry": { "type": "Point", "coordinates": [ 6.551719673102513, 51.114063890473524 ] } },
{ "type": "Feature", "properties": { "strassenschluessel": "05162000001201513", "bezeichnung": "Rheinstraße" }, "geometry": { "type": "Point", "coordinates": [ 6.540160498756327, 51.112483541204668 ] } },
{ "type": "Feature", "properties": { "strassenschluessel": "05162000001201515", "bezeichnung": "Rosenweg" }, "geometry": { "type": "Point", "coordinates": [ 6.549742107115838, 51.113348808868146 ] } },
{ "type": "Feature", "properties": { "strassenschluessel": "05162000001201520", "bezeichnung": "Schulstraße" }, "geometry": { "type": "Point", "coordinates": [ 6.550233559980198, 51.114846567256251 ] } },
{ "type": "Feature", "properties": { "strassenschluessel": "05162000001201525", "bezeichnung": "Platanenweg" }, "geometry": { "type": "Point", "coordinates": [ 6.551939574603112, 51.110424796237773 ] } },
{ "type": "Feature", "properties": { "strassenschluessel": "05162000001201527", "bezeichnung": "Raiffeisenweg" }, "geometry": { "type": "Point", "coordinates": [ 6.545771601863787, 51.112065723526527 ] } },
{ "type": "Feature", "properties": { "strassenschluessel": "05162000001201530", "bezeichnung": "Rotdornweg" }, "geometry": { "type": "Point", "coordinates": [ 6.551505387996284, 51.110553552314784 ] } },
{ "type": "Feature", "properties": { "strassenschluessel": "05162000001201533", "bezeichnung": "Von-Stauffenberg-Straße" }, "geometry": { "type": "Point", "coordinates": [ 6.542974590184057, 51.109035130208724 ] } },
{ "type": "Feature", "properties": { "strassenschluessel": "05162000001201535", "bezeichnung": "Zedernweg" }, "geometry": { "type": "Point", "coordinates": [ 6.551052904451518, 51.11068782348655 ] } },
{ "type": "Feature", "properties": { "strassenschluessel": "05162000001201540", "bezeichnung": "Am Jüchener Bach" }, "geometry": { "type": "Point", "coordinates": [ 6.541835727362815, 51.113779299932744 ] } },
{ "type": "Feature", "properties": { "strassenschluessel": "05162000001201605", "bezeichnung": "Auf der Hoheneiche" }, "geometry": { "type": "Point", "coordinates": [ 6.548382798077131, 51.104284247831075 ] } },
{ "type": "Feature", "properties": { "strassenschluessel": "05162000001201610", "bezeichnung": "Am Steenblenk" }, "geometry": { "type": "Point", "coordinates": [ 6.548795763053809, 51.104542865003239 ] } },
{ "type": "Feature", "properties": { "strassenschluessel": "05162000001201613", "bezeichnung": "Am Ulmenberg" }, "geometry": { "type": "Point", "coordinates": [ 6.544033307645064, 51.105689704930406 ] } },
{ "type": "Feature", "properties": { "strassenschluessel": "05162000001201615", "bezeichnung": "Fürther Hecke" }, "geometry": { "type": "Point", "coordinates": [ 6.545641876984575, 51.103213027191046 ] } },
{ "type": "Feature", "properties": { "strassenschluessel": "05162000001201620", "bezeichnung": "Ulmenstraße" }, "geometry": { "type": "Point", "coordinates": [ 6.549547300401658, 51.108692319302804 ] } },
{ "type": "Feature", "properties": { "strassenschluessel": "05162000001201660", "bezeichnung": "Herberath" }, "geometry": { "type": "Point", "coordinates": [ 6.522828131029573, 51.107430360874922 ] } },
{ "type": "Feature", "properties": { "strassenschluessel": "05162000001201680", "bezeichnung": "Barbarastraße" }, "geometry": { "type": "Point", "coordinates": [ 6.520953197859582, 51.132506099480437 ] } },
{ "type": "Feature", "properties": { "strassenschluessel": "05162000001201685", "bezeichnung": "Blumenstraße" }, "geometry": { "type": "Point", "coordinates": [ 6.521858370883299, 51.132841876652101 ] } },
{ "type": "Feature", "properties": { "strassenschluessel": "05162000001201690", "bezeichnung": "Flaßrather Weg" }, "geometry": { "type": "Point", "coordinates": [ 6.518984346584743, 51.132247837226657 ] } },
{ "type": "Feature", "properties": { "strassenschluessel": "05162000001201693", "bezeichnung": "Georgstraße" }, "geometry": { "type": "Point", "coordinates": [ 6.519701521375, 51.132364187419675 ] } },
{ "type": "Feature", "properties": { "strassenschluessel": "05162000001201695", "bezeichnung": "Im Winkel" }, "geometry": { "type": "Point", "coordinates": [ 6.521215006566969, 51.134837727224351 ] } },
{ "type": "Feature", "properties": { "strassenschluessel": "05162000001201698", "bezeichnung": "Landgrabenhof" }, "geometry": { "type": "Point", "coordinates": [ 6.520018324629448, 51.137426435547432 ] } },
{ "type": "Feature", "properties": { "strassenschluessel": "05162000001201700", "bezeichnung": "Lindenstraße" }, "geometry": { "type": "Point", "coordinates": [ 6.522885456482728, 51.132427471229889 ] } },
{ "type": "Feature", "properties": { "strassenschluessel": "05162000001201705", "bezeichnung": "Schlicher Weg" }, "geometry": { "type": "Point", "coordinates": [ 6.521591564811948, 51.134909767993996 ] } },
{ "type": "Feature", "properties": { "strassenschluessel": "05162000001201706", "bezeichnung": "Haus Neuenhoven" }, "geometry": { "type": "Point", "coordinates": [ 6.525099867128935, 51.134351217810625 ] } },
{ "type": "Feature", "properties": { "strassenschluessel": "05162000001201710", "bezeichnung": "Tulpenweg" }, "geometry": { "type": "Point", "coordinates": [ 6.524046887906893, 51.132461163480507 ] } },
{ "type": "Feature", "properties": { "strassenschluessel": "05162000001201715", "bezeichnung": "Wilhelm-Wallenborn-Straße" }, "geometry": { "type": "Point", "coordinates": [ 6.522196366818756, 51.134666016387911 ] } },
{ "type": "Feature", "properties": { "strassenschluessel": "05162000001201750", "bezeichnung": "Denkmalstraße" }, "geometry": { "type": "Point", "coordinates": [ 6.5443443680022, 51.125225527255253 ] } },
{ "type": "Feature", "properties": { "strassenschluessel": "05162000001201755", "bezeichnung": "Dycker Hahnerhof" }, "geometry": { "type": "Point", "coordinates": [ 6.531801998671592, 51.123682648352556 ] } },
{ "type": "Feature", "properties": { "strassenschluessel": "05162000001201760", "bezeichnung": "Ratherhofstraße" }, "geometry": { "type": "Point", "coordinates": [ 6.539499265763667, 51.126361662719148 ] } },
{ "type": "Feature", "properties": { "strassenschluessel": "05162000001201805", "bezeichnung": "Am Alten Hof" }, "geometry": { "type": "Point", "coordinates": [ 6.532476295911249, 51.138511279225092 ] } },
{ "type": "Feature", "properties": { "strassenschluessel": "05162000001201810", "bezeichnung": "Am Tanneneck" }, "geometry": { "type": "Point", "coordinates": [ 6.533889253697273, 51.139166265352976 ] } },
{ "type": "Feature", "properties": { "strassenschluessel": "05162000001201815", "bezeichnung": "Brabanterstraße" }, "geometry": { "type": "Point", "coordinates": [ 6.534860278254124, 51.138029213061991 ] } },
{ "type": "Feature", "properties": { "strassenschluessel": "05162000001201820", "bezeichnung": "Heerstraße" }, "geometry": { "type": "Point", "coordinates": [ 6.537997179267821, 51.137468198090687 ] } },
{ "type": "Feature", "properties": { "strassenschluessel": "05162000001201825", "bezeichnung": "Kapellenstraße" }, "geometry": { "type": "Point", "coordinates": [ 6.534559193266086, 51.138319243998112 ] } },
{ "type": "Feature", "properties": { "strassenschluessel": "05162000001201830", "bezeichnung": "Am Kommer Bach" }, "geometry": { "type": "Point", "coordinates": [ 6.5329410375912, 51.138107227429565 ] } },
{ "type": "Feature", "properties": { "strassenschluessel": "05162000001201833", "bezeichnung": "Schelsener Weg" }, "geometry": { "type": "Point", "coordinates": [ 6.532900061286695, 51.139240198019458 ] } },
{ "type": "Feature", "properties": { "strassenschluessel": "05162000001201845", "bezeichnung": "Schloß Dyck" }, "geometry": { "type": "Point", "coordinates": [ 6.554934991227983, 51.145956554872221 ] } },
{ "type": "Feature", "properties": { "strassenschluessel": "05162000001201850", "bezeichnung": "An der Landstraße" }, "geometry": { "type": "Point", "coordinates": [ 6.549076685461559, 51.116101590977522 ] } },
{ "type": "Feature", "properties": { "strassenschluessel": "05162000001201855", "bezeichnung": "Bachstraße" }, "geometry": { "type": "Point", "coordinates": [ 6.556281724468262, 51.120466374784087 ] } },
{ "type": "Feature", "properties": { "strassenschluessel": "05162000001201860", "bezeichnung": "Broichstraße" }, "geometry": { "type": "Point", "coordinates": [ 6.55230720662831, 51.119187913879252 ] } },
{ "type": "Feature", "properties": { "strassenschluessel": "05162000001201863", "bezeichnung": "Am alten Sportplatz" }, "geometry": { "type": "Point", "coordinates": [ 6.556652835603263, 51.119837328368277 ] } },
{ "type": "Feature", "properties": { "strassenschluessel": "05162000001201865", "bezeichnung": "An der Burg" }, "geometry": { "type": "Point", "coordinates": [ 6.552926085785526, 51.119213923750522 ] } },
{ "type": "Feature", "properties": { "strassenschluessel": "05162000001201870", "bezeichnung": "Düsterstraße" }, "geometry": { "type": "Point", "coordinates": [ 6.550245455261408, 51.12019291049797 ] } },
{ "type": "Feature", "properties": { "strassenschluessel": "05162000001201875", "bezeichnung": "Hahnerhofstraße" }, "geometry": { "type": "Point", "coordinates": [ 6.550192314414904, 51.120772029931885 ] } },
{ "type": "Feature", "properties": { "strassenschluessel": "05162000001201880", "bezeichnung": "Koxhof" }, "geometry": { "type": "Point", "coordinates": [ 6.547210302007405, 51.120345479013977 ] } },
{ "type": "Feature", "properties": { "strassenschluessel": "05162000001201885", "bezeichnung": "Kreuzstraße" }, "geometry": { "type": "Point", "coordinates": [ 6.54968031443414, 51.119462717437294 ] } },
{ "type": "Feature", "properties": { "strassenschluessel": "05162000001201895", "bezeichnung": "Rather Straße" }, "geometry": { "type": "Point", "coordinates": [ 6.555823085604739, 51.121994810746877 ] } },
{ "type": "Feature", "properties": { "strassenschluessel": "05162000001201950", "bezeichnung": "Brückenstraße" }, "geometry": { "type": "Point", "coordinates": [ 6.548879292394592, 51.133005615997902 ] } },
{ "type": "Feature", "properties": { "strassenschluessel": "05162000001201955", "bezeichnung": "Am Zollbrett" }, "geometry": { "type": "Point", "coordinates": [ 6.546355528418418, 51.138158504786993 ] } },
{ "type": "Feature", "properties": { "strassenschluessel": "05162000001201960", "bezeichnung": "Parkstraße" }, "geometry": { "type": "Point", "coordinates": [ 6.548916083377628, 51.136406367030737 ] } },
{ "type": "Feature", "properties": { "strassenschluessel": "05162000001201965", "bezeichnung": "Stessener Weg" }, "geometry": { "type": "Point", "coordinates": [ 6.546935619431082, 51.133873328898716 ] } },
{ "type": "Feature", "properties": { "strassenschluessel": "05162000001202005", "bezeichnung": "Existiert nicht mehr" }, "geometry": null },
{ "type": "Feature", "properties": { "strassenschluessel": "05162000001202010", "bezeichnung": "Existiert Nicht Mehr" }, "geometry": null },
{ "type": "Feature", "properties": { "strassenschluessel": "05162000001202015", "bezeichnung": "Existiert Nicht Mehr" }, "geometry": null },
{ "type": "Feature", "properties": { "strassenschluessel": "05162000001202020", "bezeichnung": "Existiert Nicht Mehr" }, "geometry": null },
{ "type": "Feature", "properties": { "strassenschluessel": "05162000001202030", "bezeichnung": "Existiert Nicht Mehr" }, "geometry": null },
{ "type": "Feature", "properties": { "strassenschluessel": "05162000001202040", "bezeichnung": "Existiert nicht mehr" }, "geometry": null },
{ "type": "Feature", "properties": { "strassenschluessel": "05162000001202055", "bezeichnung": "Existiert Nicht Mehr" }, "geometry": null },
{ "type": "Feature", "properties": { "strassenschluessel": "05162000001202060", "bezeichnung": "Existiert Nicht Mehr" }, "geometry": null },
{ "type": "Feature", "properties": { "strassenschluessel": "05162000001202065", "bezeichnung": "Existiert nicht mehr" }, "geometry": null },
{ "type": "Feature", "properties": { "strassenschluessel": "05162000001202080", "bezeichnung": "Existiert nicht mehr" }, "geometry": null },
{ "type": "Feature", "properties": { "strassenschluessel": "05162000001202085", "bezeichnung": "Existiert Nicht Mehr" }, "geometry": null },
{ "type": "Feature", "properties": { "strassenschluessel": "05162000001202090", "bezeichnung": "Existiert Nicht Mehr" }, "geometry": null },
{ "type": "Feature", "properties": { "strassenschluessel": "05162000001202095", "bezeichnung": "Existiert Nicht Mehr" }, "geometry": null },
{ "type": "Feature", "properties": { "strassenschluessel": "05162000001202100", "bezeichnung": "Existiert Nicht Mehr" }, "geometry": null },
{ "type": "Feature", "properties": { "strassenschluessel": "05162000001202109", "bezeichnung": "Existiert nicht mehr" }, "geometry": null },
{ "type": "Feature", "properties": { "strassenschluessel": "05162000001202125", "bezeichnung": "Existiert nicht mehr" }, "geometry": null },
{ "type": "Feature", "properties": { "strassenschluessel": "05162000001202135", "bezeichnung": "Existiert Nicht Mehr" }, "geometry": null },
{ "type": "Feature", "properties": { "strassenschluessel": "05162000001203000", "bezeichnung": "Am Behrenhof" }, "geometry": { "type": "Point", "coordinates": [ 6.453720821003426, 51.101002074961393 ] } },
{ "type": "Feature", "properties": { "strassenschluessel": "05162000001203001", "bezeichnung": "Am Hütz" }, "geometry": { "type": "Point", "coordinates": [ 6.450148339164012, 51.098442127838652 ] } },
{ "type": "Feature", "properties": { "strassenschluessel": "05162000001203002", "bezeichnung": "Am Fließ" }, "geometry": { "type": "Point", "coordinates": [ 6.45105660615732, 51.097748297460356 ] } },
{ "type": "Feature", "properties": { "strassenschluessel": "05162000001203003", "bezeichnung": "Am Graben" }, "geometry": { "type": "Point", "coordinates": [ 6.449907980958818, 51.097509119178078 ] } },
{ "type": "Feature", "properties": { "strassenschluessel": "05162000001203005", "bezeichnung": "Am Wolterskamp" }, "geometry": { "type": "Point", "coordinates": [ 6.449683116825, 51.101842629567791 ] } },
{ "type": "Feature", "properties": { "strassenschluessel": "05162000001203008", "bezeichnung": "An der Sandkaule" }, "geometry": { "type": "Point", "coordinates": [ 6.4505619818331, 51.099157065133653 ] } },
{ "type": "Feature", "properties": { "strassenschluessel": "05162000001203010", "bezeichnung": "An der Siedlung" }, "geometry": { "type": "Point", "coordinates": [ 6.457330783540718, 51.093722100691529 ] } },
{ "type": "Feature", "properties": { "strassenschluessel": "05162000001203015", "bezeichnung": "An der Turnhalle" }, "geometry": { "type": "Point", "coordinates": [ 6.460926154671935, 51.09757040577604 ] } },
{ "type": "Feature", "properties": { "strassenschluessel": "05162000001203020", "bezeichnung": "Bahnhofstraße" }, "geometry": { "type": "Point", "coordinates": [ 6.460882253113384, 51.102373428834539 ] } },
{ "type": "Feature", "properties": { "strassenschluessel": "05162000001203025", "bezeichnung": "Bärenstraße" }, "geometry": { "type": "Point", "coordinates": [ 6.45673183178786, 51.101596201659895 ] } },
{ "type": "Feature", "properties": { "strassenschluessel": "05162000001203030", "bezeichnung": "Beckerstraße" }, "geometry": { "type": "Point", "coordinates": [ 6.45497969689817, 51.100109058813345 ] } },
{ "type": "Feature", "properties": { "strassenschluessel": "05162000001203032", "bezeichnung": "Belmener Hof" }, "geometry": { "type": "Point", "coordinates": [ 6.469453859799184, 51.096945495613859 ] } },
{ "type": "Feature", "properties": { "strassenschluessel": "05162000001203033", "bezeichnung": "Bertha-von-Suttner-Straße" }, "geometry": { "type": "Point", "coordinates": [ 6.458213068463054, 51.098491331018323 ] } },
{ "type": "Feature", "properties": { "strassenschluessel": "05162000001203035", "bezeichnung": "Birkenallee" }, "geometry": { "type": "Point", "coordinates": [ 6.465285469471691, 51.097199590656196 ] } },
{ "type": "Feature", "properties": { "strassenschluessel": "05162000001203039", "bezeichnung": "Buschhof" }, "geometry": { "type": "Point", "coordinates": [ 6.447961830130127, 51.108424687673427 ] } },
{ "type": "Feature", "properties": { "strassenschluessel": "05162000001203040", "bezeichnung": "Veilchenstraße" }, "geometry": { "type": "Point", "coordinates": [ 6.465928243952668, 51.098857159546725 ] } },
{ "type": "Feature", "properties": { "strassenschluessel": "05162000001203045", "bezeichnung": "Elsa-Brandström-Straße" }, "geometry": { "type": "Point", "coordinates": [ 6.459155973618721, 51.099010287968269 ] } },
{ "type": "Feature", "properties": { "strassenschluessel": "05162000001203047", "bezeichnung": "Falkensteinstraße" }, "geometry": { "type": "Point", "coordinates": [ 6.466421358657144, 51.102134257451119 ] } },
{ "type": "Feature", "properties": { "strassenschluessel": "05162000001203050", "bezeichnung": "Feldstraße" }, "geometry": { "type": "Point", "coordinates": [ 6.465575026968965, 51.100488854019801 ] } },
{ "type": "Feature", "properties": { "strassenschluessel": "05162000001203055", "bezeichnung": "Freiheitstraße" }, "geometry": { "type": "Point", "coordinates": [ 6.458015224058784, 51.097552159642262 ] } },
{ "type": "Feature", "properties": { "strassenschluessel": "05162000001203060", "bezeichnung": "Friedensstraße" }, "geometry": { "type": "Point", "coordinates": [ 6.457946182074654, 51.096918652153882 ] } },
{ "type": "Feature", "properties": { "strassenschluessel": "05162000001203065", "bezeichnung": "Friedrich-Ebert-Straße" }, "geometry": { "type": "Point", "coordinates": [ 6.462413325322658, 51.099034526470234 ] } },
{ "type": "Feature", "properties": { "strassenschluessel": "05162000001203070", "bezeichnung": "Gartenstraße" }, "geometry": { "type": "Point", "coordinates": [ 6.466863856779174, 51.101316015841498 ] } },
{ "type": "Feature", "properties": { "strassenschluessel": "05162000001203072", "bezeichnung": "Geschwister-Scholl-Straße" }, "geometry": { "type": "Point", "coordinates": [ 6.458963795965923, 51.097439011441679 ] } },
{ "type": "Feature", "properties": { "strassenschluessel": "05162000001203075", "bezeichnung": "Goethestraße" }, "geometry": { "type": "Point", "coordinates": [ 6.453070347036978, 51.095682945572946 ] } },
{ "type": "Feature", "properties": { "strassenschluessel": "05162000001203080", "bezeichnung": "Gottfried-Könzgen-Straße" }, "geometry": { "type": "Point", "coordinates": [ 6.462350862373448, 51.09871632207328 ] } },
{ "type": "Feature", "properties": { "strassenschluessel": "05162000001203081", "bezeichnung": "Hans-Diekmann-Straße" }, "geometry": { "type": "Point", "coordinates": [ 6.464747773705104, 51.099758172206933 ] } },
{ "type": "Feature", "properties": { "strassenschluessel": "05162000001203082", "bezeichnung": "Heckerweg" }, "geometry": { "type": "Point", "coordinates": [ 6.451127616061432, 51.101097343113281 ] } },
{ "type": "Feature", "properties": { "strassenschluessel": "05162000001203083", "bezeichnung": "Hensenhof" }, "geometry": { "type": "Point", "coordinates": [ 6.446538006947299, 51.098286963574893 ] } },
{ "type": "Feature", "properties": { "strassenschluessel": "05162000001203085", "bezeichnung": "Hermann-Löns-Straße" }, "geometry": { "type": "Point", "coordinates": [ 6.455352530599549, 51.095045761470622 ] } },
{ "type": "Feature", "properties": { "strassenschluessel": "05162000001203090", "bezeichnung": "Hochstraße" }, "geometry": { "type": "Point", "coordinates": [ 6.459567827446055, 51.102568923939891 ] } },
{ "type": "Feature", "properties": { "strassenschluessel": "05162000001203095", "bezeichnung": "Holzer Straße" }, "geometry": { "type": "Point", "coordinates": [ 6.455773549009324, 51.097923527758567 ] } },
{ "type": "Feature", "properties": { "strassenschluessel": "05162000001203100", "bezeichnung": "Kanalstraße" }, "geometry": { "type": "Point", "coordinates": [ 6.44969472377212, 51.100068511651308 ] } },
{ "type": "Feature", "properties": { "strassenschluessel": "05162000001203105", "bezeichnung": "Theodor-Heuss-Straße" }, "geometry": { "type": "Point", "coordinates": [ 6.459468530249696, 51.097564446780382 ] } },
{ "type": "Feature", "properties": { "strassenschluessel": "05162000001203106", "bezeichnung": "Langjaaß" }, "geometry": { "type": "Point", "coordinates": [ 6.455703645126271, 51.098526623941702 ] } },
{ "type": "Feature", "properties": { "strassenschluessel": "05162000001203110", "bezeichnung": "Adenauerplatz" }, "geometry": { "type": "Point", "coordinates": [ 6.45824368010901, 51.10019765026157 ] } },
{ "type": "Feature", "properties": { "strassenschluessel": "05162000001203114", "bezeichnung": "Marie-Juchacz-Straße" }, "geometry": { "type": "Point", "coordinates": [ 6.457985745654859, 51.098852675286274 ] } },
{ "type": "Feature", "properties": { "strassenschluessel": "05162000001203115", "bezeichnung": "Martin-Köllen-Straße" }, "geometry": { "type": "Point", "coordinates": [ 6.46443531258312, 51.103444384104733 ] } },
{ "type": "Feature", "properties": { "strassenschluessel": "05162000001203120", "bezeichnung": "Mühlenstraße" }, "geometry": { "type": "Point", "coordinates": [ 6.463995505120619, 51.099431017659555 ] } },
{ "type": "Feature", "properties": { "strassenschluessel": "05162000001203125", "bezeichnung": "Nelkenstraße" }, "geometry": { "type": "Point", "coordinates": [ 6.462774983899057, 51.097726752285716 ] } },
{ "type": "Feature", "properties": { "strassenschluessel": "05162000001203127", "bezeichnung": "Niersstraße" }, "geometry": { "type": "Point", "coordinates": [ 6.454160490017074, 51.10361427459987 ] } },
{ "type": "Feature", "properties": { "strassenschluessel": "05162000001203130", "bezeichnung": "Nordring" }, "geometry": { "type": "Point", "coordinates": [ 6.452266721142293, 51.103476151127076 ] } },
{ "type": "Feature", "properties": { "strassenschluessel": "05162000001203133", "bezeichnung": "Regioparkring" }, "geometry": { "type": "Point", "coordinates": [ 6.44391036370677, 51.108850032405819 ] } },
{ "type": "Feature", "properties": { "strassenschluessel": "05162000001203135", "bezeichnung": "Rheydter Straße" }, "geometry": { "type": "Point", "coordinates": [ 6.452206821083099, 51.102693346677782 ] } },
{ "type": "Feature", "properties": { "strassenschluessel": "05162000001203140", "bezeichnung": "Oderstraße" }, "geometry": { "type": "Point", "coordinates": [ 6.455904172906042, 51.103233650579689 ] } },
{ "type": "Feature", "properties": { "strassenschluessel": "05162000001203145", "bezeichnung": "Weichselstraße" }, "geometry": { "type": "Point", "coordinates": [ 6.45867969187479, 51.09588585495095 ] } },
{ "type": "Feature", "properties": { "strassenschluessel": "05162000001203150", "bezeichnung": "Peter-Busch-Straße" }, "geometry": { "type": "Point", "coordinates": [ 6.46947870776988, 51.099407979282752 ] } },
{ "type": "Feature", "properties": { "strassenschluessel": "05162000001203155", "bezeichnung": "Poststraße" }, "geometry": { "type": "Point", "coordinates": [ 6.459900640876278, 51.10279008608061 ] } },
{ "type": "Feature", "properties": { "strassenschluessel": "05162000001203160", "bezeichnung": "Rosenstraße" }, "geometry": { "type": "Point", "coordinates": [ 6.465631379874965, 51.097341206247357 ] } },
{ "type": "Feature", "properties": { "strassenschluessel": "05162000001203165", "bezeichnung": "Schillerstraße" }, "geometry": { "type": "Point", "coordinates": [ 6.453675281751938, 51.096336356571179 ] } },
{ "type": "Feature", "properties": { "strassenschluessel": "05162000001203166", "bezeichnung": "Schluppe-Schäng-Straße" }, "geometry": { "type": "Point", "coordinates": [ 6.459384754805826, 51.106170675190363 ] } },
{ "type": "Feature", "properties": { "strassenschluessel": "05162000001203168", "bezeichnung": "Siemensstraße" }, "geometry": { "type": "Point", "coordinates": [ 6.470236918316957, 51.097992628555296 ] } },
{ "type": "Feature", "properties": { "strassenschluessel": "05162000001203170", "bezeichnung": "Rathausstraße" }, "geometry": { "type": "Point", "coordinates": [ 6.455965224736087, 51.101300666596416 ] } },
{ "type": "Feature", "properties": { "strassenschluessel": "05162000001203175", "bezeichnung": "Talstraße" }, "geometry": { "type": "Point", "coordinates": [ 6.451316675902389, 51.09850598636158 ] } },
{ "type": "Feature", "properties": { "strassenschluessel": "05162000001203180", "bezeichnung": "Tulpenstraße" }, "geometry": { "type": "Point", "coordinates": [ 6.462867947436485, 51.098743937918378 ] } },
{ "type": "Feature", "properties": { "strassenschluessel": "05162000001203185", "bezeichnung": "Wanloer Straße" }, "geometry": { "type": "Point", "coordinates": [ 6.448778402796251, 51.098494082003349 ] } },
{ "type": "Feature", "properties": { "strassenschluessel": "05162000001203190", "bezeichnung": "Weidenstraße" }, "geometry": { "type": "Point", "coordinates": [ 6.454545967006366, 51.102157514813172 ] } },
{ "type": "Feature", "properties": { "strassenschluessel": "05162000001203195", "bezeichnung": "Von Werth-Straße" }, "geometry": { "type": "Point", "coordinates": [ 6.459329295810028, 51.10308337821872 ] } },
{ "type": "Feature", "properties": { "strassenschluessel": "05162000001203200", "bezeichnung": "Weststraße" }, "geometry": { "type": "Point", "coordinates": [ 6.45476839319252, 51.096030507091278 ] } },
{ "type": "Feature", "properties": { "strassenschluessel": "05162000001203205", "bezeichnung": "Wickrather Straße" }, "geometry": { "type": "Point", "coordinates": [ 6.44913648955741, 51.101446923635415 ] } },
{ "type": "Feature", "properties": { "strassenschluessel": "05162000001203210", "bezeichnung": "Alte Römerstraße" }, "geometry": { "type": "Point", "coordinates": [ 6.457449337513023, 51.099806218800431 ] } },
{ "type": "Feature", "properties": { "strassenschluessel": "05162000001203230", "bezeichnung": "Zum Regiopark" }, "geometry": { "type": "Point", "coordinates": [ 6.459930804163579, 51.106845715070691 ] } },
{ "type": "Feature", "properties": { "strassenschluessel": "05162000001203400", "bezeichnung": "Existiert Nicht Mehr" }, "geometry": null },
{ "type": "Feature", "properties": { "strassenschluessel": "05162000001203405", "bezeichnung": "Existiert Nicht Mehr" }, "geometry": null },
{ "type": "Feature", "properties": { "strassenschluessel": "05162000001203410", "bezeichnung": "Existiert Nicht Mehr" }, "geometry": null },
{ "type": "Feature", "properties": { "strassenschluessel": "05162000001203415", "bezeichnung": "Existiert Nicht Mehr" }, "geometry": null },
{ "type": "Feature", "properties": { "strassenschluessel": "05162000001203425", "bezeichnung": "Existiert Nicht Mehr" }, "geometry": null },
{ "type": "Feature", "properties": { "strassenschluessel": "05162000001203430", "bezeichnung": "Existiert Nicht Mehr" }, "geometry": null },
{ "type": "Feature", "properties": { "strassenschluessel": "05162000001203435", "bezeichnung": "Existiert Nicht Mehr" }, "geometry": null },
{ "type": "Feature", "properties": { "strassenschluessel": "05162000001203440", "bezeichnung": "Existiert Nicht Mehr" }, "geometry": null },
{ "type": "Feature", "properties": { "strassenschluessel": "05162000001203445", "bezeichnung": "Existiert Nicht Mehr" }, "geometry": null },
{ "type": "Feature", "properties": { "strassenschluessel": "05162000001203500", "bezeichnung": "Existiert Nicht Mehr" }, "geometry": null },
{ "type": "Feature", "properties": { "strassenschluessel": "05162000001203505", "bezeichnung": "Existiert Nicht Mehr" }, "geometry": null },
{ "type": "Feature", "properties": { "strassenschluessel": "05162000001203510", "bezeichnung": "Existiert Nicht Mehr" }, "geometry": null },
{ "type": "Feature", "properties": { "strassenschluessel": "05162000001203515", "bezeichnung": "Existiert Nicht Mehr" }, "geometry": null },
{ "type": "Feature", "properties": { "strassenschluessel": "05162000001203520", "bezeichnung": "Existiert Nicht Mehr" }, "geometry": null },
{ "type": "Feature", "properties": { "strassenschluessel": "05162000001203525", "bezeichnung": "Existiert Nicht Mehr" }, "geometry": null },
{ "type": "Feature", "properties": { "strassenschluessel": "05162000001203530", "bezeichnung": "Existiert Nicht Mehr" }, "geometry": null },
{ "type": "Feature", "properties": { "strassenschluessel": "05162000001203535", "bezeichnung": "Existiert Nicht Mehr" }, "geometry": null },
{ "type": "Feature", "properties": { "strassenschluessel": "05162000001203540", "bezeichnung": "Existiert Nicht Mehr" }, "geometry": null },
{ "type": "Feature", "properties": { "strassenschluessel": "05162000001203545", "bezeichnung": "Existiert Nicht Mehr" }, "geometry": null },
{ "type": "Feature", "properties": { "strassenschluessel": "05162000001203550", "bezeichnung": "Existiert Nicht Mehr" }, "geometry": null },
{ "type": "Feature", "properties": { "strassenschluessel": "05162000001203555", "bezeichnung": "Existiert Nicht Mehr" }, "geometry": null },
{ "type": "Feature", "properties": { "strassenschluessel": "05162000001203560", "bezeichnung": "Existiert Nicht Mehr" }, "geometry": null },
{ "type": "Feature", "properties": { "strassenschluessel": "05162000001203565", "bezeichnung": "Existiert Nicht Mehr" }, "geometry": null },
{ "type": "Feature", "properties": { "strassenschluessel": "05162000001203570", "bezeichnung": "Existiert Nicht Mehr" }, "geometry": null },
{ "type": "Feature", "properties": { "strassenschluessel": "05162000001203575", "bezeichnung": "Existiert Nicht Mehr" }, "geometry": null },
{ "type": "Feature", "properties": { "strassenschluessel": "05162000001203580", "bezeichnung": "Existiert Nicht Mehr" }, "geometry": null },
{ "type": "Feature", "properties": { "strassenschluessel": "05162000001203585", "bezeichnung": "Existiert Nicht Mehr" }, "geometry": null },
{ "type": "Feature", "properties": { "strassenschluessel": "05162000001203590", "bezeichnung": "Existiert Nicht Mehr" }, "geometry": null },
{ "type": "Feature", "properties": { "strassenschluessel": "05162000001203595", "bezeichnung": "Existiert Nicht Mehr" }, "geometry": null },
{ "type": "Feature", "properties": { "strassenschluessel": "05162000001203600", "bezeichnung": "Existiert Nicht Mehr" }, "geometry": null },
{ "type": "Feature", "properties": { "strassenschluessel": "05162000001203700", "bezeichnung": "Existiert Nicht Mehr" }, "geometry": null },
{ "type": "Feature", "properties": { "strassenschluessel": "05162000001203705", "bezeichnung": "Existiert Nicht Mehr" }, "geometry": null },
{ "type": "Feature", "properties": { "strassenschluessel": "05162000001204003", "bezeichnung": "Adam-Ries-Straße" }, "geometry": { "type": "Point", "coordinates": [ 6.516205628931396, 51.100946104234524 ] } },
{ "type": "Feature", "properties": { "strassenschluessel": "05162000001204005", "bezeichnung": "Alleestraße" }, "geometry": { "type": "Point", "coordinates": [ 6.500818988145579, 51.101372454730452 ] } },
{ "type": "Feature", "properties": { "strassenschluessel": "05162000001204006", "bezeichnung": "Am Rathaus" }, "geometry": { "type": "Point", "coordinates": [ 6.500820886333314, 51.100116624439778 ] } },
{ "type": "Feature", "properties": { "strassenschluessel": "05162000001204010", "bezeichnung": "Am Ringofen" }, "geometry": { "type": "Point", "coordinates": [ 6.496773606691357, 51.101969592694914 ] } },
{ "type": "Feature", "properties": { "strassenschluessel": "05162000001204015", "bezeichnung": "Amselstraße" }, "geometry": { "type": "Point", "coordinates": [ 6.508727064663172, 51.10256619807673 ] } },
{ "type": "Feature", "properties": { "strassenschluessel": "05162000001204020", "bezeichnung": "Auf der Löh" }, "geometry": { "type": "Point", "coordinates": [ 6.502762813776274, 51.098753083928734 ] } },
{ "type": "Feature", "properties": { "strassenschluessel": "05162000001204023", "bezeichnung": "Siegmund-Blanckertz-Straße" }, "geometry": { "type": "Point", "coordinates": [ 6.515264072247064, 51.1017059501944 ] } },
{ "type": "Feature", "properties": { "strassenschluessel": "05162000001204025", "bezeichnung": "Silostraße" }, "geometry": { "type": "Point", "coordinates": [ 6.50159361616964, 51.097679670360158 ] } },
{ "type": "Feature", "properties": { "strassenschluessel": "05162000001204030", "bezeichnung": "Birkenstraße" }, "geometry": { "type": "Point", "coordinates": [ 6.511159170196462, 51.098337993473315 ] } },
{ "type": "Feature", "properties": { "strassenschluessel": "05162000001204035", "bezeichnung": "Bissen" }, "geometry": { "type": "Point", "coordinates": [ 6.522391178667518, 51.112629341362812 ] } },
{ "type": "Feature", "properties": { "strassenschluessel": "05162000001204040", "bezeichnung": "Breslauer Straße" }, "geometry": { "type": "Point", "coordinates": [ 6.495722519707427, 51.100575922166243 ] } },
{ "type": "Feature", "properties": { "strassenschluessel": "05162000001204045", "bezeichnung": "Buschgasse" }, "geometry": { "type": "Point", "coordinates": [ 6.505781271071671, 51.099643015955948 ] } },
{ "type": "Feature", "properties": { "strassenschluessel": "05162000001204050", "bezeichnung": "Dechant-Bäumer-Straße" }, "geometry": { "type": "Point", "coordinates": [ 6.500049435455004, 51.097928287032879 ] } },
{ "type": "Feature", "properties": { "strassenschluessel": "05162000001204055", "bezeichnung": "Fallerstraße" }, "geometry": { "type": "Point", "coordinates": [ 6.503679212581781, 51.103635429010453 ] } },
{ "type": "Feature", "properties": { "strassenschluessel": "05162000001204060", "bezeichnung": "Finkenweg" }, "geometry": { "type": "Point", "coordinates": [ 6.509506668602939, 51.102539383180527 ] } },
{ "type": "Feature", "properties": { "strassenschluessel": "05162000001204065", "bezeichnung": "Frankenstraße" }, "geometry": { "type": "Point", "coordinates": [ 6.498314506152512, 51.102665936455509 ] } },
{ "type": "Feature", "properties": { "strassenschluessel": "05162000001204070", "bezeichnung": "Friedhofstraße" }, "geometry": { "type": "Point", "coordinates": [ 6.507205923357768, 51.098408300188318 ] } },
{ "type": "Feature", "properties": { "strassenschluessel": "05162000001204073", "bezeichnung": "Fuchsberg" }, "geometry": { "type": "Point", "coordinates": [ 6.497871477507394, 51.10543725292154 ] } },
{ "type": "Feature", "properties": { "strassenschluessel": "05162000001204075", "bezeichnung": "Existiert Nicht Mehr" }, "geometry": null },
{ "type": "Feature", "properties": { "strassenschluessel": "05162000001204080", "bezeichnung": "Hamscherhof" }, "geometry": { "type": "Point", "coordinates": [ 6.504986363911385, 51.105657525248169 ] } },
{ "type": "Feature", "properties": { "strassenschluessel": "05162000001204081", "bezeichnung": "Hamscherstraße" }, "geometry": { "type": "Point", "coordinates": [ 6.500470129050138, 51.106189290551214 ] } },
{ "type": "Feature", "properties": { "strassenschluessel": "05162000001204082", "bezeichnung": "Hamscher Weiher" }, "geometry": { "type": "Point", "coordinates": [ 6.505876674988837, 51.104688290879196 ] } },
{ "type": "Feature", "properties": { "strassenschluessel": "05162000001204083", "bezeichnung": "Hasenweg" }, "geometry": { "type": "Point", "coordinates": [ 6.499336254071869, 51.103814916308067 ] } },
{ "type": "Feature", "properties": { "strassenschluessel": "05162000001204085", "bezeichnung": "Heinrich-Lersch-Straße" }, "geometry": { "type": "Point", "coordinates": [ 6.49689175368099, 51.100874207274373 ] } },
{ "type": "Feature", "properties": { "strassenschluessel": "05162000001204087", "bezeichnung": "Hildegard-von-Bingen-Straße" }, "geometry": { "type": "Point", "coordinates": [ 6.513721582976698, 51.099863244181876 ] } },
{ "type": "Feature", "properties": { "strassenschluessel": "05162000001204090", "bezeichnung": "Huckingshof" }, "geometry": { "type": "Point", "coordinates": [ 6.504922464725484, 51.101753865104406 ] } },
{ "type": "Feature", "properties": { "strassenschluessel": "05162000001204092", "bezeichnung": "Im Bauerfeld" }, "geometry": { "type": "Point", "coordinates": [ 6.507178103113636, 51.103848467903518 ] } },
{ "type": "Feature", "properties": { "strassenschluessel": "05162000001204093", "bezeichnung": "In den Gärten" }, "geometry": { "type": "Point", "coordinates": [ 6.505933431021957, 51.102459702713254 ] } },
{ "type": "Feature", "properties": { "strassenschluessel": "05162000001204095", "bezeichnung": "In der Aue" }, "geometry": { "type": "Point", "coordinates": [ 6.51349607490942, 51.098197391629533 ] } },
{ "type": "Feature", "properties": { "strassenschluessel": "05162000001204100", "bezeichnung": "In den Weiden" }, "geometry": { "type": "Point", "coordinates": [ 6.510763960318044, 51.101977533272432 ] } },
{ "type": "Feature", "properties": { "strassenschluessel": "05162000001204105", "bezeichnung": "Jägerhof" }, "geometry": { "type": "Point", "coordinates": [ 6.479469299281617, 51.111821857263863 ] } },
{ "type": "Feature", "properties": { "strassenschluessel": "05162000001204107", "bezeichnung": "Jakobusweg" }, "geometry": { "type": "Point", "coordinates": [ 6.504811112362104, 51.099562699964132 ] } },
{ "type": "Feature", "properties": { "strassenschluessel": "05162000001204110", "bezeichnung": "Jüchenerbroich" }, "geometry": { "type": "Point", "coordinates": [ 6.523038491305849, 51.110069894963004 ] } },
{ "type": "Feature", "properties": { "strassenschluessel": "05162000001204112", "bezeichnung": "Jüchener Mühle" }, "geometry": { "type": "Point", "coordinates": [ 6.506876568985169, 51.097300138763728 ] } },
{ "type": "Feature", "properties": { "strassenschluessel": "05162000001204115", "bezeichnung": "Jülicher Straße" }, "geometry": { "type": "Point", "coordinates": [ 6.501541527381902, 51.096560223831901 ] } },
{ "type": "Feature", "properties": { "strassenschluessel": "05162000001204120", "bezeichnung": "Kasterstraße" }, "geometry": { "type": "Point", "coordinates": [ 6.504897101513351, 51.09788869305077 ] } },
{ "type": "Feature", "properties": { "strassenschluessel": "05162000001204125", "bezeichnung": "Käthe-Kollwitz-Weg" }, "geometry": { "type": "Point", "coordinates": [ 6.515160158072844, 51.100338504072973 ] } },
{ "type": "Feature", "properties": { "strassenschluessel": "05162000001204130", "bezeichnung": "Kelzenberger Straße" }, "geometry": { "type": "Point", "coordinates": [ 6.501124813905561, 51.103481763280939 ] } },
{ "type": "Feature", "properties": { "strassenschluessel": "05162000001204135", "bezeichnung": "Kettelerstraße" }, "geometry": { "type": "Point", "coordinates": [ 6.51066464897911, 51.104651945099278 ] } },
{ "type": "Feature", "properties": { "strassenschluessel": "05162000001204140", "bezeichnung": "Kirchstraße" }, "geometry": { "type": "Point", "coordinates": [ 6.502724817608671, 51.100436551820415 ] } },
{ "type": "Feature", "properties": { "strassenschluessel": "05162000001204145", "bezeichnung": "Kölner Straße" }, "geometry": { "type": "Point", "coordinates": [ 6.510294958704966, 51.098960244935064 ] } },
{ "type": "Feature", "properties": { "strassenschluessel": "05162000001204150", "bezeichnung": "Königsberger Straße" }, "geometry": { "type": "Point", "coordinates": [ 6.494995113300051, 51.100799440681975 ] } },
{ "type": "Feature", "properties": { "strassenschluessel": "05162000001204153", "bezeichnung": "Konrad-Duden-Allee" }, "geometry": { "type": "Point", "coordinates": [ 6.515671840450781, 51.101184497143052 ] } },
{ "type": "Feature", "properties": { "strassenschluessel": "05162000001204155", "bezeichnung": "Kolpingweg" }, "geometry": { "type": "Point", "coordinates": [ 6.508718309843142, 51.10508095984536 ] } },
{ "type": "Feature", "properties": { "strassenschluessel": "05162000001204160", "bezeichnung": "Kurzer Weg" }, "geometry": { "type": "Point", "coordinates": [ 6.503118995888423, 51.105237611622044 ] } },
{ "type": "Feature", "properties": { "strassenschluessel": "05162000001204165", "bezeichnung": "Langstegerweg" }, "geometry": { "type": "Point", "coordinates": [ 6.502116246127392, 51.098836788068056 ] } },
{ "type": "Feature", "properties": { "strassenschluessel": "05162000001204168", "bezeichnung": "Leerser Straße" }, "geometry": { "type": "Point", "coordinates": [ 6.500717724486203, 51.105725046978286 ] } },
{ "type": "Feature", "properties": { "strassenschluessel": "05162000001204170", "bezeichnung": "Markt" }, "geometry": { "type": "Point", "coordinates": [ 6.503530345165121, 51.10072703288035 ] } },
{ "type": "Feature", "properties": { "strassenschluessel": "05162000001204171", "bezeichnung": "Lise-Meitner-Straße" }, "geometry": { "type": "Point", "coordinates": [ 6.513172528097073, 51.101927783818923 ] } },
{ "type": "Feature", "properties": { "strassenschluessel": "05162000001204172", "bezeichnung": "Nelly-Sachs-Weg" }, "geometry": { "type": "Point", "coordinates": [ 6.515597490689379, 51.099334812162603 ] } },
{ "type": "Feature", "properties": { "strassenschluessel": "05162000001204173", "bezeichnung": "Meisingstraße" }, "geometry": { "type": "Point", "coordinates": [ 6.50040760456664, 51.103197229504872 ] } },
{ "type": "Feature", "properties": { "strassenschluessel": "05162000001204174", "bezeichnung": "Mühlenschleide" }, "geometry": { "type": "Point", "coordinates": [ 6.499504738400891, 51.105245047028689 ] } },
{ "type": "Feature", "properties": { "strassenschluessel": "05162000001204175", "bezeichnung": "Neusser Straße" }, "geometry": { "type": "Point", "coordinates": [ 6.526091687129182, 51.101093270336342 ] } },
{ "type": "Feature", "properties": { "strassenschluessel": "05162000001204180", "bezeichnung": "Odenkirchener Straße" }, "geometry": { "type": "Point", "coordinates": [ 6.500539528452658, 51.102986323425441 ] } },
{ "type": "Feature", "properties": { "strassenschluessel": "05162000001204183", "bezeichnung": "Otto-Hahn-Ring" }, "geometry": { "type": "Point", "coordinates": [ 6.512038001622574, 51.101566840209124 ] } },
{ "type": "Feature", "properties": { "strassenschluessel": "05162000001204185", "bezeichnung": "Päscheng" }, "geometry": { "type": "Point", "coordinates": [ 6.499979541704397, 51.099296025419314 ] } },
{ "type": "Feature", "properties": { "strassenschluessel": "05162000001204190", "bezeichnung": "Pastor-Haarbeck-Straße" }, "geometry": { "type": "Point", "coordinates": [ 6.504766552765459, 51.100230858780748 ] } },
{ "type": "Feature", "properties": { "strassenschluessel": "05162000001204197", "bezeichnung": "Polostraße" }, "geometry": { "type": "Point", "coordinates": [ 6.525185174139691, 51.101737903956781 ] } },
{ "type": "Feature", "properties": { "strassenschluessel": "05162000001204200", "bezeichnung": "Rektor-Thoma-Straße" }, "geometry": { "type": "Point", "coordinates": [ 6.501465600379004, 51.100575918368023 ] } },
{ "type": "Feature", "properties": { "strassenschluessel": "05162000001204203", "bezeichnung": "Robert-Bosch-Straße" }, "geometry": { "type": "Point", "coordinates": [ 6.517262347439109, 51.099286667788775 ] } },
{ "type": "Feature", "properties": { "strassenschluessel": "05162000001204205", "bezeichnung": "Riekestraße" }, "geometry": { "type": "Point", "coordinates": [ 6.497747732982213, 51.102534619998018 ] } },
{ "type": "Feature", "properties": { "strassenschluessel": "05162000001204210", "bezeichnung": "Römerstraße" }, "geometry": { "type": "Point", "coordinates": [ 6.497234575552286, 51.098942023828315 ] } },
{ "type": "Feature", "properties": { "strassenschluessel": "05162000001204215", "bezeichnung": "Scheulenbend" }, "geometry": { "type": "Point", "coordinates": [ 6.508133403545656, 51.105923444120876 ] } },
{ "type": "Feature", "properties": { "strassenschluessel": "05162000001204220", "bezeichnung": "Stadionstraße" }, "geometry": { "type": "Point", "coordinates": [ 6.511453444154524, 51.103385759929871 ] } },
{ "type": "Feature", "properties": { "strassenschluessel": "05162000001204225", "bezeichnung": "Steinstraße" }, "geometry": { "type": "Point", "coordinates": [ 6.500552086579169, 51.101906664879202 ] } },
{ "type": "Feature", "properties": { "strassenschluessel": "05162000001204230", "bezeichnung": "Valderweg" }, "geometry": { "type": "Point", "coordinates": [ 6.50765701552865, 51.104953107278256 ] } },
{ "type": "Feature", "properties": { "strassenschluessel": "05162000001204232", "bezeichnung": "Vielheckerhof" }, "geometry": null },
{ "type": "Feature", "properties": { "strassenschluessel": "05162000001204235", "bezeichnung": "Weyerstraße" }, "geometry": { "type": "Point", "coordinates": [ 6.505123733520211, 51.103238579770711 ] } },
{ "type": "Feature", "properties": { "strassenschluessel": "05162000001204240", "bezeichnung": "Wilhelmstraße" }, "geometry": { "type": "Point", "coordinates": [ 6.499674275295317, 51.098626517068617 ] } },
{ "type": "Feature", "properties": { "strassenschluessel": "05162000001204245", "bezeichnung": "Schwalbenstraße" }, "geometry": { "type": "Point", "coordinates": [ 6.511912958172415, 51.100024607319263 ] } },
{ "type": "Feature", "properties": { "strassenschluessel": "05162000001204250", "bezeichnung": "Zaunkönigweg" }, "geometry": { "type": "Point", "coordinates": [ 6.511224216796825, 51.100737763796765 ] } },
{ "type": "Feature", "properties": { "strassenschluessel": "05162000001204255", "bezeichnung": "Rotkehlchenweg" }, "geometry": { "type": "Point", "coordinates": [ 6.508698609916739, 51.100596874085113 ] } },
{ "type": "Feature", "properties": { "strassenschluessel": "05162000001204400", "bezeichnung": "Dürselen" }, "geometry": { "type": "Point", "coordinates": [ 6.485676137294192, 51.132949447861535 ] } },
{ "type": "Feature", "properties": { "strassenschluessel": "05162000001204450", "bezeichnung": "Hackhausen" }, "geometry": { "type": "Point", "coordinates": [ 6.469809372893524, 51.103881394622078 ] } },
{ "type": "Feature", "properties": { "strassenschluessel": "05162000001204500", "bezeichnung": "Hoppers" }, "geometry": { "type": "Point", "coordinates": [ 6.511188020475331, 51.133185386229528 ] } },
{ "type": "Feature", "properties": { "strassenschluessel": "05162000001204505", "bezeichnung": "Flaßrath" }, "geometry": { "type": "Point", "coordinates": [ 6.516873812760491, 51.132845997511829 ] } },
{ "type": "Feature", "properties": { "strassenschluessel": "05162000001204550", "bezeichnung": "Kamphausen" }, "geometry": { "type": "Point", "coordinates": [ 6.478473055647598, 51.123727052852892 ] } },
{ "type": "Feature", "properties": { "strassenschluessel": "05162000001204600", "bezeichnung": "An der Eiche" }, "geometry": { "type": "Point", "coordinates": [ 6.504142496833776, 51.117162217795311 ] } },
{ "type": "Feature", "properties": { "strassenschluessel": "05162000001204605", "bezeichnung": "Im Kamp" }, "geometry": { "type": "Point", "coordinates": [ 6.500835843726078, 51.116076108342106 ] } },
{ "type": "Feature", "properties": { "strassenschluessel": "05162000001204607", "bezeichnung": "Keltenhof" }, "geometry": { "type": "Point", "coordinates": [ 6.49662085614499, 51.118007967382269 ] } },
{ "type": "Feature", "properties": { "strassenschluessel": "05162000001204610", "bezeichnung": "Keltenstraße" }, "geometry": { "type": "Point", "coordinates": [ 6.497769301883935, 51.11595566364754 ] } },
{ "type": "Feature", "properties": { "strassenschluessel": "05162000001204615", "bezeichnung": "Kirschenweg" }, "geometry": { "type": "Point", "coordinates": [ 6.503822144438421, 51.118036269306913 ] } },
{ "type": "Feature", "properties": { "strassenschluessel": "05162000001204620", "bezeichnung": "Scheulenhof" }, "geometry": { "type": "Point", "coordinates": [ 6.496086940472011, 51.117363009785393 ] } },
{ "type": "Feature", "properties": { "strassenschluessel": "05162000001204650", "bezeichnung": "Mürmeln" }, "geometry": { "type": "Point", "coordinates": [ 6.510971468430256, 51.122155438948049 ] } },
{ "type": "Feature", "properties": { "strassenschluessel": "05162000001204655", "bezeichnung": "Roebershof" }, "geometry": { "type": "Point", "coordinates": [ 6.525522483757136, 51.123599246934027 ] } },
{ "type": "Feature", "properties": { "strassenschluessel": "05162000001204660", "bezeichnung": "Bontenbroich" }, "geometry": { "type": "Point", "coordinates": [ 6.519120842739926, 51.122870071589453 ] } },
{ "type": "Feature", "properties": { "strassenschluessel": "05162000001204700", "bezeichnung": "Schaan" }, "geometry": { "type": "Point", "coordinates": [ 6.489055910841213, 51.11411720123845 ] } },
{ "type": "Feature", "properties": { "strassenschluessel": "05162000001204705", "bezeichnung": "Quackshof" }, "geometry": { "type": "Point", "coordinates": [ 6.48534862775767, 51.117247303904833 ] } },
{ "type": "Feature", "properties": { "strassenschluessel": "05162000001204750", "bezeichnung": "Waat" }, "geometry": { "type": "Point", "coordinates": [ 6.48965969697398, 51.143525297935689 ] } },
{ "type": "Feature", "properties": { "strassenschluessel": "05162000001204800", "bezeichnung": "Wey" }, "geometry": { "type": "Point", "coordinates": [ 6.50535859619041, 51.134649338384264 ] } },
{ "type": "Feature", "properties": { "strassenschluessel": "05162000001204802", "bezeichnung": "Hof Roth" }, "geometry": { "type": "Point", "coordinates": [ 6.505367332566014, 51.131930266431183 ] } },
{ "type": "Feature", "properties": { "strassenschluessel": "05162000001204805", "bezeichnung": "Schölenhof" }, "geometry": { "type": "Point", "coordinates": [ 6.504884470139972, 51.137027169393932 ] } },
{ "type": "Feature", "properties": { "strassenschluessel": "05162000001205005", "bezeichnung": "Am Gerhardsweiler" }, "geometry": { "type": "Point", "coordinates": [ 6.514122948316334, 51.10674811606615 ] } },
{ "type": "Feature", "properties": { "strassenschluessel": "05162000001205010", "bezeichnung": "Am Markt" }, "geometry": { "type": "Point", "coordinates": [ 6.507590966274681, 51.10801655667926 ] } },
{ "type": "Feature", "properties": { "strassenschluessel": "05162000001205015", "bezeichnung": "An der Köhm" }, "geometry": { "type": "Point", "coordinates": [ 6.509329241202387, 51.108452147127977 ] } },
{ "type": "Feature", "properties": { "strassenschluessel": "05162000001205020", "bezeichnung": "Danerstraße" }, "geometry": { "type": "Point", "coordinates": [ 6.5089605244257, 51.107646572007909 ] } },
{ "type": "Feature", "properties": { "strassenschluessel": "05162000001205022", "bezeichnung": "Florastraße" }, "geometry": { "type": "Point", "coordinates": [ 6.513742762536084, 51.107731468079201 ] } },
{ "type": "Feature", "properties": { "strassenschluessel": "05162000001205025", "bezeichnung": "Garzweiler Allee" }, "geometry": { "type": "Point", "coordinates": [ 6.504818531571824, 51.106599099544646 ] } },
{ "type": "Feature", "properties": { "strassenschluessel": "05162000001205030", "bezeichnung": "Kirchweg" }, "geometry": { "type": "Point", "coordinates": [ 6.508595359281056, 51.108328601137096 ] } },
{ "type": "Feature", "properties": { "strassenschluessel": "05162000001205035", "bezeichnung": "Pankratiusweg" }, "geometry": { "type": "Point", "coordinates": [ 6.507956319973081, 51.107534635981253 ] } },
{ "type": "Feature", "properties": { "strassenschluessel": "05162000001205040", "bezeichnung": "Pastorengasse" }, "geometry": { "type": "Point", "coordinates": [ 6.505956102800978, 51.108927931642704 ] } },
{ "type": "Feature", "properties": { "strassenschluessel": "05162000001205045", "bezeichnung": "St. Leonhard-Straße" }, "geometry": { "type": "Point", "coordinates": [ 6.507591343678397, 51.108949849476197 ] } },
{ "type": "Feature", "properties": { "strassenschluessel": "05162000001205050", "bezeichnung": "Unter den Linden" }, "geometry": { "type": "Point", "coordinates": [ 6.506129322375406, 51.107806210709782 ] } },
{ "type": "Feature", "properties": { "strassenschluessel": "05162000001206005", "bezeichnung": "Priesterath" }, "geometry": { "type": "Point", "coordinates": [ 6.503359835382581, 51.107589498610842 ] } },
{ "type": "Feature", "properties": { "strassenschluessel": "05162000001206010", "bezeichnung": "Stolzenberg" }, "geometry": { "type": "Point", "coordinates": [ 6.50234825640707, 51.108829733055991 ] } },
{ "type": "Feature", "properties": { "strassenschluessel": "05162000001207000", "bezeichnung": "Adolph-Kolping-Straße" }, "geometry": { "type": "Point", "coordinates": [ 6.466295411494424, 51.109931568619153 ] } },
{ "type": "Feature", "properties": { "strassenschluessel": "05162000001207005", "bezeichnung": "Am Dominger Weg " }, "geometry": null },
{ "type": "Feature", "properties": { "strassenschluessel": "05162000001207010", "bezeichnung": "Am Scheurenpfad" }, "geometry": { "type": "Point", "coordinates": [ 6.462549410501785, 51.10724383557362 ] } },
{ "type": "Feature", "properties": { "strassenschluessel": "05162000001207015", "bezeichnung": "Bahnstraße" }, "geometry": { "type": "Point", "coordinates": [ 6.461582758163464, 51.107068699220406 ] } },
{ "type": "Feature", "properties": { "strassenschluessel": "05162000001207020", "bezeichnung": "Braunstraße" }, "geometry": { "type": "Point", "coordinates": [ 6.46425147055099, 51.110902670289164 ] } },
{ "type": "Feature", "properties": { "strassenschluessel": "05162000001207025", "bezeichnung": "Dechant-Berger-Straße" }, "geometry": { "type": "Point", "coordinates": [ 6.468235308863453, 51.110772052754228 ] } },
{ "type": "Feature", "properties": { "strassenschluessel": "05162000001207030", "bezeichnung": "Eduard-Bausch-Straße " }, "geometry": { "type": "Point", "coordinates": [ 6.46699830676649, 51.110551917039047 ] } },
{ "type": "Feature", "properties": { "strassenschluessel": "05162000001207035", "bezeichnung": "Fichtenstraße " }, "geometry": { "type": "Point", "coordinates": [ 6.460045816561991, 51.110223305719074 ] } },
{ "type": "Feature", "properties": { "strassenschluessel": "05162000001207040", "bezeichnung": "Franz-Rixen-Straße " }, "geometry": { "type": "Point", "coordinates": [ 6.463970216723987, 51.108130439670077 ] } },
{ "type": "Feature", "properties": { "strassenschluessel": "05162000001207045", "bezeichnung": "Grüner Winkel" }, "geometry": { "type": "Point", "coordinates": [ 6.460616957353759, 51.110410798981015 ] } },
{ "type": "Feature", "properties": { "strassenschluessel": "05162000001207050", "bezeichnung": "Grünstraße" }, "geometry": { "type": "Point", "coordinates": [ 6.467261136802579, 51.110656666600768 ] } },
{ "type": "Feature", "properties": { "strassenschluessel": "05162000001207055", "bezeichnung": "Hofstraße " }, "geometry": { "type": "Point", "coordinates": [ 6.46876226473489, 51.108425903411664 ] } },
{ "type": "Feature", "properties": { "strassenschluessel": "05162000001207060", "bezeichnung": "Jahnstraße" }, "geometry": { "type": "Point", "coordinates": [ 6.459232932242617, 51.10889070122753 ] } },
{ "type": "Feature", "properties": { "strassenschluessel": "05162000001207062", "bezeichnung": "Kirchhofweg" }, "geometry": { "type": "Point", "coordinates": [ 6.465870197391698, 51.109212356415775 ] } },
{ "type": "Feature", "properties": { "strassenschluessel": "05162000001207063", "bezeichnung": "Klompenweg" }, "geometry": { "type": "Point", "coordinates": [ 6.459095642414832, 51.110085149756763 ] } },
{ "type": "Feature", "properties": { "strassenschluessel": "05162000001207065", "bezeichnung": "Köhmweg " }, "geometry": { "type": "Point", "coordinates": [ 6.466139119694239, 51.111952024633055 ] } },
{ "type": "Feature", "properties": { "strassenschluessel": "05162000001207070", "bezeichnung": "Lärchenweg " }, "geometry": { "type": "Point", "coordinates": [ 6.463093381268351, 51.111053677724058 ] } },
{ "type": "Feature", "properties": { "strassenschluessel": "05162000001207075", "bezeichnung": "Leuffenweg " }, "geometry": { "type": "Point", "coordinates": [ 6.465023607598695, 51.107324732244876 ] } },
{ "type": "Feature", "properties": { "strassenschluessel": "05162000001207080", "bezeichnung": "Marktstraße" }, "geometry": { "type": "Point", "coordinates": [ 6.46637915341771, 51.110944798455037 ] } },
{ "type": "Feature", "properties": { "strassenschluessel": "05162000001207085", "bezeichnung": "Nordstraße" }, "geometry": { "type": "Point", "coordinates": [ 6.464484249667266, 51.112818859928616 ] } },
{ "type": "Feature", "properties": { "strassenschluessel": "05162000001207090", "bezeichnung": "Tannenweg" }, "geometry": { "type": "Point", "coordinates": [ 6.462699957553439, 51.110634299718292 ] } },
{ "type": "Feature", "properties": { "strassenschluessel": "05162000001207095", "bezeichnung": "Wiesenstraße " }, "geometry": { "type": "Point", "coordinates": [ 6.465110657603555, 51.113340593497767 ] } },
{ "type": "Feature", "properties": { "strassenschluessel": "05162000001208000", "bezeichnung": "Baumstraße " }, "geometry": { "type": "Point", "coordinates": [ 6.468981282732588, 51.107696694731942 ] } },
{ "type": "Feature", "properties": { "strassenschluessel": "05162000001209000", "bezeichnung": "Am Fusseloch " }, "geometry": { "type": "Point", "coordinates": [ 6.45550432860482, 51.107258064779749 ] } },
{ "type": "Feature", "properties": { "strassenschluessel": "05162000001209005", "bezeichnung": "Am Holzer Knoten " }, "geometry": { "type": "Point", "coordinates": [ 6.455230555038557, 51.105926348072728 ] } },
{ "type": "Feature", "properties": { "strassenschluessel": "05162000001209010", "bezeichnung": "Am Lindenweg " }, "geometry": { "type": "Point", "coordinates": [ 6.452023271439234, 51.10653562148844 ] } },
{ "type": "Feature", "properties": { "strassenschluessel": "05162000001209015", "bezeichnung": "Augustastraße " }, "geometry": { "type": "Point", "coordinates": [ 6.453951081877842, 51.107216633525269 ] } },
{ "type": "Feature", "properties": { "strassenschluessel": "05162000001209020", "bezeichnung": "Hauptstraße " }, "geometry": { "type": "Point", "coordinates": [ 6.455316263344044, 51.106486395030657 ] } },
{ "type": "Feature", "properties": { "strassenschluessel": "05162000001209025", "bezeichnung": "Rurstraße" }, "geometry": { "type": "Point", "coordinates": [ 6.452857110304603, 51.104123644448009 ] } },
{ "type": "Feature", "properties": { "strassenschluessel": "05162000001209030", "bezeichnung": "Sonnenweg " }, "geometry": { "type": "Point", "coordinates": [ 6.453367183199484, 51.104597316015671 ] } },
{ "type": "Feature", "properties": { "strassenschluessel": "05162000001209035", "bezeichnung": "Schürfweg" }, "geometry": { "type": "Point", "coordinates": [ 6.456811535492545, 51.106125135219273 ] } },
{ "type": "Feature", "properties": { "strassenschluessel": "05162000001209040", "bezeichnung": "Vogelsang" }, "geometry": { "type": "Point", "coordinates": [ 6.453625652428063, 51.107826968190189 ] } },
{ "type": "Feature", "properties": { "strassenschluessel": "05162000001209050", "bezeichnung": "Zur Kapelle" }, "geometry": { "type": "Point", "coordinates": [ 6.454674453464562, 51.106864636637461 ] } },
{ "type": "Feature", "properties": { "strassenschluessel": "05162000001209843", "bezeichnung": "An Stessen" }, "geometry": null },
{ "type": "Feature", "properties": { "strassenschluessel": "05162000001209844", "bezeichnung": "Schlich" }, "geometry": null },
{ "type": "Feature", "properties": { "strassenschluessel": "05162000001209845", "bezeichnung": "Hochstraßer Acker" }, "geometry": null },
{ "type": "Feature", "properties": { "strassenschluessel": "05162000001209850", "bezeichnung": "An den zwei Enden" }, "geometry": null },
{ "type": "Feature", "properties": { "strassenschluessel": "05162000001209861", "bezeichnung": "Dycker Benden" }, "geometry": { "type": "Point", "coordinates": [ 6.551823408383458, 51.137006496174628 ] } },
{ "type": "Feature", "properties": { "strassenschluessel": "05162000001209862", "bezeichnung": "Auf den Kralshecken" }, "geometry": null },
{ "type": "Feature", "properties": { "strassenschluessel": "05162000001209863", "bezeichnung": "Weyer Gärten" }, "geometry": null },
{ "type": "Feature", "properties": { "strassenschluessel": "05162000001209864", "bezeichnung": "An der Eisenbahn" }, "geometry": null },
{ "type": "Feature", "properties": { "strassenschluessel": "05162000001209865", "bezeichnung": "Aldenhover Benden" }, "geometry": null },
{ "type": "Feature", "properties": { "strassenschluessel": "05162000001209867", "bezeichnung": "Am Stesser Broich" }, "geometry": { "type": "Point", "coordinates": [ 6.550869595718048, 51.115409677515714 ] } },
{ "type": "Feature", "properties": { "strassenschluessel": "05162000001209869", "bezeichnung": "Am Holzer Weg" }, "geometry": { "type": "Point", "coordinates": [ 6.488280673636623, 51.097543265111277 ] } },
{ "type": "Feature", "properties": { "strassenschluessel": "05162000001209870", "bezeichnung": "Am Sodenpfädchen" }, "geometry": null },
{ "type": "Feature", "properties": { "strassenschluessel": "05162000001209871", "bezeichnung": "Jüchen" }, "geometry": null },
{ "type": "Feature", "properties": { "strassenschluessel": "05162000001209872", "bezeichnung": "Am Kleinratherhof" }, "geometry": null },
{ "type": "Feature", "properties": { "strassenschluessel": "05162000001209873", "bezeichnung": "Am Dycker Feld" }, "geometry": null },
{ "type": "Feature", "properties": { "strassenschluessel": "05162000001209874", "bezeichnung": "Auf der Alten Hütte" }, "geometry": null },
{ "type": "Feature", "properties": { "strassenschluessel": "05162000001209875", "bezeichnung": "Am Merkes" }, "geometry": null },
{ "type": "Feature", "properties": { "strassenschluessel": "05162000001209876", "bezeichnung": "Auf'm alten Graben" }, "geometry": null },
{ "type": "Feature", "properties": { "strassenschluessel": "05162000001209878", "bezeichnung": "Zw.d.Dürselener Sode u.d.Hüll" }, "geometry": { "type": "Point", "coordinates": [ 6.487187913885769, 51.136731681388632 ] } },
{ "type": "Feature", "properties": { "strassenschluessel": "05162000001209879", "bezeichnung": "In der Schleide" }, "geometry": { "type": "Point", "coordinates": [ 6.497259480060541, 51.131856135153882 ] } },
{ "type": "Feature", "properties": { "strassenschluessel": "05162000001209880", "bezeichnung": "Am Hundspfad" }, "geometry": null },
{ "type": "Feature", "properties": { "strassenschluessel": "05162000001209881", "bezeichnung": "An der Sandschleide" }, "geometry": null },
{ "type": "Feature", "properties": { "strassenschluessel": "05162000001209884", "bezeichnung": "Hüttgeskliff" }, "geometry": null },
{ "type": "Feature", "properties": { "strassenschluessel": "05162000001209885", "bezeichnung": "Hermespfad" }, "geometry": null },
{ "type": "Feature", "properties": { "strassenschluessel": "05162000001209886", "bezeichnung": "Hinter Hahnen" }, "geometry": null },
{ "type": "Feature", "properties": { "strassenschluessel": "05162000001209887", "bezeichnung": "Am Jüchener Weg" }, "geometry": null },
{ "type": "Feature", "properties": { "strassenschluessel": "05162000001209889", "bezeichnung": "Auf den Hecken" }, "geometry": null },
{ "type": "Feature", "properties": { "strassenschluessel": "05162000001209892", "bezeichnung": "Kellershof" }, "geometry": null },
{ "type": "Feature", "properties": { "strassenschluessel": "05162000001209895", "bezeichnung": "Am Garzweiler Weg" }, "geometry": null },
{ "type": "Feature", "properties": { "strassenschluessel": "05162000001209896", "bezeichnung": "Am Mühlenpfad" }, "geometry": { "type": "Point", "coordinates": [ 6.444280275665708, 51.09861089211126 ] } },
{ "type": "Feature", "properties": { "strassenschluessel": "05162000001209899", "bezeichnung": "Auf'm Probst" }, "geometry": null }
]
}
