{
"type": "FeatureCollection",
"features": [
{ "type": "Feature", "properties": { "strassenschluessel": "05362000003207900", "bezeichnung": "Ahornstraße" }, "geometry": { "type": "Point", "coordinates": [ 6.739059906182021, 50.86714925101694 ] } },
{ "type": "Feature", "properties": { "strassenschluessel": "05362000003207901", "bezeichnung": "Am Hauserbach" }, "geometry": { "type": "Point", "coordinates": [ 6.748066906319042, 50.860348241029079 ] } },
{ "type": "Feature", "properties": { "strassenschluessel": "05362000003207902", "bezeichnung": "Am Markt" }, "geometry": { "type": "Point", "coordinates": [ 6.754528427086104, 50.859527826446296 ] } },
{ "type": "Feature", "properties": { "strassenschluessel": "05362000003207903", "bezeichnung": "An den Wiesen" }, "geometry": { "type": "Point", "coordinates": [ 6.750145142437636, 50.859441951761923 ] } },
{ "type": "Feature", "properties": { "strassenschluessel": "05362000003207904", "bezeichnung": "Am Schloßpark" }, "geometry": { "type": "Point", "coordinates": [ 6.743298845655466, 50.865647657825356 ] } },
{ "type": "Feature", "properties": { "strassenschluessel": "05362000003207905", "bezeichnung": "Alfred-Nobel-Straße" }, "geometry": { "type": "Point", "coordinates": [ 6.754622338544188, 50.867438029812206 ] } },
{ "type": "Feature", "properties": { "strassenschluessel": "05362000003207906", "bezeichnung": "Dammweg" }, "geometry": { "type": "Point", "coordinates": [ 6.75111434193963, 50.863440401985962 ] } },
{ "type": "Feature", "properties": { "strassenschluessel": "05362000003207907", "bezeichnung": "Dukatenweg" }, "geometry": { "type": "Point", "coordinates": [ 6.751499487134132, 50.857269432813233 ] } },
{ "type": "Feature", "properties": { "strassenschluessel": "05362000003207908", "bezeichnung": "Otto-Hahn-Straße" }, "geometry": null },
{ "type": "Feature", "properties": { "strassenschluessel": "05362000003207909", "bezeichnung": "Eintrachtstraße" }, "geometry": { "type": "Point", "coordinates": [ 6.745924828768143, 50.866501419802987 ] } },
{ "type": "Feature", "properties": { "strassenschluessel": "05362000003207910", "bezeichnung": "Erlenweg" }, "geometry": { "type": "Point", "coordinates": [ 6.738184918096962, 50.866881516187775 ] } },
{ "type": "Feature", "properties": { "strassenschluessel": "05362000003207912", "bezeichnung": "Fichtenstraße" }, "geometry": { "type": "Point", "coordinates": [ 6.73780219024514, 50.866842588963593 ] } },
{ "type": "Feature", "properties": { "strassenschluessel": "05362000003207913", "bezeichnung": "Finkenweg" }, "geometry": { "type": "Point", "coordinates": [ 6.745877240324534, 50.867166955432396 ] } },
{ "type": "Feature", "properties": { "strassenschluessel": "05362000003207914", "bezeichnung": "Fuchskaul" }, "geometry": { "type": "Point", "coordinates": [ 6.742641328493993, 50.868506382174047 ] } },
{ "type": "Feature", "properties": { "strassenschluessel": "05362000003207915", "bezeichnung": "Frechener Straße" }, "geometry": { "type": "Point", "coordinates": [ 6.774734154924432, 50.877457035578971 ] } },
{ "type": "Feature", "properties": { "strassenschluessel": "05362000003207916", "bezeichnung": "Heerstraße" }, "geometry": { "type": "Point", "coordinates": [ 6.758377511819389, 50.856233627981894 ] } },
{ "type": "Feature", "properties": { "strassenschluessel": "05362000003207917", "bezeichnung": "Graf-Hoensbroech-Straße" }, "geometry": { "type": "Point", "coordinates": [ 6.750640172101595, 50.862486464424521 ] } },
{ "type": "Feature", "properties": { "strassenschluessel": "05362000003207918", "bezeichnung": "Geigerstraße" }, "geometry": { "type": "Point", "coordinates": [ 6.742513101030481, 50.874088320525793 ] } },
{ "type": "Feature", "properties": { "strassenschluessel": "05362000003207919", "bezeichnung": "Im grünen Hof" }, "geometry": { "type": "Point", "coordinates": [ 6.760234857383502, 50.856647461083853 ] } },
{ "type": "Feature", "properties": { "strassenschluessel": "05362000003207921", "bezeichnung": "Hangweg" }, "geometry": { "type": "Point", "coordinates": [ 6.755276025484045, 50.85577714153343 ] } },
{ "type": "Feature", "properties": { "strassenschluessel": "05362000003207922", "bezeichnung": "Im Erftgrund" }, "geometry": { "type": "Point", "coordinates": [ 6.749643840100811, 50.859704840440948 ] } },
{ "type": "Feature", "properties": { "strassenschluessel": "05362000003207923", "bezeichnung": "Heisenbergstraße" }, "geometry": { "type": "Point", "coordinates": [ 6.752191234323652, 50.869692068830332 ] } },
{ "type": "Feature", "properties": { "strassenschluessel": "05362000003207924", "bezeichnung": "Maximilianstraße" }, "geometry": { "type": "Point", "coordinates": [ 6.753220861602969, 50.863665612735375 ] } },
{ "type": "Feature", "properties": { "strassenschluessel": "05362000003207925", "bezeichnung": "Nordweg" }, "geometry": { "type": "Point", "coordinates": [ 6.754346648924968, 50.858217131360057 ] } },
{ "type": "Feature", "properties": { "strassenschluessel": "05362000003207926", "bezeichnung": "Nachtigallenweg" }, "geometry": { "type": "Point", "coordinates": [ 6.746641257372564, 50.866075987193675 ] } },
{ "type": "Feature", "properties": { "strassenschluessel": "05362000003207927", "bezeichnung": "Nußbaumallee" }, "geometry": { "type": "Point", "coordinates": [ 6.740662965478367, 50.865585676031131 ] } },
{ "type": "Feature", "properties": { "strassenschluessel": "05362000003207929", "bezeichnung": "Oberweg" }, "geometry": { "type": "Point", "coordinates": [ 6.754163064158091, 50.857481511888189 ] } },
{ "type": "Feature", "properties": { "strassenschluessel": "05362000003207931", "bezeichnung": "Pappelstraße" }, "geometry": { "type": "Point", "coordinates": [ 6.73988082165593, 50.865811154874926 ] } },
{ "type": "Feature", "properties": { "strassenschluessel": "05362000003207932", "bezeichnung": "Platanenallee" }, "geometry": { "type": "Point", "coordinates": [ 6.737219560273823, 50.865344920002002 ] } },
{ "type": "Feature", "properties": { "strassenschluessel": "05362000003207933", "bezeichnung": "Poststraße" }, "geometry": { "type": "Point", "coordinates": [ 6.747215752991129, 50.86104474470892 ] } },
{ "type": "Feature", "properties": { "strassenschluessel": "05362000003207935", "bezeichnung": "Rochusstraße" }, "geometry": { "type": "Point", "coordinates": [ 6.757572183887856, 50.858661248630817 ] } },
{ "type": "Feature", "properties": { "strassenschluessel": "05362000003207936", "bezeichnung": "Rolshausenstraße" }, "geometry": { "type": "Point", "coordinates": [ 6.749571930029548, 50.863058242000015 ] } },
{ "type": "Feature", "properties": { "strassenschluessel": "05362000003207937", "bezeichnung": "Rosentalstraße" }, "geometry": { "type": "Point", "coordinates": [ 6.751030361896865, 50.859648571840211 ] } },
{ "type": "Feature", "properties": { "strassenschluessel": "05362000003207938", "bezeichnung": "Rotdornweg" }, "geometry": { "type": "Point", "coordinates": [ 6.741139870418078, 50.865919751839598 ] } },
{ "type": "Feature", "properties": { "strassenschluessel": "05362000003207939", "bezeichnung": "Röntgenstraße" }, "geometry": { "type": "Point", "coordinates": [ 6.745912712836005, 50.872287180196459 ] } },
{ "type": "Feature", "properties": { "strassenschluessel": "05362000003207940", "bezeichnung": "Schloß Türnich" }, "geometry": null },
{ "type": "Feature", "properties": { "strassenschluessel": "05362000003207941", "bezeichnung": "Schwarze Erde" }, "geometry": { "type": "Point", "coordinates": [ 6.748943182506644, 50.865498312511427 ] } },
{ "type": "Feature", "properties": { "strassenschluessel": "05362000003207942", "bezeichnung": "Sportfeldweg" }, "geometry": { "type": "Point", "coordinates": [ 6.748111318446758, 50.859439594561898 ] } },
{ "type": "Feature", "properties": { "strassenschluessel": "05362000003207943", "bezeichnung": "Sprengersgasse" }, "geometry": { "type": "Point", "coordinates": [ 6.744485642667734, 50.866836067092585 ] } },
{ "type": "Feature", "properties": { "strassenschluessel": "05362000003207944", "bezeichnung": "Südweg" }, "geometry": { "type": "Point", "coordinates": [ 6.752790713336759, 50.857081962444731 ] } },
{ "type": "Feature", "properties": { "strassenschluessel": "05362000003207947", "bezeichnung": "Ulmenweg" }, "geometry": null },
{ "type": "Feature", "properties": { "strassenschluessel": "05362000003207952", "bezeichnung": "Heinkelstraße" }, "geometry": { "type": "Point", "coordinates": [ 6.75377516580227, 50.865831590381518 ] } },
{ "type": "Feature", "properties": { "strassenschluessel": "05362000003207960", "bezeichnung": "Ursfelder Straße" }, "geometry": { "type": "Point", "coordinates": [ 6.753102154500858, 50.862071979991036 ] } },
{ "type": "Feature", "properties": { "strassenschluessel": "05362000003207961", "bezeichnung": "Fraunhoferstraße" }, "geometry": { "type": "Point", "coordinates": [ 6.747731464260964, 50.874977122483578 ] } },
{ "type": "Feature", "properties": { "strassenschluessel": "05362000003207985", "bezeichnung": "Am Burggraben" }, "geometry": { "type": "Point", "coordinates": [ 6.768568065209298, 50.846483289079366 ] } },
{ "type": "Feature", "properties": { "strassenschluessel": "05362000003207986", "bezeichnung": "Auf dem Gassenfeld" }, "geometry": { "type": "Point", "coordinates": [ 6.764817229954343, 50.856290242342922 ] } },
{ "type": "Feature", "properties": { "strassenschluessel": "05362000003207987", "bezeichnung": "Auf der Gier" }, "geometry": { "type": "Point", "coordinates": [ 6.758820330382337, 50.854430928100321 ] } },
{ "type": "Feature", "properties": { "strassenschluessel": "05362000003207988", "bezeichnung": "Am Kapellchen" }, "geometry": { "type": "Point", "coordinates": [ 6.760096259064247, 50.856215124163114 ] } },
{ "type": "Feature", "properties": { "strassenschluessel": "05362000003207989", "bezeichnung": "Barbarastraße" }, "geometry": { "type": "Point", "coordinates": [ 6.764195186108205, 50.853666936068258 ] } },
{ "type": "Feature", "properties": { "strassenschluessel": "05362000003207990", "bezeichnung": "Coloniastraße" }, "geometry": { "type": "Point", "coordinates": [ 6.765661434126367, 50.853723279835044 ] } },
{ "type": "Feature", "properties": { "strassenschluessel": "05362000003207991", "bezeichnung": "Alte Ziegelei" }, "geometry": { "type": "Point", "coordinates": [ 6.76117080728628, 50.853042931049288 ] } },
{ "type": "Feature", "properties": { "strassenschluessel": "05362000003208000", "bezeichnung": "Erfttalweg" }, "geometry": { "type": "Point", "coordinates": [ 6.754865055655248, 50.857405335031061 ] } },
{ "type": "Feature", "properties": { "strassenschluessel": "05362000003208001", "bezeichnung": "Galgenbachstraße" }, "geometry": { "type": "Point", "coordinates": [ 6.759794180004946, 50.854547543848092 ] } },
{ "type": "Feature", "properties": { "strassenschluessel": "05362000003208002", "bezeichnung": "Gücherweg" }, "geometry": { "type": "Point", "coordinates": [ 6.754436860175253, 50.855200459225316 ] } },
{ "type": "Feature", "properties": { "strassenschluessel": "05362000003208003", "bezeichnung": "Gymnicher Straße" }, "geometry": { "type": "Point", "coordinates": [ 6.75817060472645, 50.852899750552517 ] } },
{ "type": "Feature", "properties": { "strassenschluessel": "05362000003208004", "bezeichnung": "Berrenrather Straße" }, "geometry": { "type": "Point", "coordinates": [ 6.760110397737225, 50.855687360206431 ] } },
{ "type": "Feature", "properties": { "strassenschluessel": "05362000003208005", "bezeichnung": "An der Feuerwehr" }, "geometry": { "type": "Point", "coordinates": [ 6.772781062982186, 50.850606846853175 ] } },
{ "type": "Feature", "properties": { "strassenschluessel": "05362000003208006", "bezeichnung": "Kapellenweg" }, "geometry": { "type": "Point", "coordinates": [ 6.757276797271147, 50.854096551308039 ] } },
{ "type": "Feature", "properties": { "strassenschluessel": "05362000003208007", "bezeichnung": "Katterforststraße" }, "geometry": { "type": "Point", "coordinates": [ 6.756632916277101, 50.855957861492541 ] } },
{ "type": "Feature", "properties": { "strassenschluessel": "05362000003208009", "bezeichnung": "Kreuzbachweg" }, "geometry": { "type": "Point", "coordinates": [ 6.757295104757342, 50.854300746007759 ] } },
{ "type": "Feature", "properties": { "strassenschluessel": "05362000003208010", "bezeichnung": "Lichweg" }, "geometry": { "type": "Point", "coordinates": [ 6.757199326952059, 50.85816574539647 ] } },
{ "type": "Feature", "properties": { "strassenschluessel": "05362000003208011", "bezeichnung": "Fürstenbergstraße" }, "geometry": { "type": "Point", "coordinates": [ 6.759035609408496, 50.857280972893257 ] } },
{ "type": "Feature", "properties": { "strassenschluessel": "05362000003208012", "bezeichnung": "Louisenthal" }, "geometry": { "type": "Point", "coordinates": [ 6.761569365633912, 50.8564606528466 ] } },
{ "type": "Feature", "properties": { "strassenschluessel": "05362000003208013", "bezeichnung": "Matthias-Werner-Straße" }, "geometry": { "type": "Point", "coordinates": [ 6.759756267304062, 50.853036865388155 ] } },
{ "type": "Feature", "properties": { "strassenschluessel": "05362000003208015", "bezeichnung": "Bendenstraße" }, "geometry": { "type": "Point", "coordinates": [ 6.756308398474484, 50.856830786340154 ] } },
{ "type": "Feature", "properties": { "strassenschluessel": "05362000003208030", "bezeichnung": "Am Schützenhaus" }, "geometry": { "type": "Point", "coordinates": [ 6.771811176897609, 50.846136888198117 ] } },
{ "type": "Feature", "properties": { "strassenschluessel": "05362000003208031", "bezeichnung": "Am Wolfsberg" }, "geometry": { "type": "Point", "coordinates": [ 6.765979103007716, 50.853201166836307 ] } },
{ "type": "Feature", "properties": { "strassenschluessel": "05362000003208032", "bezeichnung": "BAB Ville-West" }, "geometry": null },
{ "type": "Feature", "properties": { "strassenschluessel": "05362000003208033", "bezeichnung": "Am Ginsterberg" }, "geometry": { "type": "Point", "coordinates": [ 6.766779931718753, 50.847077802612041 ] } },
{ "type": "Feature", "properties": { "strassenschluessel": "05362000003208034", "bezeichnung": "Am Käferbruch" }, "geometry": { "type": "Point", "coordinates": [ 6.782350478493368, 50.844897192791819 ] } },
{ "type": "Feature", "properties": { "strassenschluessel": "05362000003208035", "bezeichnung": "Am Schmiedekreuz" }, "geometry": { "type": "Point", "coordinates": [ 6.780410077797099, 50.845347541858409 ] } },
{ "type": "Feature", "properties": { "strassenschluessel": "05362000003208036", "bezeichnung": "Roggendorfer Straße" }, "geometry": { "type": "Point", "coordinates": [ 6.777468398218474, 50.843864146772404 ] } },
{ "type": "Feature", "properties": { "strassenschluessel": "05362000003208037", "bezeichnung": "Hubertusstraße" }, "geometry": { "type": "Point", "coordinates": [ 6.770559556778514, 50.848166445886328 ] } },
{ "type": "Feature", "properties": { "strassenschluessel": "05362000003208038", "bezeichnung": "Burgackerstraße" }, "geometry": { "type": "Point", "coordinates": [ 6.770520852977943, 50.84620384737341 ] } },
{ "type": "Feature", "properties": { "strassenschluessel": "05362000003208039", "bezeichnung": "Buschkauer Weg" }, "geometry": { "type": "Point", "coordinates": [ 6.775947326294556, 50.849661932605976 ] } },
{ "type": "Feature", "properties": { "strassenschluessel": "05362000003208040", "bezeichnung": "Brüggener Straße" }, "geometry": { "type": "Point", "coordinates": [ 6.774155091560916, 50.846106824991807 ] } },
{ "type": "Feature", "properties": { "strassenschluessel": "05362000003208041", "bezeichnung": "Coloniahalde" }, "geometry": { "type": "Point", "coordinates": [ 6.760707569158588, 50.851494075629446 ] } },
{ "type": "Feature", "properties": { "strassenschluessel": "05362000003208042", "bezeichnung": "Concordiastraße" }, "geometry": { "type": "Point", "coordinates": [ 6.769208998527959, 50.852458958683492 ] } },
{ "type": "Feature", "properties": { "strassenschluessel": "05362000003208044", "bezeichnung": "Eifelstraße" }, "geometry": { "type": "Point", "coordinates": [ 6.776050623431408, 50.849041456139851 ] } },
{ "type": "Feature", "properties": { "strassenschluessel": "05362000003208045", "bezeichnung": "Friedhofsweg" }, "geometry": { "type": "Point", "coordinates": [ 6.766770130374359, 50.848207950564309 ] } },
{ "type": "Feature", "properties": { "strassenschluessel": "05362000003208046", "bezeichnung": "Gabrielweg" }, "geometry": { "type": "Point", "coordinates": [ 6.77478458094961, 50.846741650130511 ] } },
{ "type": "Feature", "properties": { "strassenschluessel": "05362000003208047", "bezeichnung": "Dahlienweg" }, "geometry": { "type": "Point", "coordinates": [ 6.770524622792954, 50.849464716622634 ] } },
{ "type": "Feature", "properties": { "strassenschluessel": "05362000003208048", "bezeichnung": "Gassenfeldweg" }, "geometry": { "type": "Point", "coordinates": [ 6.767950932643051, 50.852160833888419 ] } },
{ "type": "Feature", "properties": { "strassenschluessel": "05362000003208049", "bezeichnung": "Fliederweg" }, "geometry": { "type": "Point", "coordinates": [ 6.767604986404161, 50.851293666488154 ] } },
{ "type": "Feature", "properties": { "strassenschluessel": "05362000003208050", "bezeichnung": "Hunsrückstraße" }, "geometry": { "type": "Point", "coordinates": [ 6.78245739122979, 50.84704663852056 ] } },
{ "type": "Feature", "properties": { "strassenschluessel": "05362000003208051", "bezeichnung": "Hubertusweg" }, "geometry": { "type": "Point", "coordinates": [ 6.770916724251714, 50.847214688278633 ] } },
{ "type": "Feature", "properties": { "strassenschluessel": "05362000003208053", "bezeichnung": "Michaelweg" }, "geometry": { "type": "Point", "coordinates": [ 6.776800676159598, 50.847330945402518 ] } },
{ "type": "Feature", "properties": { "strassenschluessel": "05362000003208054", "bezeichnung": "Kirchweg" }, "geometry": { "type": "Point", "coordinates": [ 6.764825052150221, 50.852452704363984 ] } },
{ "type": "Feature", "properties": { "strassenschluessel": "05362000003208055", "bezeichnung": "Lilienstraße" }, "geometry": { "type": "Point", "coordinates": [ 6.769077526988774, 50.850536705901348 ] } },
{ "type": "Feature", "properties": { "strassenschluessel": "05362000003208056", "bezeichnung": "Mertenweg" }, "geometry": { "type": "Point", "coordinates": [ 6.779189117309582, 50.845528720676143 ] } },
{ "type": "Feature", "properties": { "strassenschluessel": "05362000003208057", "bezeichnung": "Mühlengasse" }, "geometry": { "type": "Point", "coordinates": [ 6.773859160138618, 50.842697230064722 ] } },
{ "type": "Feature", "properties": { "strassenschluessel": "05362000003208058", "bezeichnung": "Raphaelstraße" }, "geometry": { "type": "Point", "coordinates": [ 6.774625833497285, 50.844542853772111 ] } },
{ "type": "Feature", "properties": { "strassenschluessel": "05362000003208059", "bezeichnung": "Ringstraße" }, "geometry": { "type": "Point", "coordinates": [ 6.768069099227508, 50.850933725962307 ] } },
{ "type": "Feature", "properties": { "strassenschluessel": "05362000003208060", "bezeichnung": "Rodderweg" }, "geometry": { "type": "Point", "coordinates": [ 6.766646055839496, 50.851615513440493 ] } },
{ "type": "Feature", "properties": { "strassenschluessel": "05362000003208061", "bezeichnung": "Römerweg" }, "geometry": { "type": "Point", "coordinates": [ 6.776362616496669, 50.843967667652571 ] } },
{ "type": "Feature", "properties": { "strassenschluessel": "05362000003208062", "bezeichnung": "Schildgenstraße" }, "geometry": { "type": "Point", "coordinates": [ 6.776740253761722, 50.843233481567658 ] } },
{ "type": "Feature", "properties": { "strassenschluessel": "05362000003208063", "bezeichnung": "Kierdorfer Straße" }, "geometry": { "type": "Point", "coordinates": [ 6.773794054136154, 50.846672122428899 ] } },
{ "type": "Feature", "properties": { "strassenschluessel": "05362000003208064", "bezeichnung": "St.-Josef-Straße" }, "geometry": { "type": "Point", "coordinates": [ 6.772533052785262, 50.847980778764104 ] } },
{ "type": "Feature", "properties": { "strassenschluessel": "05362000003208065", "bezeichnung": "Taunusstraße" }, "geometry": { "type": "Point", "coordinates": [ 6.778811652667435, 50.847615477741137 ] } },
{ "type": "Feature", "properties": { "strassenschluessel": "05362000003208066", "bezeichnung": "Waldstraße" }, "geometry": { "type": "Point", "coordinates": [ 6.763811337243351, 50.852416574063596 ] } },
{ "type": "Feature", "properties": { "strassenschluessel": "05362000003208067", "bezeichnung": "Westerwaldstraße" }, "geometry": { "type": "Point", "coordinates": [ 6.778078744188108, 50.848112096824011 ] } },
{ "type": "Feature", "properties": { "strassenschluessel": "05362000003208068", "bezeichnung": "Weiler" }, "geometry": { "type": "Point", "coordinates": [ 6.800195478062541, 50.857648795684746 ] } },
{ "type": "Feature", "properties": { "strassenschluessel": "05362000003208069", "bezeichnung": "Harzstraße" }, "geometry": { "type": "Point", "coordinates": [ 6.783549020998356, 50.846292913099958 ] } },
{ "type": "Feature", "properties": { "strassenschluessel": "05362000003208070", "bezeichnung": "Nelkenstraße" }, "geometry": { "type": "Point", "coordinates": [ 6.769251736387083, 50.850143828960945 ] } },
{ "type": "Feature", "properties": { "strassenschluessel": "05362000003208071", "bezeichnung": "Sauerlandstraße" }, "geometry": { "type": "Point", "coordinates": [ 6.784234385793552, 50.846182238033862 ] } },
{ "type": "Feature", "properties": { "strassenschluessel": "05362000003208072", "bezeichnung": "Tulpenstraße" }, "geometry": { "type": "Point", "coordinates": [ 6.770272641880601, 50.849966286708529 ] } },
{ "type": "Feature", "properties": { "strassenschluessel": "05362000003208075", "bezeichnung": "Zieselsmaarstraße" }, "geometry": { "type": "Point", "coordinates": [ 6.779266351356516, 50.843297521350493 ] } },
{ "type": "Feature", "properties": { "strassenschluessel": "05362000003208076", "bezeichnung": "Am Burgtor" }, "geometry": { "type": "Point", "coordinates": [ 6.768099528103171, 50.846225682786574 ] } },
{ "type": "Feature", "properties": { "strassenschluessel": "05362000003208101", "bezeichnung": "Am Kalkofen" }, "geometry": { "type": "Point", "coordinates": [ 6.709396110724688, 50.914061697790295 ] } },
{ "type": "Feature", "properties": { "strassenschluessel": "05362000003208103", "bezeichnung": "Am Erbbusch" }, "geometry": { "type": "Point", "coordinates": [ 6.716623189763671, 50.914723462430196 ] } },
{ "type": "Feature", "properties": { "strassenschluessel": "05362000003208104", "bezeichnung": "Am grünen Weg" }, "geometry": { "type": "Point", "coordinates": [ 6.706808641541293, 50.912027529411311 ] } },
{ "type": "Feature", "properties": { "strassenschluessel": "05362000003208105", "bezeichnung": "Friedrich-Ebert-Platz" }, "geometry": { "type": "Point", "coordinates": [ 6.71057167010912, 50.911611315434641 ] } },
{ "type": "Feature", "properties": { "strassenschluessel": "05362000003208106", "bezeichnung": "Am Meisenberg" }, "geometry": null },
{ "type": "Feature", "properties": { "strassenschluessel": "05362000003208107", "bezeichnung": "Am Stadion" }, "geometry": { "type": "Point", "coordinates": [ 6.708738741808117, 50.906741350626589 ] } },
{ "type": "Feature", "properties": { "strassenschluessel": "05362000003208108", "bezeichnung": "Am Wingertsberg" }, "geometry": { "type": "Point", "coordinates": [ 6.711014168326967, 50.915708389817496 ] } },
{ "type": "Feature", "properties": { "strassenschluessel": "05362000003208109", "bezeichnung": "An der Malzmühle" }, "geometry": { "type": "Point", "coordinates": [ 6.710966715730519, 50.910664142795014 ] } },
{ "type": "Feature", "properties": { "strassenschluessel": "05362000003208111", "bezeichnung": "Am langen Hau" }, "geometry": { "type": "Point", "coordinates": [ 6.724060489804097, 50.908037102505865 ] } },
{ "type": "Feature", "properties": { "strassenschluessel": "05362000003208112", "bezeichnung": "Am Ronnenpfad" }, "geometry": { "type": "Point", "coordinates": [ 6.710415937151208, 50.903069909202728 ] } },
{ "type": "Feature", "properties": { "strassenschluessel": "05362000003208113", "bezeichnung": "Apollinarisstraße" }, "geometry": { "type": "Point", "coordinates": [ 6.71733597509051, 50.907226661787945 ] } },
{ "type": "Feature", "properties": { "strassenschluessel": "05362000003208114", "bezeichnung": "Auf dem Postberg" }, "geometry": { "type": "Point", "coordinates": [ 6.714121159137619, 50.915518982173722 ] } },
{ "type": "Feature", "properties": { "strassenschluessel": "05362000003208115", "bezeichnung": "Zum Werhahn" }, "geometry": { "type": "Point", "coordinates": [ 6.71241681694463, 50.916578144488255 ] } },
{ "type": "Feature", "properties": { "strassenschluessel": "05362000003208116", "bezeichnung": "Bahnhofstraße" }, "geometry": { "type": "Point", "coordinates": [ 6.712604641332718, 50.91551005360062 ] } },
{ "type": "Feature", "properties": { "strassenschluessel": "05362000003208117", "bezeichnung": "An der alten Kreisbahn" }, "geometry": { "type": "Point", "coordinates": [ 6.717183009996162, 50.901881963043444 ] } },
{ "type": "Feature", "properties": { "strassenschluessel": "05362000003208118", "bezeichnung": "Am Mistiansberg" }, "geometry": { "type": "Point", "coordinates": [ 6.719155755861724, 50.901027333986981 ] } },
{ "type": "Feature", "properties": { "strassenschluessel": "05362000003208119", "bezeichnung": "Auf dem Tonnacker" }, "geometry": { "type": "Point", "coordinates": [ 6.718578531247097, 50.901835512221041 ] } },
{ "type": "Feature", "properties": { "strassenschluessel": "05362000003208120", "bezeichnung": "Villestraße" }, "geometry": { "type": "Point", "coordinates": [ 6.714111851537691, 50.907118535752552 ] } },
{ "type": "Feature", "properties": { "strassenschluessel": "05362000003208121", "bezeichnung": "Oscar-Straus-Straße" }, "geometry": { "type": "Point", "coordinates": [ 6.719777515859853, 50.913964137884285 ] } },
{ "type": "Feature", "properties": { "strassenschluessel": "05362000003208122", "bezeichnung": "Beisselstraße" }, "geometry": { "type": "Point", "coordinates": [ 6.71677021479627, 50.900341398589219 ] } },
{ "type": "Feature", "properties": { "strassenschluessel": "05362000003208123", "bezeichnung": "Am Schulberg" }, "geometry": { "type": "Point", "coordinates": [ 6.716544043324814, 50.910222959645374 ] } },
{ "type": "Feature", "properties": { "strassenschluessel": "05362000003208124", "bezeichnung": "Am Hahnenwall" }, "geometry": { "type": "Point", "coordinates": [ 6.717379419522691, 50.899098926400342 ] } },
{ "type": "Feature", "properties": { "strassenschluessel": "05362000003208126", "bezeichnung": "Wacholderweg" }, "geometry": { "type": "Point", "coordinates": [ 6.721400203927896, 50.90830352597645 ] } },
{ "type": "Feature", "properties": { "strassenschluessel": "05362000003208127", "bezeichnung": "Boisdorfer Straße" }, "geometry": { "type": "Point", "coordinates": [ 6.707786211664717, 50.905135308989436 ] } },
{ "type": "Feature", "properties": { "strassenschluessel": "05362000003208128", "bezeichnung": "Brahmsweg" }, "geometry": { "type": "Point", "coordinates": [ 6.715047713168118, 50.915476488747018 ] } },
{ "type": "Feature", "properties": { "strassenschluessel": "05362000003208129", "bezeichnung": "Buchenhöhe" }, "geometry": { "type": "Point", "coordinates": [ 6.719784340935393, 50.916926293871541 ] } },
{ "type": "Feature", "properties": { "strassenschluessel": "05362000003208130", "bezeichnung": "Burg Hemmersbach" }, "geometry": null },
{ "type": "Feature", "properties": { "strassenschluessel": "05362000003208132", "bezeichnung": "Fontänestraße" }, "geometry": { "type": "Point", "coordinates": [ 6.713995369756656, 50.909409354706824 ] } },
{ "type": "Feature", "properties": { "strassenschluessel": "05362000003208135", "bezeichnung": "Clemensstraße" }, "geometry": { "type": "Point", "coordinates": [ 6.715434264012363, 50.911099084202348 ] } },
{ "type": "Feature", "properties": { "strassenschluessel": "05362000003208140", "bezeichnung": "Cyriakusstraße" }, "geometry": { "type": "Point", "coordinates": [ 6.712512732204978, 50.901602843865639 ] } },
{ "type": "Feature", "properties": { "strassenschluessel": "05362000003208141", "bezeichnung": "Dürerstraße" }, "geometry": { "type": "Point", "coordinates": [ 6.709811766326232, 50.90494151996451 ] } },
{ "type": "Feature", "properties": { "strassenschluessel": "05362000003208142", "bezeichnung": "Dechant-Buff-Straße" }, "geometry": { "type": "Point", "coordinates": [ 6.710054192334297, 50.911618044322793 ] } },
{ "type": "Feature", "properties": { "strassenschluessel": "05362000003208145", "bezeichnung": "Rote-Kreuz-Straße" }, "geometry": { "type": "Point", "coordinates": [ 6.703839990218547, 50.914592432987682 ] } },
{ "type": "Feature", "properties": { "strassenschluessel": "05362000003208146", "bezeichnung": "Erikaweg" }, "geometry": { "type": "Point", "coordinates": [ 6.721934629263944, 50.907830967911131 ] } },
{ "type": "Feature", "properties": { "strassenschluessel": "05362000003208150", "bezeichnung": "Fischbachstraße" }, "geometry": { "type": "Point", "coordinates": [ 6.710181466668621, 50.909988435375794 ] } },
{ "type": "Feature", "properties": { "strassenschluessel": "05362000003208151", "bezeichnung": "Flothstraße" }, "geometry": { "type": "Point", "coordinates": [ 6.710137327188206, 50.917531587732071 ] } },
{ "type": "Feature", "properties": { "strassenschluessel": "05362000003208155", "bezeichnung": "Akazienweg" }, "geometry": { "type": "Point", "coordinates": [ 6.714572022120899, 50.907176854492519 ] } },
{ "type": "Feature", "properties": { "strassenschluessel": "05362000003208156", "bezeichnung": "Thomas-Mann-Straße" }, "geometry": { "type": "Point", "coordinates": [ 6.706218327453182, 50.910209775907234 ] } },
{ "type": "Feature", "properties": { "strassenschluessel": "05362000003208157", "bezeichnung": "Glück-Auf-Straße" }, "geometry": { "type": "Point", "coordinates": [ 6.716217346038066, 50.904753054568722 ] } },
{ "type": "Feature", "properties": { "strassenschluessel": "05362000003208158", "bezeichnung": "Herderstraße" }, "geometry": { "type": "Point", "coordinates": [ 6.707961238645153, 50.912184481527504 ] } },
{ "type": "Feature", "properties": { "strassenschluessel": "05362000003208159", "bezeichnung": "Grabenweg" }, "geometry": { "type": "Point", "coordinates": [ 6.706899251926891, 50.909944547327072 ] } },
{ "type": "Feature", "properties": { "strassenschluessel": "05362000003208160", "bezeichnung": "Graf-Berghe-von-Trips-Ring" }, "geometry": { "type": "Point", "coordinates": [ 6.704339961350923, 50.921234215139258 ] } },
{ "type": "Feature", "properties": { "strassenschluessel": "05362000003208161", "bezeichnung": "Grubenallee" }, "geometry": { "type": "Point", "coordinates": [ 6.72045879867106, 50.903300386338479 ] } },
{ "type": "Feature", "properties": { "strassenschluessel": "05362000003208164", "bezeichnung": "Hauptstraße" }, "geometry": { "type": "Point", "coordinates": [ 6.712760480978541, 50.905522719939505 ] } },
{ "type": "Feature", "properties": { "strassenschluessel": "05362000003208165", "bezeichnung": "Ostermannstraße" }, "geometry": { "type": "Point", "coordinates": [ 6.715842877947327, 50.915120157911552 ] } },
{ "type": "Feature", "properties": { "strassenschluessel": "05362000003208167", "bezeichnung": "Hans-Sachs-Straße" }, "geometry": { "type": "Point", "coordinates": [ 6.707189179953725, 50.914797644964374 ] } },
{ "type": "Feature", "properties": { "strassenschluessel": "05362000003208170", "bezeichnung": "Heideweg" }, "geometry": { "type": "Point", "coordinates": [ 6.719952642567775, 50.907678476158914 ] } },
{ "type": "Feature", "properties": { "strassenschluessel": "05362000003208171", "bezeichnung": "Heidestock" }, "geometry": { "type": "Point", "coordinates": [ 6.718012637190748, 50.907496812228906 ] } },
{ "type": "Feature", "properties": { "strassenschluessel": "05362000003208172", "bezeichnung": "Heinrich-Heine-Straße" }, "geometry": { "type": "Point", "coordinates": [ 6.707743970508042, 50.909111523189878 ] } },
{ "type": "Feature", "properties": { "strassenschluessel": "05362000003208173", "bezeichnung": "Hemmersbacher Heide" }, "geometry": { "type": "Point", "coordinates": [ 6.723279737376322, 50.907369171702335 ] } },
{ "type": "Feature", "properties": { "strassenschluessel": "05362000003208174", "bezeichnung": "Hemmersbacher Straße" }, "geometry": { "type": "Point", "coordinates": [ 6.711381489582466, 50.903645099870637 ] } },
{ "type": "Feature", "properties": { "strassenschluessel": "05362000003208175", "bezeichnung": "Ina-Seidel-Straße" }, "geometry": { "type": "Point", "coordinates": [ 6.716165249041495, 50.9137385705573 ] } },
{ "type": "Feature", "properties": { "strassenschluessel": "05362000003208176", "bezeichnung": "Höhenweg" }, "geometry": { "type": "Point", "coordinates": [ 6.714585500861599, 50.913713796545586 ] } },
{ "type": "Feature", "properties": { "strassenschluessel": "05362000003208177", "bezeichnung": "Holunderweg" }, "geometry": { "type": "Point", "coordinates": [ 6.72131798615039, 50.907690385116474 ] } },
{ "type": "Feature", "properties": { "strassenschluessel": "05362000003208190", "bezeichnung": "Im Abendbusch" }, "geometry": { "type": "Point", "coordinates": [ 6.718067382910122, 50.9022318894812 ] } },
{ "type": "Feature", "properties": { "strassenschluessel": "05362000003208191", "bezeichnung": "Im Bendchen" }, "geometry": { "type": "Point", "coordinates": [ 6.720200949831274, 50.910294879697346 ] } },
{ "type": "Feature", "properties": { "strassenschluessel": "05362000003208192", "bezeichnung": "Im Gotteskircher Feld" }, "geometry": { "type": "Point", "coordinates": [ 6.716397834259569, 50.901807751759691 ] } },
{ "type": "Feature", "properties": { "strassenschluessel": "05362000003208193", "bezeichnung": "Im Boisdorfer Feld" }, "geometry": { "type": "Point", "coordinates": [ 6.716650022896559, 50.901031863097764 ] } },
{ "type": "Feature", "properties": { "strassenschluessel": "05362000003208194", "bezeichnung": "Im Gleisdreieck" }, "geometry": { "type": "Point", "coordinates": [ 6.71556579973514, 50.918093775257802 ] } },
{ "type": "Feature", "properties": { "strassenschluessel": "05362000003208195", "bezeichnung": "Josef-Bitschnau-Straße" }, "geometry": { "type": "Point", "coordinates": [ 6.722206602252257, 50.920608282788649 ] } },
{ "type": "Feature", "properties": { "strassenschluessel": "05362000003208196", "bezeichnung": "Kirschkaul" }, "geometry": { "type": "Point", "coordinates": [ 6.713135307815874, 50.913748472561402 ] } },
{ "type": "Feature", "properties": { "strassenschluessel": "05362000003208197", "bezeichnung": "Adenauerstraße" }, "geometry": { "type": "Point", "coordinates": [ 6.708349249342398, 50.911739005462508 ] } },
{ "type": "Feature", "properties": { "strassenschluessel": "05362000003208198", "bezeichnung": "Knappenberg" }, "geometry": { "type": "Point", "coordinates": [ 6.715513346146262, 50.908849382233953 ] } },
{ "type": "Feature", "properties": { "strassenschluessel": "05362000003208199", "bezeichnung": "Königsdorfer Straße" }, "geometry": { "type": "Point", "coordinates": [ 6.709811207401539, 50.918049751210283 ] } },
{ "type": "Feature", "properties": { "strassenschluessel": "05362000003208200", "bezeichnung": "Kettelerstraße" }, "geometry": { "type": "Point", "coordinates": [ 6.709705233078301, 50.90578803269576 ] } },
{ "type": "Feature", "properties": { "strassenschluessel": "05362000003208202", "bezeichnung": "Pützbenden" }, "geometry": { "type": "Point", "coordinates": [ 6.707855660178092, 50.922006456494884 ] } },
{ "type": "Feature", "properties": { "strassenschluessel": "05362000003208203", "bezeichnung": "Klara-Marie-Faßbinder-Straße" }, "geometry": { "type": "Point", "coordinates": [ 6.712605887740036, 50.918310587122264 ] } },
{ "type": "Feature", "properties": { "strassenschluessel": "05362000003208204", "bezeichnung": "Paulshau" }, "geometry": { "type": "Point", "coordinates": [ 6.709011437794328, 50.922509479497116 ] } },
{ "type": "Feature", "properties": { "strassenschluessel": "05362000003208205", "bezeichnung": "Max-Reger-Straße" }, "geometry": { "type": "Point", "coordinates": [ 6.717164428705061, 50.916110245623351 ] } },
{ "type": "Feature", "properties": { "strassenschluessel": "05362000003208206", "bezeichnung": "Lenbachpfad" }, "geometry": { "type": "Point", "coordinates": [ 6.708666250750186, 50.907958917226978 ] } },
{ "type": "Feature", "properties": { "strassenschluessel": "05362000003208207", "bezeichnung": "Verdistraße" }, "geometry": { "type": "Point", "coordinates": [ 6.721065802683409, 50.914180183754226 ] } },
{ "type": "Feature", "properties": { "strassenschluessel": "05362000003208208", "bezeichnung": "Zur alten Kartbahn" }, "geometry": { "type": "Point", "coordinates": [ 6.70934773076551, 50.922924547018873 ] } },
{ "type": "Feature", "properties": { "strassenschluessel": "05362000003208211", "bezeichnung": "Götzenkirchener Straße" }, "geometry": { "type": "Point", "coordinates": [ 6.711949289191493, 50.901768378878231 ] } },
{ "type": "Feature", "properties": { "strassenschluessel": "05362000003208212", "bezeichnung": "Maurinplatz" }, "geometry": { "type": "Point", "coordinates": [ 6.714340576112715, 50.901075458145499 ] } },
{ "type": "Feature", "properties": { "strassenschluessel": "05362000003208213", "bezeichnung": "Merkurweg" }, "geometry": { "type": "Point", "coordinates": [ 6.70938632947813, 50.91368815162663 ] } },
{ "type": "Feature", "properties": { "strassenschluessel": "05362000003208214", "bezeichnung": "Merodestraße" }, "geometry": { "type": "Point", "coordinates": [ 6.710055084784392, 50.908598578450402 ] } },
{ "type": "Feature", "properties": { "strassenschluessel": "05362000003208215", "bezeichnung": "Mittelstraße" }, "geometry": { "type": "Point", "coordinates": [ 6.712126148713504, 50.913367355045992 ] } },
{ "type": "Feature", "properties": { "strassenschluessel": "05362000003208216", "bezeichnung": "Menzelstraße" }, "geometry": { "type": "Point", "coordinates": [ 6.708669696342136, 50.905097669800263 ] } },
{ "type": "Feature", "properties": { "strassenschluessel": "05362000003208217", "bezeichnung": "Mozartstraße" }, "geometry": { "type": "Point", "coordinates": [ 6.720150169108404, 50.913600025557848 ] } },
{ "type": "Feature", "properties": { "strassenschluessel": "05362000003208218", "bezeichnung": "Mühlengraben" }, "geometry": { "type": "Point", "coordinates": [ 6.713932579049501, 50.91186415274337 ] } },
{ "type": "Feature", "properties": { "strassenschluessel": "05362000003208224", "bezeichnung": "Oderstraße" }, "geometry": { "type": "Point", "coordinates": [ 6.708631926645241, 50.909068377301807 ] } },
{ "type": "Feature", "properties": { "strassenschluessel": "05362000003208227", "bezeichnung": "Parkstraße" }, "geometry": { "type": "Point", "coordinates": [ 6.70376563214039, 50.917533337970411 ] } },
{ "type": "Feature", "properties": { "strassenschluessel": "05362000003208228", "bezeichnung": "Pfarrer-Peter-Daniels-Platz" }, "geometry": null },
{ "type": "Feature", "properties": { "strassenschluessel": "05362000003208230", "bezeichnung": "Rathausstraße" }, "geometry": { "type": "Point", "coordinates": [ 6.706361151182889, 50.914889429261329 ] } },
{ "type": "Feature", "properties": { "strassenschluessel": "05362000003208231", "bezeichnung": "Rembrandtstraße" }, "geometry": { "type": "Point", "coordinates": [ 6.709819296604932, 50.902728360005078 ] } },
{ "type": "Feature", "properties": { "strassenschluessel": "05362000003208232", "bezeichnung": "Röttgenpfad" }, "geometry": null },
{ "type": "Feature", "properties": { "strassenschluessel": "05362000003208233", "bezeichnung": "Rubensstraße" }, "geometry": { "type": "Point", "coordinates": [ 6.710114291155445, 50.906554039015724 ] } },
{ "type": "Feature", "properties": { "strassenschluessel": "05362000003208236", "bezeichnung": "Sanddornweg" }, "geometry": { "type": "Point", "coordinates": [ 6.723825009622892, 50.907429087122118 ] } },
{ "type": "Feature", "properties": { "strassenschluessel": "05362000003208237", "bezeichnung": "Sandweg" }, "geometry": { "type": "Point", "coordinates": [ 6.71424978557503, 50.905073576398472 ] } },
{ "type": "Feature", "properties": { "strassenschluessel": "05362000003208238", "bezeichnung": "Sistenichstraße" }, "geometry": { "type": "Point", "coordinates": [ 6.709785225277244, 50.910413878935017 ] } },
{ "type": "Feature", "properties": { "strassenschluessel": "05362000003208239", "bezeichnung": "Spitzwegstraße" }, "geometry": { "type": "Point", "coordinates": [ 6.708936050676784, 50.907188706180939 ] } },
{ "type": "Feature", "properties": { "strassenschluessel": "05362000003208242", "bezeichnung": "Hebbelstraße" }, "geometry": { "type": "Point", "coordinates": [ 6.707677599529595, 50.909984770758584 ] } },
{ "type": "Feature", "properties": { "strassenschluessel": "05362000003208243", "bezeichnung": "Schloßstraße" }, "geometry": { "type": "Point", "coordinates": [ 6.706771232092201, 50.916129824221322 ] } },
{ "type": "Feature", "properties": { "strassenschluessel": "05362000003208244", "bezeichnung": "Ichendorfer Straße" }, "geometry": { "type": "Point", "coordinates": [ 6.708204831181103, 50.916721079237917 ] } },
{ "type": "Feature", "properties": { "strassenschluessel": "05362000003208248", "bezeichnung": "Am Hügel" }, "geometry": { "type": "Point", "coordinates": [ 6.716462728265549, 50.90659358017281 ] } },
{ "type": "Feature", "properties": { "strassenschluessel": "05362000003208252", "bezeichnung": "Taubentalweg" }, "geometry": { "type": "Point", "coordinates": [ 6.711996822690829, 50.904368204810694 ] } },
{ "type": "Feature", "properties": { "strassenschluessel": "05362000003208253", "bezeichnung": "Schiefbahn" }, "geometry": { "type": "Point", "coordinates": [ 6.716552111487319, 50.91158120816629 ] } },
{ "type": "Feature", "properties": { "strassenschluessel": "05362000003208256", "bezeichnung": "Van-Gogh-Straße" }, "geometry": { "type": "Point", "coordinates": [ 6.706962653875312, 50.905054569268366 ] } },
{ "type": "Feature", "properties": { "strassenschluessel": "05362000003208257", "bezeichnung": "Waldweg" }, "geometry": { "type": "Point", "coordinates": [ 6.710291299923505, 50.918768490691647 ] } },
{ "type": "Feature", "properties": { "strassenschluessel": "05362000003208258", "bezeichnung": "Wallrafstraße" }, "geometry": { "type": "Point", "coordinates": [ 6.713656551686026, 50.902036534142397 ] } },
{ "type": "Feature", "properties": { "strassenschluessel": "05362000003208259", "bezeichnung": "Weißer Weg" }, "geometry": { "type": "Point", "coordinates": [ 6.705372998588313, 50.916385492971806 ] } },
{ "type": "Feature", "properties": { "strassenschluessel": "05362000003208260", "bezeichnung": "Widau" }, "geometry": { "type": "Point", "coordinates": [ 6.725591302465702, 50.90843642482249 ] } },
{ "type": "Feature", "properties": { "strassenschluessel": "05362000003208261", "bezeichnung": "Wiesenstraße" }, "geometry": { "type": "Point", "coordinates": [ 6.706336873448158, 50.912627231172536 ] } },
{ "type": "Feature", "properties": { "strassenschluessel": "05362000003208267", "bezeichnung": "Zum Bongert" }, "geometry": { "type": "Point", "coordinates": [ 6.722359488742963, 50.909288209179451 ] } },
{ "type": "Feature", "properties": { "strassenschluessel": "05362000003208268", "bezeichnung": "Zum Wolfsberg" }, "geometry": { "type": "Point", "coordinates": [ 6.71119132954794, 50.919592762499093 ] } },
{ "type": "Feature", "properties": { "strassenschluessel": "05362000003208269", "bezeichnung": "Im alten Hof" }, "geometry": { "type": "Point", "coordinates": [ 6.715363646163583, 50.898822257753523 ] } },
{ "type": "Feature", "properties": { "strassenschluessel": "05362000003208301", "bezeichnung": "Buchenweg" }, "geometry": { "type": "Point", "coordinates": [ 6.729301922889817, 50.915862944981669 ] } },
{ "type": "Feature", "properties": { "strassenschluessel": "05362000003208304", "bezeichnung": "Eichenweg" }, "geometry": { "type": "Point", "coordinates": [ 6.723719030159267, 50.913159600178176 ] } },
{ "type": "Feature", "properties": { "strassenschluessel": "05362000003208305", "bezeichnung": "Eschenweg" }, "geometry": { "type": "Point", "coordinates": [ 6.724483166893444, 50.914641095327973 ] } },
{ "type": "Feature", "properties": { "strassenschluessel": "05362000003208307", "bezeichnung": "Grete-Fluss-Straße" }, "geometry": { "type": "Point", "coordinates": [ 6.660038398163949, 50.910140677895519 ] } },
{ "type": "Feature", "properties": { "strassenschluessel": "05362000003208308", "bezeichnung": "Ginsterweg" }, "geometry": { "type": "Point", "coordinates": [ 6.726947896035516, 50.917572403383076 ] } },
{ "type": "Feature", "properties": { "strassenschluessel": "05362000003208309", "bezeichnung": "Gerhard-Ebeler-Straße" }, "geometry": { "type": "Point", "coordinates": [ 6.664113019465924, 50.909788773149536 ] } },
{ "type": "Feature", "properties": { "strassenschluessel": "05362000003208310", "bezeichnung": "Habbelrather Straße" }, "geometry": { "type": "Point", "coordinates": [ 6.728172765777368, 50.914561157667592 ] } },
{ "type": "Feature", "properties": { "strassenschluessel": "05362000003208311", "bezeichnung": "Holzhausener Weg" }, "geometry": { "type": "Point", "coordinates": [ 6.725310403789159, 50.914967239040088 ] } },
{ "type": "Feature", "properties": { "strassenschluessel": "05362000003208313", "bezeichnung": "Horremer Straße" }, "geometry": { "type": "Point", "coordinates": [ 6.727553656660921, 50.915956713117843 ] } },
{ "type": "Feature", "properties": { "strassenschluessel": "05362000003208314", "bezeichnung": "Theresia-von-Wüllenweber-Straße" }, "geometry": { "type": "Point", "coordinates": [ 6.722708102068946, 50.912641605218035 ] } },
{ "type": "Feature", "properties": { "strassenschluessel": "05362000003208315", "bezeichnung": "Jupp-Schmitz-Straße" }, "geometry": { "type": "Point", "coordinates": [ 6.664515081781567, 50.909395698658422 ] } },
{ "type": "Feature", "properties": { "strassenschluessel": "05362000003208316", "bezeichnung": "Karl-Berbuer-Straße" }, "geometry": { "type": "Point", "coordinates": [ 6.662724795211839, 50.909614830768653 ] } },
{ "type": "Feature", "properties": { "strassenschluessel": "05362000003208318", "bezeichnung": "Tannenweg" }, "geometry": { "type": "Point", "coordinates": [ 6.727965160994628, 50.916909480735306 ] } },
{ "type": "Feature", "properties": { "strassenschluessel": "05362000003208321", "bezeichnung": "Am Bahnhof" }, "geometry": { "type": "Point", "coordinates": [ 6.670401163088048, 50.89994207560558 ] } },
{ "type": "Feature", "properties": { "strassenschluessel": "05362000003208322", "bezeichnung": "Am Entenpfuhl" }, "geometry": { "type": "Point", "coordinates": [ 6.672968025996748, 50.910070764708571 ] } },
{ "type": "Feature", "properties": { "strassenschluessel": "05362000003208323", "bezeichnung": "Am Gewerbehof" }, "geometry": { "type": "Point", "coordinates": [ 6.671930338017943, 50.8965923242786 ] } },
{ "type": "Feature", "properties": { "strassenschluessel": "05362000003208324", "bezeichnung": "Am Hüttenhof" }, "geometry": { "type": "Point", "coordinates": [ 6.671688729682243, 50.910803499730306 ] } },
{ "type": "Feature", "properties": { "strassenschluessel": "05362000003208325", "bezeichnung": "Am Keuschenend" }, "geometry": { "type": "Point", "coordinates": [ 6.669806140861075, 50.910102469597376 ] } },
{ "type": "Feature", "properties": { "strassenschluessel": "05362000003208326", "bezeichnung": "Am Kuhweg" }, "geometry": { "type": "Point", "coordinates": [ 6.673380944245254, 50.901655239220922 ] } },
{ "type": "Feature", "properties": { "strassenschluessel": "05362000003208327", "bezeichnung": "Am Obstgarten" }, "geometry": { "type": "Point", "coordinates": [ 6.674561098095549, 50.911612153329635 ] } },
{ "type": "Feature", "properties": { "strassenschluessel": "05362000003208328", "bezeichnung": "Am Rosengarten" }, "geometry": { "type": "Point", "coordinates": [ 6.669052378461251, 50.898676210776273 ] } },
{ "type": "Feature", "properties": { "strassenschluessel": "05362000003208329", "bezeichnung": "Antoniusstraße" }, "geometry": { "type": "Point", "coordinates": [ 6.681271297188175, 50.900516785091526 ] } },
{ "type": "Feature", "properties": { "strassenschluessel": "05362000003208330", "bezeichnung": "Apostelweg" }, "geometry": { "type": "Point", "coordinates": [ 6.67945866237278, 50.90188423639983 ] } },
{ "type": "Feature", "properties": { "strassenschluessel": "05362000003208331", "bezeichnung": "Augsburger Straße" }, "geometry": { "type": "Point", "coordinates": [ 6.678910311872198, 50.90721345632614 ] } },
{ "type": "Feature", "properties": { "strassenschluessel": "05362000003208332", "bezeichnung": "Nelly-Sachs-Weg" }, "geometry": { "type": "Point", "coordinates": [ 6.680412240786032, 50.913276817377778 ] } },
{ "type": "Feature", "properties": { "strassenschluessel": "05362000003208333", "bezeichnung": "An der Zehsmaar" }, "geometry": { "type": "Point", "coordinates": [ 6.666927933774212, 50.91039441230739 ] } },
{ "type": "Feature", "properties": { "strassenschluessel": "05362000003208334", "bezeichnung": "Astrid-Lindgren-Straße" }, "geometry": { "type": "Point", "coordinates": [ 6.662136430792849, 50.905857925984989 ] } },
{ "type": "Feature", "properties": { "strassenschluessel": "05362000003208337", "bezeichnung": "Erich-Kästner-Straße" }, "geometry": { "type": "Point", "coordinates": [ 6.681105612129826, 50.913336602138195 ] } },
{ "type": "Feature", "properties": { "strassenschluessel": "05362000003208338", "bezeichnung": "Gluckstraße" }, "geometry": { "type": "Point", "coordinates": [ 6.665518178322872, 50.903045487623494 ] } },
{ "type": "Feature", "properties": { "strassenschluessel": "05362000003208340", "bezeichnung": "Gustav-Heinemann-Straße" }, "geometry": { "type": "Point", "coordinates": [ 6.676192559960585, 50.900465303580454 ] } },
{ "type": "Feature", "properties": { "strassenschluessel": "05362000003208341", "bezeichnung": "Orffstraße" }, "geometry": { "type": "Point", "coordinates": [ 6.668836089111735, 50.905132222627842 ] } },
{ "type": "Feature", "properties": { "strassenschluessel": "05362000003208342", "bezeichnung": "Berliner Ring" }, "geometry": { "type": "Point", "coordinates": [ 6.67801029765272, 50.905545807865501 ] } },
{ "type": "Feature", "properties": { "strassenschluessel": "05362000003208343", "bezeichnung": "Bodelschwinghstraße" }, "geometry": { "type": "Point", "coordinates": [ 6.681285003802569, 50.901789991232917 ] } },
{ "type": "Feature", "properties": { "strassenschluessel": "05362000003208345", "bezeichnung": "Breslauer Straße" }, "geometry": { "type": "Point", "coordinates": [ 6.68145716831196, 50.905488929169074 ] } },
{ "type": "Feature", "properties": { "strassenschluessel": "05362000003208346", "bezeichnung": "Brucknerstraße" }, "geometry": { "type": "Point", "coordinates": [ 6.671961626133973, 50.905187936956303 ] } },
{ "type": "Feature", "properties": { "strassenschluessel": "05362000003208347", "bezeichnung": "Broichhof" }, "geometry": { "type": "Point", "coordinates": [ 6.68832103623674, 50.903662734311816 ] } },
{ "type": "Feature", "properties": { "strassenschluessel": "05362000003208348", "bezeichnung": "Breite Straße" }, "geometry": { "type": "Point", "coordinates": [ 6.667818572147726, 50.90355498267035 ] } },
{ "type": "Feature", "properties": { "strassenschluessel": "05362000003208349", "bezeichnung": "Computacenter Park" }, "geometry": { "type": "Point", "coordinates": [ 6.667463143577213, 50.892446563508067 ] } },
{ "type": "Feature", "properties": { "strassenschluessel": "05362000003208350", "bezeichnung": "Bruchhöhe" }, "geometry": { "type": "Point", "coordinates": [ 6.689547443874454, 50.909228482091557 ] } },
{ "type": "Feature", "properties": { "strassenschluessel": "05362000003208351", "bezeichnung": "Buchfinkenweg" }, "geometry": { "type": "Point", "coordinates": [ 6.666104939134352, 50.901822045959072 ] } },
{ "type": "Feature", "properties": { "strassenschluessel": "05362000003208352", "bezeichnung": "Chemnitzer Straße" }, "geometry": { "type": "Point", "coordinates": [ 6.683812795440845, 50.909645204689689 ] } },
{ "type": "Feature", "properties": { "strassenschluessel": "05362000003208353", "bezeichnung": "Elisabeth-von-Lemmen-Straße" }, "geometry": { "type": "Point", "coordinates": [ 6.661237324104199, 50.907759518022388 ] } },
{ "type": "Feature", "properties": { "strassenschluessel": "05362000003208354", "bezeichnung": "Daimlerstraße" }, "geometry": { "type": "Point", "coordinates": [ 6.665508628636822, 50.896378947106918 ] } },
{ "type": "Feature", "properties": { "strassenschluessel": "05362000003208355", "bezeichnung": "Dammstraße" }, "geometry": { "type": "Point", "coordinates": [ 6.673936469407619, 50.901364856856929 ] } },
{ "type": "Feature", "properties": { "strassenschluessel": "05362000003208356", "bezeichnung": "Danziger Straße" }, "geometry": { "type": "Point", "coordinates": [ 6.682737521128426, 50.906224871706435 ] } },
{ "type": "Feature", "properties": { "strassenschluessel": "05362000003208357", "bezeichnung": "Dickenbusch" }, "geometry": { "type": "Point", "coordinates": [ 6.667590289289395, 50.899611278286912 ] } },
{ "type": "Feature", "properties": { "strassenschluessel": "05362000003208358", "bezeichnung": "Dieselstraße" }, "geometry": { "type": "Point", "coordinates": [ 6.675747162620655, 50.897158623162369 ] } },
{ "type": "Feature", "properties": { "strassenschluessel": "05362000003208359", "bezeichnung": "Dresdner Straße" }, "geometry": { "type": "Point", "coordinates": [ 6.683647870481343, 50.909064579239143 ] } },
{ "type": "Feature", "properties": { "strassenschluessel": "05362000003208360", "bezeichnung": "Dickeicherfeld" }, "geometry": { "type": "Point", "coordinates": [ 6.668058439994421, 50.907327244002566 ] } },
{ "type": "Feature", "properties": { "strassenschluessel": "05362000003208361", "bezeichnung": "Heinrich-Böll-Platz" }, "geometry": { "type": "Point", "coordinates": [ 6.676577884599781, 50.914797657928425 ] } },
{ "type": "Feature", "properties": { "strassenschluessel": "05362000003208362", "bezeichnung": "Herrenweg" }, "geometry": null },
{ "type": "Feature", "properties": { "strassenschluessel": "05362000003208363", "bezeichnung": "Gänseblümchenweg" }, "geometry": { "type": "Point", "coordinates": [ 6.666513672627193, 50.912860593935775 ] } },
{ "type": "Feature", "properties": { "strassenschluessel": "05362000003208364", "bezeichnung": "Erftstraße" }, "geometry": { "type": "Point", "coordinates": [ 6.673605847382885, 50.90920517552717 ] } },
{ "type": "Feature", "properties": { "strassenschluessel": "05362000003208365", "bezeichnung": "Erfttalstraße" }, "geometry": null },
{ "type": "Feature", "properties": { "strassenschluessel": "05362000003208366", "bezeichnung": "Europaring" }, "geometry": { "type": "Point", "coordinates": [ 6.674915646236171, 50.895062578229528 ] } },
{ "type": "Feature", "properties": { "strassenschluessel": "05362000003208368", "bezeichnung": "Alfred-Döblin-Straße" }, "geometry": { "type": "Point", "coordinates": [ 6.678462989338783, 50.913157927946564 ] } },
{ "type": "Feature", "properties": { "strassenschluessel": "05362000003208369", "bezeichnung": "Fuchsiusstraße" }, "geometry": { "type": "Point", "coordinates": [ 6.668154975649953, 50.903496012127441 ] } },
{ "type": "Feature", "properties": { "strassenschluessel": "05362000003208371", "bezeichnung": "Glockenblumenweg" }, "geometry": { "type": "Point", "coordinates": [ 6.66610903409487, 50.911428402741258 ] } },
{ "type": "Feature", "properties": { "strassenschluessel": "05362000003208372", "bezeichnung": "Gartenstraße" }, "geometry": { "type": "Point", "coordinates": [ 6.674075606669515, 50.907268366152749 ] } },
{ "type": "Feature", "properties": { "strassenschluessel": "05362000003208373", "bezeichnung": "Gerhart-Hauptmann-Straße" }, "geometry": { "type": "Point", "coordinates": [ 6.676547630615687, 50.907233732226935 ] } },
{ "type": "Feature", "properties": { "strassenschluessel": "05362000003208374", "bezeichnung": "Von-Stauffenberg-Straße" }, "geometry": { "type": "Point", "coordinates": [ 6.677621229353134, 50.89936002314959 ] } },
{ "type": "Feature", "properties": { "strassenschluessel": "05362000003208375", "bezeichnung": "Glockenring" }, "geometry": { "type": "Point", "coordinates": [ 6.671708659725513, 50.907478865371907 ] } },
{ "type": "Feature", "properties": { "strassenschluessel": "05362000003208376", "bezeichnung": "Goethestraße" }, "geometry": { "type": "Point", "coordinates": [ 6.678082344920759, 50.904300831544091 ] } },
{ "type": "Feature", "properties": { "strassenschluessel": "05362000003208377", "bezeichnung": "Graf-von-Galen-Straße" }, "geometry": { "type": "Point", "coordinates": [ 6.67914068582192, 50.899750290449944 ] } },
{ "type": "Feature", "properties": { "strassenschluessel": "05362000003208378", "bezeichnung": "Geilrather Weg" }, "geometry": { "type": "Point", "coordinates": [ 6.666181801311495, 50.907527650027838 ] } },
{ "type": "Feature", "properties": { "strassenschluessel": "05362000003208379", "bezeichnung": "Goldammerweg" }, "geometry": { "type": "Point", "coordinates": [ 6.659696207275581, 50.900901283538516 ] } },
{ "type": "Feature", "properties": { "strassenschluessel": "05362000003208380", "bezeichnung": "Hans-Christian-Andersen-Straße" }, "geometry": { "type": "Point", "coordinates": [ 6.664483125961011, 50.905968838525951 ] } },
{ "type": "Feature", "properties": { "strassenschluessel": "05362000003208381", "bezeichnung": "Hermann-Hesse-Straße" }, "geometry": { "type": "Point", "coordinates": [ 6.679508218774843, 50.913883434222157 ] } },
{ "type": "Feature", "properties": { "strassenschluessel": "05362000003208382", "bezeichnung": "Haus Breitmaar" }, "geometry": { "type": "Point", "coordinates": [ 6.65544634420441, 50.898337522297417 ] } },
{ "type": "Feature", "properties": { "strassenschluessel": "05362000003208383", "bezeichnung": "Haydnstraße" }, "geometry": { "type": "Point", "coordinates": [ 6.666764454047381, 50.90230056653035 ] } },
{ "type": "Feature", "properties": { "strassenschluessel": "05362000003208384", "bezeichnung": "Brechtstraße" }, "geometry": { "type": "Point", "coordinates": [ 6.675967124732568, 50.905833475048951 ] } },
{ "type": "Feature", "properties": { "strassenschluessel": "05362000003208385", "bezeichnung": "Heppendorfer Straße" }, "geometry": { "type": "Point", "coordinates": [ 6.670981155187278, 50.909639315424371 ] } },
{ "type": "Feature", "properties": { "strassenschluessel": "05362000003208386", "bezeichnung": "Hermann-Löns-Straße" }, "geometry": { "type": "Point", "coordinates": [ 6.67868308905015, 50.904191749155693 ] } },
{ "type": "Feature", "properties": { "strassenschluessel": "05362000003208387", "bezeichnung": "Herrenstraße" }, "geometry": { "type": "Point", "coordinates": [ 6.675570463691679, 50.901725362280366 ] } },
{ "type": "Feature", "properties": { "strassenschluessel": "05362000003208388", "bezeichnung": "Hüttenstraße" }, "geometry": { "type": "Point", "coordinates": [ 6.663434975499116, 50.898791818993139 ] } },
{ "type": "Feature", "properties": { "strassenschluessel": "05362000003208389", "bezeichnung": "Heinrich-Weber-Weg" }, "geometry": { "type": "Point", "coordinates": [ 6.6600565905017, 50.906321001273639 ] } },
{ "type": "Feature", "properties": { "strassenschluessel": "05362000003208390", "bezeichnung": "Maiglöckchenweg" }, "geometry": { "type": "Point", "coordinates": [ 6.663131433324113, 50.911350052403314 ] } },
{ "type": "Feature", "properties": { "strassenschluessel": "05362000003208391", "bezeichnung": "Marga und Walter Boll-Platz" }, "geometry": null },
{ "type": "Feature", "properties": { "strassenschluessel": "05362000003208392", "bezeichnung": "Jules-Verne-Straße" }, "geometry": { "type": "Point", "coordinates": [ 6.663609696192241, 50.906405568883152 ] } },
{ "type": "Feature", "properties": { "strassenschluessel": "05362000003208393", "bezeichnung": "Im Broich" }, "geometry": { "type": "Point", "coordinates": [ 6.687390216957609, 50.905017354863752 ] } },
{ "type": "Feature", "properties": { "strassenschluessel": "05362000003208394", "bezeichnung": "Im Dänert" }, "geometry": { "type": "Point", "coordinates": [ 6.671565073483146, 50.908531851740491 ] } },
{ "type": "Feature", "properties": { "strassenschluessel": "05362000003208396", "bezeichnung": "Jagdfeld" }, "geometry": { "type": "Point", "coordinates": [ 6.668752571040558, 50.907251351257209 ] } },
{ "type": "Feature", "properties": { "strassenschluessel": "05362000003208397", "bezeichnung": "Kiebitzweg" }, "geometry": { "type": "Point", "coordinates": [ 6.663023907573361, 50.902693572587395 ] } },
{ "type": "Feature", "properties": { "strassenschluessel": "05362000003208398", "bezeichnung": "Thomas-Münzer-Straße" }, "geometry": { "type": "Point", "coordinates": [ 6.674510952419032, 50.89934661186733 ] } },
{ "type": "Feature", "properties": { "strassenschluessel": "05362000003208399", "bezeichnung": "Josefstraße" }, "geometry": { "type": "Point", "coordinates": [ 6.679405187880938, 50.901529486751059 ] } },
{ "type": "Feature", "properties": { "strassenschluessel": "05362000003208400", "bezeichnung": "Karl-Ferdinand-Braun-Straße" }, "geometry": { "type": "Point", "coordinates": [ 6.644112270552022, 50.897121762465133 ] } },
{ "type": "Feature", "properties": { "strassenschluessel": "05362000003208401", "bezeichnung": "Käthe-Kollwitz-Straße" }, "geometry": { "type": "Point", "coordinates": [ 6.676023760568673, 50.916863713840542 ] } },
{ "type": "Feature", "properties": { "strassenschluessel": "05362000003208402", "bezeichnung": "Kampstraße" }, "geometry": { "type": "Point", "coordinates": [ 6.677185939391475, 50.91409896406774 ] } },
{ "type": "Feature", "properties": { "strassenschluessel": "05362000003208403", "bezeichnung": "Karl-Arnold-Straße" }, "geometry": { "type": "Point", "coordinates": [ 6.674987353711419, 50.898566309467768 ] } },
{ "type": "Feature", "properties": { "strassenschluessel": "05362000003208404", "bezeichnung": "Carl-Schurz-Straße" }, "geometry": { "type": "Point", "coordinates": [ 6.675980957630495, 50.903727390854165 ] } },
{ "type": "Feature", "properties": { "strassenschluessel": "05362000003208405", "bezeichnung": "Kerpener Straße" }, "geometry": { "type": "Point", "coordinates": [ 6.680472254149846, 50.900108759297865 ] } },
{ "type": "Feature", "properties": { "strassenschluessel": "05362000003208406", "bezeichnung": "Knappenweg" }, "geometry": null },
{ "type": "Feature", "properties": { "strassenschluessel": "05362000003208407", "bezeichnung": "Königsberger Straße" }, "geometry": { "type": "Point", "coordinates": [ 6.683554888701151, 50.90825161482605 ] } },
{ "type": "Feature", "properties": { "strassenschluessel": "05362000003208408", "bezeichnung": "Zum Breitmaar" }, "geometry": { "type": "Point", "coordinates": [ 6.672447967280871, 50.907185698691585 ] } },
{ "type": "Feature", "properties": { "strassenschluessel": "05362000003208409", "bezeichnung": "Kurt-Schumacher-Straße" }, "geometry": null },
{ "type": "Feature", "properties": { "strassenschluessel": "05362000003208410", "bezeichnung": "Kneppchenweg" }, "geometry": null },
{ "type": "Feature", "properties": { "strassenschluessel": "05362000003208411", "bezeichnung": "Möschenheck" }, "geometry": { "type": "Point", "coordinates": [ 6.667569289328488, 50.910403329446616 ] } },
{ "type": "Feature", "properties": { "strassenschluessel": "05362000003208412", "bezeichnung": "Michael-Schumacher-Straße" }, "geometry": { "type": "Point", "coordinates": [ 6.675812425853821, 50.891623651111274 ] } },
{ "type": "Feature", "properties": { "strassenschluessel": "05362000003208413", "bezeichnung": "Lammertsheck" }, "geometry": { "type": "Point", "coordinates": [ 6.668696723340582, 50.909806313417882 ] } },
{ "type": "Feature", "properties": { "strassenschluessel": "05362000003208414", "bezeichnung": "Reiterhof im Jagdfeld" }, "geometry": null },
{ "type": "Feature", "properties": { "strassenschluessel": "05362000003208415", "bezeichnung": "Konrad-Honings-Straße" }, "geometry": { "type": "Point", "coordinates": [ 6.662921453127022, 50.908385983661503 ] } },
{ "type": "Feature", "properties": { "strassenschluessel": "05362000003208416", "bezeichnung": "Falladastraße" }, "geometry": { "type": "Point", "coordinates": [ 6.67832430067943, 50.905040594016107 ] } },
{ "type": "Feature", "properties": { "strassenschluessel": "05362000003208417", "bezeichnung": "Luisenstraße" }, "geometry": { "type": "Point", "coordinates": [ 6.670044116349525, 50.897536929474278 ] } },
{ "type": "Feature", "properties": { "strassenschluessel": "05362000003208418", "bezeichnung": "Karl-Breitbach-Weg" }, "geometry": { "type": "Point", "coordinates": [ 6.659730496768674, 50.907737385489249 ] } },
{ "type": "Feature", "properties": { "strassenschluessel": "05362000003208419", "bezeichnung": "Kornblumenweg" }, "geometry": { "type": "Point", "coordinates": [ 6.664161456993165, 50.912491850554247 ] } },
{ "type": "Feature", "properties": { "strassenschluessel": "05362000003208420", "bezeichnung": "Michael-Ende-Straße" }, "geometry": { "type": "Point", "coordinates": [ 6.662880194661349, 50.906247422765539 ] } },
{ "type": "Feature", "properties": { "strassenschluessel": "05362000003208421", "bezeichnung": "Margaretenweg" }, "geometry": { "type": "Point", "coordinates": [ 6.670619770346099, 50.903406001622919 ] } },
{ "type": "Feature", "properties": { "strassenschluessel": "05362000003208422", "bezeichnung": "Markusweg" }, "geometry": { "type": "Point", "coordinates": [ 6.681302451122765, 50.899910163685057 ] } },
{ "type": "Feature", "properties": { "strassenschluessel": "05362000003208423", "bezeichnung": "Martin-Luther-Straße" }, "geometry": { "type": "Point", "coordinates": [ 6.682066893368832, 50.90225197707592 ] } },
{ "type": "Feature", "properties": { "strassenschluessel": "05362000003208424", "bezeichnung": "Mastenweg" }, "geometry": null },
{ "type": "Feature", "properties": { "strassenschluessel": "05362000003208425", "bezeichnung": "Heinz-Wassen-Straße" }, "geometry": { "type": "Point", "coordinates": [ 6.671605980926419, 50.903372681543509 ] } },
{ "type": "Feature", "properties": { "strassenschluessel": "05362000003208426", "bezeichnung": "Gustav-Mahler-Straße" }, "geometry": { "type": "Point", "coordinates": [ 6.670014813327716, 50.905941629147748 ] } },
{ "type": "Feature", "properties": { "strassenschluessel": "05362000003208427", "bezeichnung": "Münchener Straße" }, "geometry": { "type": "Point", "coordinates": [ 6.679475918444114, 50.906511720766652 ] } },
{ "type": "Feature", "properties": { "strassenschluessel": "05362000003208431", "bezeichnung": "Pfarrer-Stratmann-Straße" }, "geometry": { "type": "Point", "coordinates": [ 6.662815432727329, 50.906827419049542 ] } },
{ "type": "Feature", "properties": { "strassenschluessel": "05362000003208432", "bezeichnung": "Pfarrer-Gaevert-Straße" }, "geometry": { "type": "Point", "coordinates": [ 6.664804664036926, 50.907883071602598 ] } },
{ "type": "Feature", "properties": { "strassenschluessel": "05362000003208433", "bezeichnung": "Naumburger Straße" }, "geometry": { "type": "Point", "coordinates": [ 6.68195969949354, 50.907285618097703 ] } },
{ "type": "Feature", "properties": { "strassenschluessel": "05362000003208434", "bezeichnung": "Nikolausweg" }, "geometry": { "type": "Point", "coordinates": [ 6.678925746091505, 50.902223078401121 ] } },
{ "type": "Feature", "properties": { "strassenschluessel": "05362000003208435", "bezeichnung": "Nordstraße" }, "geometry": { "type": "Point", "coordinates": [ 6.672409296407897, 50.913084121691753 ] } },
{ "type": "Feature", "properties": { "strassenschluessel": "05362000003208436", "bezeichnung": "Peter-Härtling-Straße" }, "geometry": { "type": "Point", "coordinates": [ 6.664608343773481, 50.905582742451784 ] } },
{ "type": "Feature", "properties": { "strassenschluessel": "05362000003208437", "bezeichnung": "Otfried-Preußler-Straße" }, "geometry": { "type": "Point", "coordinates": [ 6.659797504601378, 50.905119625151819 ] } },
{ "type": "Feature", "properties": { "strassenschluessel": "05362000003208438", "bezeichnung": "Offenbachweg" }, "geometry": { "type": "Point", "coordinates": [ 6.667797189441571, 50.904756158275219 ] } },
{ "type": "Feature", "properties": { "strassenschluessel": "05362000003208439", "bezeichnung": "Ottostraße" }, "geometry": { "type": "Point", "coordinates": [ 6.672864266816766, 50.895952058955977 ] } },
{ "type": "Feature", "properties": { "strassenschluessel": "05362000003208440", "bezeichnung": "Rotkehlchenweg" }, "geometry": { "type": "Point", "coordinates": [ 6.659874233759574, 50.90262938942066 ] } },
{ "type": "Feature", "properties": { "strassenschluessel": "05362000003208441", "bezeichnung": "Pater-Delp-Straße" }, "geometry": { "type": "Point", "coordinates": [ 6.678711716390103, 50.899475926305861 ] } },
{ "type": "Feature", "properties": { "strassenschluessel": "05362000003208442", "bezeichnung": "Plauener Straße" }, "geometry": { "type": "Point", "coordinates": [ 6.681909687039856, 50.906199130021072 ] } },
{ "type": "Feature", "properties": { "strassenschluessel": "05362000003208443", "bezeichnung": "Erich-Fried-Weg" }, "geometry": { "type": "Point", "coordinates": [ 6.681682874891061, 50.91255838580696 ] } },
{ "type": "Feature", "properties": { "strassenschluessel": "05362000003208444", "bezeichnung": "Pferdsbruchfeld" }, "geometry": { "type": "Point", "coordinates": [ 6.666862470269317, 50.907903078319102 ] } },
{ "type": "Feature", "properties": { "strassenschluessel": "05362000003208445", "bezeichnung": "Raiffeisenstraße" }, "geometry": { "type": "Point", "coordinates": [ 6.679041585559286, 50.902633654233284 ] } },
{ "type": "Feature", "properties": { "strassenschluessel": "05362000003208446", "bezeichnung": "Rauschgraben" }, "geometry": { "type": "Point", "coordinates": [ 6.671146720510442, 50.902676668307073 ] } },
{ "type": "Feature", "properties": { "strassenschluessel": "05362000003208447", "bezeichnung": "Rostocker Straße" }, "geometry": { "type": "Point", "coordinates": [ 6.683190112654314, 50.906257287958184 ] } },
{ "type": "Feature", "properties": { "strassenschluessel": "05362000003208448", "bezeichnung": "Wolfgang-Borchert-Straße" }, "geometry": { "type": "Point", "coordinates": [ 6.678322835731916, 50.914600444480868 ] } },
{ "type": "Feature", "properties": { "strassenschluessel": "05362000003208449", "bezeichnung": "Ingeborg-Bachmann-Weg" }, "geometry": { "type": "Point", "coordinates": [ 6.680049815562437, 50.91338588932112 ] } },
{ "type": "Feature", "properties": { "strassenschluessel": "05362000003208450", "bezeichnung": "Anna-Seghers-Weg" }, "geometry": { "type": "Point", "coordinates": [ 6.678854104028263, 50.914465226415444 ] } },
{ "type": "Feature", "properties": { "strassenschluessel": "05362000003208451", "bezeichnung": "Sehnrather Straße" }, "geometry": { "type": "Point", "coordinates": [ 6.67868356634553, 50.900185320345351 ] } },
{ "type": "Feature", "properties": { "strassenschluessel": "05362000003208452", "bezeichnung": "Siemensstraße" }, "geometry": { "type": "Point", "coordinates": [ 6.678754737110203, 50.897929741354119 ] } },
{ "type": "Feature", "properties": { "strassenschluessel": "05362000003208453", "bezeichnung": "Sindorfer Mühle" }, "geometry": null },
{ "type": "Feature", "properties": { "strassenschluessel": "05362000003208454", "bezeichnung": "Sophienweg" }, "geometry": { "type": "Point", "coordinates": [ 6.677858533293032, 50.901823425481346 ] } },
{ "type": "Feature", "properties": { "strassenschluessel": "05362000003208455", "bezeichnung": "Sperlingweg" }, "geometry": { "type": "Point", "coordinates": [ 6.663891663900934, 50.903736706810335 ] } },
{ "type": "Feature", "properties": { "strassenschluessel": "05362000003208456", "bezeichnung": "Stieglitzweg" }, "geometry": { "type": "Point", "coordinates": [ 6.660254798790591, 50.902303939256079 ] } },
{ "type": "Feature", "properties": { "strassenschluessel": "05362000003208458", "bezeichnung": "Stettiner Straße" }, "geometry": { "type": "Point", "coordinates": [ 6.683227363000018, 50.907343845696047 ] } },
{ "type": "Feature", "properties": { "strassenschluessel": "05362000003208459", "bezeichnung": "Stralsunder Straße" }, "geometry": { "type": "Point", "coordinates": [ 6.683132093470467, 50.906663930619345 ] } },
{ "type": "Feature", "properties": { "strassenschluessel": "05362000003208462", "bezeichnung": "Schillerstraße" }, "geometry": { "type": "Point", "coordinates": [ 6.677013016530047, 50.907757498883051 ] } },
{ "type": "Feature", "properties": { "strassenschluessel": "05362000003208463", "bezeichnung": "Hindemithstraße" }, "geometry": { "type": "Point", "coordinates": [ 6.666443302420144, 50.903923465816952 ] } },
{ "type": "Feature", "properties": { "strassenschluessel": "05362000003208464", "bezeichnung": "Hegelstraße" }, "geometry": { "type": "Point", "coordinates": [ 6.673152604274294, 50.904568023996127 ] } },
{ "type": "Feature", "properties": { "strassenschluessel": "05362000003208466", "bezeichnung": "Schulze-Delitzsch-Straße" }, "geometry": { "type": "Point", "coordinates": [ 6.681257104106253, 50.903275010146245 ] } },
{ "type": "Feature", "properties": { "strassenschluessel": "05362000003208467", "bezeichnung": "Schumannstraße" }, "geometry": { "type": "Point", "coordinates": [ 6.664771864898503, 50.904151453510877 ] } },
{ "type": "Feature", "properties": { "strassenschluessel": "05362000003208472", "bezeichnung": "Thaliastraße" }, "geometry": { "type": "Point", "coordinates": [ 6.67984579838994, 50.90369260026268 ] } },
{ "type": "Feature", "properties": { "strassenschluessel": "05362000003208473", "bezeichnung": "Theodor-Heuss-Straße" }, "geometry": { "type": "Point", "coordinates": [ 6.671338847121791, 50.898324599551216 ] } },
{ "type": "Feature", "properties": { "strassenschluessel": "05362000003208475", "bezeichnung": "Veilchenweg" }, "geometry": { "type": "Point", "coordinates": [ 6.663423308677105, 50.912145422616277 ] } },
{ "type": "Feature", "properties": { "strassenschluessel": "05362000003208476", "bezeichnung": "Ulrichstraße" }, "geometry": { "type": "Point", "coordinates": [ 6.673417161926133, 50.907876484749401 ] } },
{ "type": "Feature", "properties": { "strassenschluessel": "05362000003208477", "bezeichnung": "Vor dem Eschend" }, "geometry": { "type": "Point", "coordinates": [ 6.669121989481187, 50.908330592008163 ] } },
{ "type": "Feature", "properties": { "strassenschluessel": "05362000003208478", "bezeichnung": "Weyerstraße" }, "geometry": { "type": "Point", "coordinates": [ 6.67567992974997, 50.901072893684578 ] } },
{ "type": "Feature", "properties": { "strassenschluessel": "05362000003208479", "bezeichnung": "Wagnerstraße" }, "geometry": { "type": "Point", "coordinates": [ 6.667511890047606, 50.904188806074337 ] } },
{ "type": "Feature", "properties": { "strassenschluessel": "05362000003208480", "bezeichnung": "Wiesengrund" }, "geometry": { "type": "Point", "coordinates": [ 6.671659465306435, 50.911753409107909 ] } },
{ "type": "Feature", "properties": { "strassenschluessel": "05362000003208481", "bezeichnung": "Wilhelm-Busch-Straße" }, "geometry": { "type": "Point", "coordinates": [ 6.678869258273117, 50.904481916220185 ] } },
{ "type": "Feature", "properties": { "strassenschluessel": "05362000003208482", "bezeichnung": "Willi-Graf-Straße" }, "geometry": { "type": "Point", "coordinates": [ 6.676162040420601, 50.899204901302909 ] } },
{ "type": "Feature", "properties": { "strassenschluessel": "05362000003208483", "bezeichnung": "Wuppertaler Straße" }, "geometry": { "type": "Point", "coordinates": [ 6.679829229731788, 50.908704791826224 ] } },
{ "type": "Feature", "properties": { "strassenschluessel": "05362000003208484", "bezeichnung": "Wankelstraße" }, "geometry": { "type": "Point", "coordinates": [ 6.660961589487798, 50.89278169024049 ] } },
{ "type": "Feature", "properties": { "strassenschluessel": "05362000003208485", "bezeichnung": "Visteonstraße" }, "geometry": { "type": "Point", "coordinates": [ 6.678633023509627, 50.8930831162697 ] } },
{ "type": "Feature", "properties": { "strassenschluessel": "05362000003208486", "bezeichnung": "Walram-von-Salmen-Weg" }, "geometry": { "type": "Point", "coordinates": [ 6.663164148975146, 50.907114778061285 ] } },
{ "type": "Feature", "properties": { "strassenschluessel": "05362000003208487", "bezeichnung": "Carl-Zuckmayer-Weg" }, "geometry": { "type": "Point", "coordinates": [ 6.680945511307598, 50.9115191496115 ] } },
{ "type": "Feature", "properties": { "strassenschluessel": "05362000003208488", "bezeichnung": "Zum Mühlenfeld" }, "geometry": { "type": "Point", "coordinates": [ 6.672056435603776, 50.912164626535812 ] } },
{ "type": "Feature", "properties": { "strassenschluessel": "05362000003208489", "bezeichnung": "Zum Vogelrutherfeld" }, "geometry": { "type": "Point", "coordinates": [ 6.66411213910626, 50.907459805711134 ] } },
{ "type": "Feature", "properties": { "strassenschluessel": "05362000003208490", "bezeichnung": "Zeisigweg" }, "geometry": { "type": "Point", "coordinates": [ 6.664388242516556, 50.903366229494978 ] } },
{ "type": "Feature", "properties": { "strassenschluessel": "05362000003208491", "bezeichnung": "Zum Wasserwerk" }, "geometry": { "type": "Point", "coordinates": [ 6.667546682740979, 50.91274017184935 ] } },
{ "type": "Feature", "properties": { "strassenschluessel": "05362000003208501", "bezeichnung": "Paul-Klee-Straße" }, "geometry": { "type": "Point", "coordinates": [ 6.676231218326666, 50.912231966103917 ] } },
{ "type": "Feature", "properties": { "strassenschluessel": "05362000003208502", "bezeichnung": "Emil-Nolde-Straße" }, "geometry": { "type": "Point", "coordinates": [ 6.670391104778371, 50.912830383754581 ] } },
{ "type": "Feature", "properties": { "strassenschluessel": "05362000003208503", "bezeichnung": "August-Macke-Straße" }, "geometry": { "type": "Point", "coordinates": [ 6.677196811124522, 50.916171961498719 ] } },
{ "type": "Feature", "properties": { "strassenschluessel": "05362000003208504", "bezeichnung": "Max-Beckmann-Straße" }, "geometry": { "type": "Point", "coordinates": [ 6.675722087607928, 50.915677998308794 ] } },
{ "type": "Feature", "properties": { "strassenschluessel": "05362000003208505", "bezeichnung": "An der Kleemaar" }, "geometry": { "type": "Point", "coordinates": [ 6.665744333009867, 50.910050595775743 ] } },
{ "type": "Feature", "properties": { "strassenschluessel": "05362000003208506", "bezeichnung": "Am Kolvermaar" }, "geometry": { "type": "Point", "coordinates": [ 6.665204765811021, 50.909203335316114 ] } },
{ "type": "Feature", "properties": { "strassenschluessel": "05362000003208551", "bezeichnung": "An Burg Mödrath" }, "geometry": { "type": "Point", "coordinates": [ 6.722877368197942, 50.886130964382431 ] } },
{ "type": "Feature", "properties": { "strassenschluessel": "05362000003208552", "bezeichnung": "Am Jugendheim" }, "geometry": { "type": "Point", "coordinates": [ 6.688499569531575, 50.868583548941785 ] } },
{ "type": "Feature", "properties": { "strassenschluessel": "05362000003208553", "bezeichnung": "Am Wallgraben" }, "geometry": { "type": "Point", "coordinates": [ 6.70341495051204, 50.871104035113582 ] } },
{ "type": "Feature", "properties": { "strassenschluessel": "05362000003208554", "bezeichnung": "Amselweg" }, "geometry": { "type": "Point", "coordinates": [ 6.692542444907984, 50.864484749542932 ] } },
{ "type": "Feature", "properties": { "strassenschluessel": "05362000003208555", "bezeichnung": "An der alten Burg" }, "geometry": { "type": "Point", "coordinates": [ 6.705103598808071, 50.871636836257657 ] } },
{ "type": "Feature", "properties": { "strassenschluessel": "05362000003208556", "bezeichnung": "An der Leimaar" }, "geometry": { "type": "Point", "coordinates": [ 6.686781362241697, 50.872300059612371 ] } },
{ "type": "Feature", "properties": { "strassenschluessel": "05362000003208557", "bezeichnung": "An der Vogelrute" }, "geometry": { "type": "Point", "coordinates": [ 6.685539491270458, 50.868517360141624 ] } },
{ "type": "Feature", "properties": { "strassenschluessel": "05362000003208558", "bezeichnung": "Antonitergasse" }, "geometry": { "type": "Point", "coordinates": [ 6.689537809666059, 50.867483610808826 ] } },
{ "type": "Feature", "properties": { "strassenschluessel": "05362000003208559", "bezeichnung": "Antoniterhof" }, "geometry": { "type": "Point", "coordinates": [ 6.690986148078932, 50.867387059988928 ] } },
{ "type": "Feature", "properties": { "strassenschluessel": "05362000003208560", "bezeichnung": "Antoniterstraße" }, "geometry": { "type": "Point", "coordinates": [ 6.690219277830481, 50.867579186196608 ] } },
{ "type": "Feature", "properties": { "strassenschluessel": "05362000003208561", "bezeichnung": "Antwerpener Straße" }, "geometry": { "type": "Point", "coordinates": [ 6.680010311226015, 50.869971329294351 ] } },
{ "type": "Feature", "properties": { "strassenschluessel": "05362000003208562", "bezeichnung": "Auf dem Bauer" }, "geometry": { "type": "Point", "coordinates": [ 6.68232246643006, 50.873125373611295 ] } },
{ "type": "Feature", "properties": { "strassenschluessel": "05362000003208563", "bezeichnung": "Auf dem Bürrig" }, "geometry": { "type": "Point", "coordinates": [ 6.688534458216844, 50.881741249711666 ] } },
{ "type": "Feature", "properties": { "strassenschluessel": "05362000003208564", "bezeichnung": "Altes Forsthaus" }, "geometry": { "type": "Point", "coordinates": [ 6.695811655923222, 50.883455871522067 ] } },
{ "type": "Feature", "properties": { "strassenschluessel": "05362000003208565", "bezeichnung": "Amsterdamer Straße" }, "geometry": { "type": "Point", "coordinates": [ 6.684635777363573, 50.870439205138048 ] } },
{ "type": "Feature", "properties": { "strassenschluessel": "05362000003208566", "bezeichnung": "Alte Landstraße" }, "geometry": { "type": "Point", "coordinates": [ 6.693097199793004, 50.873152279267813 ] } },
{ "type": "Feature", "properties": { "strassenschluessel": "05362000003208567", "bezeichnung": "Am Rott" }, "geometry": { "type": "Point", "coordinates": [ 6.706274677965315, 50.872924283444839 ] } },
{ "type": "Feature", "properties": { "strassenschluessel": "05362000003208568", "bezeichnung": "Auf dem Vorst" }, "geometry": { "type": "Point", "coordinates": [ 6.70260782201787, 50.874007433761122 ] } },
{ "type": "Feature", "properties": { "strassenschluessel": "05362000003208569", "bezeichnung": "Am Falder" }, "geometry": { "type": "Point", "coordinates": [ 6.691432968094489, 50.881451624392788 ] } },
{ "type": "Feature", "properties": { "strassenschluessel": "05362000003208570", "bezeichnung": "Am Muttenk" }, "geometry": null },
{ "type": "Feature", "properties": { "strassenschluessel": "05362000003208571", "bezeichnung": "Falkenweg" }, "geometry": { "type": "Point", "coordinates": [ 6.694495679190851, 50.864850539815301 ] } },
{ "type": "Feature", "properties": { "strassenschluessel": "05362000003208572", "bezeichnung": "Bachstraße" }, "geometry": { "type": "Point", "coordinates": [ 6.699805865069992, 50.869697316761354 ] } },
{ "type": "Feature", "properties": { "strassenschluessel": "05362000003208573", "bezeichnung": "Bussardweg" }, "geometry": { "type": "Point", "coordinates": [ 6.696518268620726, 50.864941958935233 ] } },
{ "type": "Feature", "properties": { "strassenschluessel": "05362000003208574", "bezeichnung": "Fröbelstraße" }, "geometry": { "type": "Point", "coordinates": [ 6.701503491581373, 50.867252377723773 ] } },
{ "type": "Feature", "properties": { "strassenschluessel": "05362000003208575", "bezeichnung": "Beethovenstraße" }, "geometry": { "type": "Point", "coordinates": [ 6.693965546370865, 50.872914038740383 ] } },
{ "type": "Feature", "properties": { "strassenschluessel": "05362000003208576", "bezeichnung": "Eulenstraße" }, "geometry": { "type": "Point", "coordinates": [ 6.695525750423906, 50.868805297988096 ] } },
{ "type": "Feature", "properties": { "strassenschluessel": "05362000003208577", "bezeichnung": "Neffelweg" }, "geometry": { "type": "Point", "coordinates": [ 6.675511705249109, 50.866225403321003 ] } },
{ "type": "Feature", "properties": { "strassenschluessel": "05362000003208578", "bezeichnung": "Pfarrer-Heyd-Straße" }, "geometry": { "type": "Point", "coordinates": [ 6.697083759847196, 50.870234504913554 ] } },
{ "type": "Feature", "properties": { "strassenschluessel": "05362000003208579", "bezeichnung": "Boelckestraße" }, "geometry": { "type": "Point", "coordinates": [ 6.681163314429959, 50.88009103935476 ] } },
{ "type": "Feature", "properties": { "strassenschluessel": "05362000003208580", "bezeichnung": "Brabanter Straße" }, "geometry": { "type": "Point", "coordinates": [ 6.689398181580493, 50.874464226501878 ] } },
{ "type": "Feature", "properties": { "strassenschluessel": "05362000003208581", "bezeichnung": "Brahmsstraße" }, "geometry": { "type": "Point", "coordinates": [ 6.703462901684311, 50.876149885609891 ] } },
{ "type": "Feature", "properties": { "strassenschluessel": "05362000003208582", "bezeichnung": "Bredaer Straße" }, "geometry": { "type": "Point", "coordinates": [ 6.690695122402555, 50.878525573638001 ] } },
{ "type": "Feature", "properties": { "strassenschluessel": "05362000003208583", "bezeichnung": "Broichmühlenstraße" }, "geometry": { "type": "Point", "coordinates": [ 6.707243911745113, 50.870753464016552 ] } },
{ "type": "Feature", "properties": { "strassenschluessel": "05362000003208584", "bezeichnung": "Broichweg" }, "geometry": { "type": "Point", "coordinates": [ 6.707029174451863, 50.871423338071089 ] } },
{ "type": "Feature", "properties": { "strassenschluessel": "05362000003208585", "bezeichnung": "Brückengasse" }, "geometry": { "type": "Point", "coordinates": [ 6.6984205587156, 50.868662071960983 ] } },
{ "type": "Feature", "properties": { "strassenschluessel": "05362000003208586", "bezeichnung": "Brüsseler Straße" }, "geometry": { "type": "Point", "coordinates": [ 6.683045763061507, 50.871970468718438 ] } },
{ "type": "Feature", "properties": { "strassenschluessel": "05362000003208587", "bezeichnung": "Burggasse" }, "geometry": { "type": "Point", "coordinates": [ 6.700660391220437, 50.869711256771716 ] } },
{ "type": "Feature", "properties": { "strassenschluessel": "05362000003208588", "bezeichnung": "Burgstraße" }, "geometry": { "type": "Point", "coordinates": [ 6.701702923153994, 50.871490330360849 ] } },
{ "type": "Feature", "properties": { "strassenschluessel": "05362000003208589", "bezeichnung": "Burgunder Straße" }, "geometry": { "type": "Point", "coordinates": [ 6.689424337933236, 50.875137742949825 ] } },
{ "type": "Feature", "properties": { "strassenschluessel": "05362000003208590", "bezeichnung": "Boschstraße" }, "geometry": { "type": "Point", "coordinates": [ 6.672623793148388, 50.879586617726424 ] } },
{ "type": "Feature", "properties": { "strassenschluessel": "05362000003208600", "bezeichnung": "Dietrich-Bonhoeffer-Straße" }, "geometry": { "type": "Point", "coordinates": [ 6.703233528130162, 50.866127713435333 ] } },
{ "type": "Feature", "properties": { "strassenschluessel": "05362000003208604", "bezeichnung": "Dürsfeld" }, "geometry": { "type": "Point", "coordinates": [ 6.731309582376157, 50.871968742320888 ] } },
{ "type": "Feature", "properties": { "strassenschluessel": "05362000003208609", "bezeichnung": "Eindhovener Straße" }, "geometry": { "type": "Point", "coordinates": [ 6.686467049437082, 50.875174996944999 ] } },
{ "type": "Feature", "properties": { "strassenschluessel": "05362000003208615", "bezeichnung": "Feldstraße" }, "geometry": { "type": "Point", "coordinates": [ 6.696084624723153, 50.867004045161877 ] } },
{ "type": "Feature", "properties": { "strassenschluessel": "05362000003208616", "bezeichnung": "Filzengraben" }, "geometry": { "type": "Point", "coordinates": [ 6.690346345699971, 50.870695965474098 ] } },
{ "type": "Feature", "properties": { "strassenschluessel": "05362000003208617", "bezeichnung": "Vinger Weg" }, "geometry": { "type": "Point", "coordinates": [ 6.683717738783069, 50.855415442476662 ] } },
{ "type": "Feature", "properties": { "strassenschluessel": "05362000003208618", "bezeichnung": "Freiheitsstraße" }, "geometry": { "type": "Point", "coordinates": [ 6.694603044787351, 50.866908624074398 ] } },
{ "type": "Feature", "properties": { "strassenschluessel": "05362000003208623", "bezeichnung": "Annostraße" }, "geometry": { "type": "Point", "coordinates": [ 6.698266646949587, 50.866538793141878 ] } },
{ "type": "Feature", "properties": { "strassenschluessel": "05362000003208624", "bezeichnung": "Genter Straße" }, "geometry": { "type": "Point", "coordinates": [ 6.686745111812342, 50.873215416556789 ] } },
{ "type": "Feature", "properties": { "strassenschluessel": "05362000003208626", "bezeichnung": "Von-Kleist-Straße" }, "geometry": { "type": "Point", "coordinates": [ 6.703504310643973, 50.867579109011253 ] } },
{ "type": "Feature", "properties": { "strassenschluessel": "05362000003208627", "bezeichnung": "Gymnicher Weg" }, "geometry": { "type": "Point", "coordinates": [ 6.697241640840382, 50.86809921101397 ] } },
{ "type": "Feature", "properties": { "strassenschluessel": "05362000003208628", "bezeichnung": "Hermann-Josef-Baum-Straße" }, "geometry": { "type": "Point", "coordinates": [ 6.681534567775343, 50.86777552254236 ] } },
{ "type": "Feature", "properties": { "strassenschluessel": "05362000003208630", "bezeichnung": "Vinzenzstraße" }, "geometry": { "type": "Point", "coordinates": [ 6.689298679954974, 50.868825142601715 ] } },
{ "type": "Feature", "properties": { "strassenschluessel": "05362000003208631", "bezeichnung": "Haus Hahn" }, "geometry": null },
{ "type": "Feature", "properties": { "strassenschluessel": "05362000003208632", "bezeichnung": "Händelstraße" }, "geometry": { "type": "Point", "coordinates": [ 6.696752855389995, 50.871901086739776 ] } },
{ "type": "Feature", "properties": { "strassenschluessel": "05362000003208633", "bezeichnung": "Hahnenstraße" }, "geometry": { "type": "Point", "coordinates": [ 6.697303829400833, 50.866325716209502 ] } },
{ "type": "Feature", "properties": { "strassenschluessel": "05362000003208634", "bezeichnung": "Heidefließ" }, "geometry": null },
{ "type": "Feature", "properties": { "strassenschluessel": "05362000003208635", "bezeichnung": "Am Dickbusch" }, "geometry": { "type": "Point", "coordinates": [ 6.686650957684311, 50.871548393104895 ] } },
{ "type": "Feature", "properties": { "strassenschluessel": "05362000003208636", "bezeichnung": "Drieschweg" }, "geometry": { "type": "Point", "coordinates": [ 6.689091297845084, 50.864687719008302 ] } },
{ "type": "Feature", "properties": { "strassenschluessel": "05362000003208637", "bezeichnung": "Holzgasse" }, "geometry": { "type": "Point", "coordinates": [ 6.700539869345512, 50.869506026785722 ] } },
{ "type": "Feature", "properties": { "strassenschluessel": "05362000003208638", "bezeichnung": "Heinrich-Hertz-Straße" }, "geometry": { "type": "Point", "coordinates": [ 6.685373788002184, 50.894126354592089 ] } },
{ "type": "Feature", "properties": { "strassenschluessel": "05362000003208639", "bezeichnung": "Humboldtstraße" }, "geometry": { "type": "Point", "coordinates": [ 6.681088841939104, 50.879688319699255 ] } },
{ "type": "Feature", "properties": { "strassenschluessel": "05362000003208640", "bezeichnung": "Hof Hahn" }, "geometry": { "type": "Point", "coordinates": [ 6.679379744838265, 50.895461132988451 ] } },
{ "type": "Feature", "properties": { "strassenschluessel": "05362000003208641", "bezeichnung": "Infantin-Isabella-Straße" }, "geometry": { "type": "Point", "coordinates": [ 6.679300230145482, 50.86660863847375 ] } },
{ "type": "Feature", "properties": { "strassenschluessel": "05362000003208642", "bezeichnung": "Im Fußtal" }, "geometry": { "type": "Point", "coordinates": [ 6.685256633418398, 50.866764347258218 ] } },
{ "type": "Feature", "properties": { "strassenschluessel": "05362000003208645", "bezeichnung": "Jahnplatz" }, "geometry": { "type": "Point", "coordinates": [ 6.690035575934585, 50.873378101511676 ] } },
{ "type": "Feature", "properties": { "strassenschluessel": "05362000003208646", "bezeichnung": "Jahnstraße" }, "geometry": { "type": "Point", "coordinates": [ 6.685616495164853, 50.871072176502118 ] } },
{ "type": "Feature", "properties": { "strassenschluessel": "05362000003208647", "bezeichnung": "Judengasse" }, "geometry": { "type": "Point", "coordinates": [ 6.693710598678011, 50.868697439087185 ] } },
{ "type": "Feature", "properties": { "strassenschluessel": "05362000003208648", "bezeichnung": "Jülicher Straße" }, "geometry": { "type": "Point", "coordinates": [ 6.686185973758758, 50.872388960702516 ] } },
{ "type": "Feature", "properties": { "strassenschluessel": "05362000003208649", "bezeichnung": "Johannes-Kepler-Straße" }, "geometry": { "type": "Point", "coordinates": [ 6.682281970276803, 50.895760039668467 ] } },
{ "type": "Feature", "properties": { "strassenschluessel": "05362000003208651", "bezeichnung": "Karlheinz-Stockhausen-Straße" }, "geometry": { "type": "Point", "coordinates": [ 6.679602457612741, 50.867673303745313 ] } },
{ "type": "Feature", "properties": { "strassenschluessel": "05362000003208652", "bezeichnung": "Karlsgasse" }, "geometry": { "type": "Point", "coordinates": [ 6.700629256170048, 50.870729853511207 ] } },
{ "type": "Feature", "properties": { "strassenschluessel": "05362000003208653", "bezeichnung": "Kaulenstraße" }, "geometry": { "type": "Point", "coordinates": [ 6.693262789844361, 50.867852324433656 ] } },
{ "type": "Feature", "properties": { "strassenschluessel": "05362000003208654", "bezeichnung": "Kirchstraße" }, "geometry": { "type": "Point", "coordinates": [ 6.694194363668505, 50.86913233639212 ] } },
{ "type": "Feature", "properties": { "strassenschluessel": "05362000003208655", "bezeichnung": "Klostergarten" }, "geometry": { "type": "Point", "coordinates": [ 6.690996925209208, 50.86790719121381 ] } },
{ "type": "Feature", "properties": { "strassenschluessel": "05362000003208656", "bezeichnung": "Klostergäßchen" }, "geometry": null },
{ "type": "Feature", "properties": { "strassenschluessel": "05362000003208657", "bezeichnung": "Kölner Straße" }, "geometry": { "type": "Point", "coordinates": [ 6.699977519676724, 50.872522666877074 ] } },
{ "type": "Feature", "properties": { "strassenschluessel": "05362000003208658", "bezeichnung": "Kolpingstraße" }, "geometry": { "type": "Point", "coordinates": [ 6.688266144898955, 50.867730447902908 ] } },
{ "type": "Feature", "properties": { "strassenschluessel": "05362000003208664", "bezeichnung": "Langenrather Hof" }, "geometry": { "type": "Point", "coordinates": [ 6.701005417716585, 50.862126963363679 ] } },
{ "type": "Feature", "properties": { "strassenschluessel": "05362000003208665", "bezeichnung": "Langerathsweg" }, "geometry": { "type": "Point", "coordinates": [ 6.701500659563457, 50.868143356609018 ] } },
{ "type": "Feature", "properties": { "strassenschluessel": "05362000003208666", "bezeichnung": "Lessingstraße" }, "geometry": { "type": "Point", "coordinates": [ 6.706212976346661, 50.869184952660113 ] } },
{ "type": "Feature", "properties": { "strassenschluessel": "05362000003208667", "bezeichnung": "Limburger Straße" }, "geometry": { "type": "Point", "coordinates": [ 6.689542159840128, 50.877327819884997 ] } },
{ "type": "Feature", "properties": { "strassenschluessel": "05362000003208668", "bezeichnung": "Lindenstraße" }, "geometry": { "type": "Point", "coordinates": [ 6.671798070900915, 50.86318318539368 ] } },
{ "type": "Feature", "properties": { "strassenschluessel": "05362000003208669", "bezeichnung": "Lörsfelder Busch" }, "geometry": { "type": "Point", "coordinates": [ 6.685296257025743, 50.880558103794634 ] } },
{ "type": "Feature", "properties": { "strassenschluessel": "05362000003208670", "bezeichnung": "Löwenerstraße" }, "geometry": { "type": "Point", "coordinates": [ 6.690751543813199, 50.877344919022143 ] } },
{ "type": "Feature", "properties": { "strassenschluessel": "05362000003208671", "bezeichnung": "Lortzingstraße" }, "geometry": { "type": "Point", "coordinates": [ 6.696163702021301, 50.873263817564791 ] } },
{ "type": "Feature", "properties": { "strassenschluessel": "05362000003208672", "bezeichnung": "Lothringer Straße" }, "geometry": { "type": "Point", "coordinates": [ 6.688456553986271, 50.875973217059389 ] } },
{ "type": "Feature", "properties": { "strassenschluessel": "05362000003208677", "bezeichnung": "Maria-Meller-Straße" }, "geometry": { "type": "Point", "coordinates": [ 6.682719497410908, 50.866955364635551 ] } },
{ "type": "Feature", "properties": { "strassenschluessel": "05362000003208678", "bezeichnung": "Marie-Curie-Straße" }, "geometry": { "type": "Point", "coordinates": [ 6.6800203300898, 50.892782996639106 ] } },
{ "type": "Feature", "properties": { "strassenschluessel": "05362000003208679", "bezeichnung": "Maastrichter Straße" }, "geometry": { "type": "Point", "coordinates": [ 6.683588983283454, 50.87461655295494 ] } },
{ "type": "Feature", "properties": { "strassenschluessel": "05362000003208680", "bezeichnung": "Maarweg" }, "geometry": { "type": "Point", "coordinates": [ 6.671767714741348, 50.862552300792679 ] } },
{ "type": "Feature", "properties": { "strassenschluessel": "05362000003208681", "bezeichnung": "Mähnstraße" }, "geometry": { "type": "Point", "coordinates": [ 6.699401818795409, 50.870383753739411 ] } },
{ "type": "Feature", "properties": { "strassenschluessel": "05362000003208682", "bezeichnung": "Marienstraße" }, "geometry": { "type": "Point", "coordinates": [ 6.701833696828045, 50.875035069468716 ] } },
{ "type": "Feature", "properties": { "strassenschluessel": "05362000003208683", "bezeichnung": "Am Moosgarten" }, "geometry": { "type": "Point", "coordinates": [ 6.685918904811659, 50.871281857710017 ] } },
{ "type": "Feature", "properties": { "strassenschluessel": "05362000003208684", "bezeichnung": "Martinusstraße" }, "geometry": { "type": "Point", "coordinates": [ 6.702054456162724, 50.864943661220465 ] } },
{ "type": "Feature", "properties": { "strassenschluessel": "05362000003208685", "bezeichnung": "Max-Planck-Straße" }, "geometry": { "type": "Point", "coordinates": [ 6.67361967995631, 50.880756621038095 ] } },
{ "type": "Feature", "properties": { "strassenschluessel": "05362000003208686", "bezeichnung": "Mödrather Straße" }, "geometry": { "type": "Point", "coordinates": [ 6.6913214394437, 50.874764238360903 ] } },
{ "type": "Feature", "properties": { "strassenschluessel": "05362000003208687", "bezeichnung": "Humperdinckstraße" }, "geometry": { "type": "Point", "coordinates": [ 6.698346242188259, 50.874144298321845 ] } },
{ "type": "Feature", "properties": { "strassenschluessel": "05362000003208688", "bezeichnung": "Auf dem Stein" }, "geometry": { "type": "Point", "coordinates": [ 6.684734990611759, 50.867131473143814 ] } },
{ "type": "Feature", "properties": { "strassenschluessel": "05362000003208689", "bezeichnung": "Meisenweg" }, "geometry": { "type": "Point", "coordinates": [ 6.693144871291564, 50.862858956923688 ] } },
{ "type": "Feature", "properties": { "strassenschluessel": "05362000003208695", "bezeichnung": "Neustraße" }, "geometry": { "type": "Point", "coordinates": [ 6.6951639989087, 50.861539908155805 ] } },
{ "type": "Feature", "properties": { "strassenschluessel": "05362000003208696", "bezeichnung": "Nordring" }, "geometry": { "type": "Point", "coordinates": [ 6.685237616392, 50.87398319244592 ] } },
{ "type": "Feature", "properties": { "strassenschluessel": "05362000003208700", "bezeichnung": "Obermühle" }, "geometry": { "type": "Point", "coordinates": [ 6.688055840915037, 50.866892518931898 ] } },