{
"type": "FeatureCollection",
"features": [
{ "type": "Feature", "properties": { "strassenschluessel": "05162000002001003", "bezeichnung": "Adam-Titz-Straße" }, "geometry": { "type": "Point", "coordinates": [ 6.579391422405796, 51.163291215153187 ] } },
{ "type": "Feature", "properties": { "strassenschluessel": "05162000002001004", "bezeichnung": "Alte Landstraße" }, "geometry": { "type": "Point", "coordinates": [ 6.582356689604114, 51.168424167984206 ] } },
{ "type": "Feature", "properties": { "strassenschluessel": "05162000002001005", "bezeichnung": "Am Birkenbusch" }, "geometry": { "type": "Point", "coordinates": [ 6.555679598160709, 51.172609786941656 ] } },
{ "type": "Feature", "properties": { "strassenschluessel": "05162000002001006", "bezeichnung": "Am Fleckenhaus" }, "geometry": { "type": "Point", "coordinates": [ 6.579348880797573, 51.169801965013257 ] } },
{ "type": "Feature", "properties": { "strassenschluessel": "05162000002001007", "bezeichnung": "Alt-Schanzerhof" }, "geometry": { "type": "Point", "coordinates": [ 6.584167797862102, 51.164232065401116 ] } },
{ "type": "Feature", "properties": { "strassenschluessel": "05162000002001010", "bezeichnung": "Am Fliethbach" }, "geometry": { "type": "Point", "coordinates": [ 6.54493582318843, 51.175622400676843 ] } },
{ "type": "Feature", "properties": { "strassenschluessel": "05162000002001015", "bezeichnung": "Am Grootes" }, "geometry": { "type": "Point", "coordinates": [ 6.554042547538448, 51.169391637291362 ] } },
{ "type": "Feature", "properties": { "strassenschluessel": "05162000002001020", "bezeichnung": "Am Hagelkreuz" }, "geometry": { "type": "Point", "coordinates": [ 6.570277520905417, 51.166297462225536 ] } },
{ "type": "Feature", "properties": { "strassenschluessel": "05162000002001024", "bezeichnung": "Am Kerper Weiher" }, "geometry": { "type": "Point", "coordinates": [ 6.580754932760413, 51.170530264662411 ] } },
{ "type": "Feature", "properties": { "strassenschluessel": "05162000002001025", "bezeichnung": "Am Hoppbruch" }, "geometry": { "type": "Point", "coordinates": [ 6.531908805244198, 51.170092225311031 ] } },
{ "type": "Feature", "properties": { "strassenschluessel": "05162000002001030", "bezeichnung": "Am Kirchkamp" }, "geometry": { "type": "Point", "coordinates": [ 6.57583198266829, 51.161339293386163 ] } },
{ "type": "Feature", "properties": { "strassenschluessel": "05162000002001035", "bezeichnung": "Am Kutscher" }, "geometry": { "type": "Point", "coordinates": [ 6.551152569613673, 51.169916184277284 ] } },
{ "type": "Feature", "properties": { "strassenschluessel": "05162000002001040", "bezeichnung": "Am Markt" }, "geometry": { "type": "Point", "coordinates": [ 6.541295417962042, 51.163983702243485 ] } },
{ "type": "Feature", "properties": { "strassenschluessel": "05162000002001045", "bezeichnung": "Am Menerskamp" }, "geometry": { "type": "Point", "coordinates": [ 6.597407865228115, 51.160551806656386 ] } },
{ "type": "Feature", "properties": { "strassenschluessel": "05162000002001050", "bezeichnung": "Am Spinngraben" }, "geometry": { "type": "Point", "coordinates": [ 6.576624156488012, 51.163891644521691 ] } },
{ "type": "Feature", "properties": { "strassenschluessel": "05162000002001060", "bezeichnung": "An der Au" }, "geometry": { "type": "Point", "coordinates": [ 6.55716022669321, 51.167424267453406 ] } },
{ "type": "Feature", "properties": { "strassenschluessel": "05162000002001065", "bezeichnung": "An der Sandkaule" }, "geometry": { "type": "Point", "coordinates": [ 6.585306749974881, 51.163071036919469 ] } },
{ "type": "Feature", "properties": { "strassenschluessel": "05162000002001066", "bezeichnung": "Annastraße" }, "geometry": { "type": "Point", "coordinates": [ 6.566274447437707, 51.167129286554648 ] } },
{ "type": "Feature", "properties": { "strassenschluessel": "05162000002001070", "bezeichnung": "Auf dem Kamp" }, "geometry": { "type": "Point", "coordinates": [ 6.573079724898026, 51.16716284344696 ] } },
{ "type": "Feature", "properties": { "strassenschluessel": "05162000002001075", "bezeichnung": "Bachstraße" }, "geometry": { "type": "Point", "coordinates": [ 6.577032166691948, 51.167248856842264 ] } },
{ "type": "Feature", "properties": { "strassenschluessel": "05162000002001076", "bezeichnung": "Bauernhütte" }, "geometry": { "type": "Point", "coordinates": [ 6.53584811547578, 51.16992735040057 ] } },
{ "type": "Feature", "properties": { "strassenschluessel": "05162000002001080", "bezeichnung": "Bendgasse" }, "geometry": { "type": "Point", "coordinates": [ 6.570976054178367, 51.169290858097838 ] } },
{ "type": "Feature", "properties": { "strassenschluessel": "05162000002001085", "bezeichnung": "Bendstraße" }, "geometry": { "type": "Point", "coordinates": [ 6.574555037657302, 51.167446061949143 ] } },
{ "type": "Feature", "properties": { "strassenschluessel": "05162000002001090", "bezeichnung": "Hellweg" }, "geometry": { "type": "Point", "coordinates": [ 6.557954474425425, 51.169139435659289 ] } },
{ "type": "Feature", "properties": { "strassenschluessel": "05162000002001095", "bezeichnung": "Blankpfad" }, "geometry": { "type": "Point", "coordinates": [ 6.555564239347287, 51.166821582362246 ] } },
{ "type": "Feature", "properties": { "strassenschluessel": "05162000002001100", "bezeichnung": "Birkhofstraße" }, "geometry": { "type": "Point", "coordinates": [ 6.609275430442104, 51.169313927116875 ] } },
{ "type": "Feature", "properties": { "strassenschluessel": "05162000002001105", "bezeichnung": "Büttger Weg" }, "geometry": { "type": "Point", "coordinates": [ 6.585766612391113, 51.174851676946027 ] } },
{ "type": "Feature", "properties": { "strassenschluessel": "05162000002001115", "bezeichnung": "Cäcilienstraße" }, "geometry": { "type": "Point", "coordinates": [ 6.570160544779253, 51.161758077642098 ] } },
{ "type": "Feature", "properties": { "strassenschluessel": "05162000002001120", "bezeichnung": "Clarissenstraße" }, "geometry": { "type": "Point", "coordinates": [ 6.596071643310848, 51.161801811271459 ] } },
{ "type": "Feature", "properties": { "strassenschluessel": "05162000002001125", "bezeichnung": "Kommerweg" }, "geometry": { "type": "Point", "coordinates": [ 6.545936871380492, 51.150576198270535 ] } },
{ "type": "Feature", "properties": { "strassenschluessel": "05162000002001130", "bezeichnung": "Dahlacker" }, "geometry": { "type": "Point", "coordinates": [ 6.540569134406169, 51.164857700045729 ] } },
{ "type": "Feature", "properties": { "strassenschluessel": "05162000002001131", "bezeichnung": "Daimlerstraße" }, "geometry": { "type": "Point", "coordinates": [ 6.585445297725744, 51.169922723692402 ] } },
{ "type": "Feature", "properties": { "strassenschluessel": "05162000002001132", "bezeichnung": "Dieselstraße" }, "geometry": { "type": "Point", "coordinates": [ 6.592593447787189, 51.168320819593184 ] } },
{ "type": "Feature", "properties": { "strassenschluessel": "05162000002001135", "bezeichnung": "Scherfhausen" }, "geometry": { "type": "Point", "coordinates": [ 6.5788802015143, 51.155109237042758 ] } },
{ "type": "Feature", "properties": { "strassenschluessel": "05162000002001136", "bezeichnung": "An der Schmelze" }, "geometry": { "type": "Point", "coordinates": [ 6.578469594623297, 51.15448568027908 ] } },
{ "type": "Feature", "properties": { "strassenschluessel": "05162000002001140", "bezeichnung": "Steinhausen" }, "geometry": { "type": "Point", "coordinates": [ 6.537244936341279, 51.16589807165348 ] } },
{ "type": "Feature", "properties": { "strassenschluessel": "05162000002001145", "bezeichnung": "Steinforth" }, "geometry": { "type": "Point", "coordinates": [ 6.543875220920172, 51.145845088554914 ] } },
{ "type": "Feature", "properties": { "strassenschluessel": "05162000002001150", "bezeichnung": "Dr.-Bremer-Straße" }, "geometry": { "type": "Point", "coordinates": [ 6.538656678473667, 51.167849937493301 ] } },
{ "type": "Feature", "properties": { "strassenschluessel": "05162000002001155", "bezeichnung": "Schmiedstraße" }, "geometry": { "type": "Point", "coordinates": [ 6.61560281414023, 51.165281689954185 ] } },
{ "type": "Feature", "properties": { "strassenschluessel": "05162000002001160", "bezeichnung": "Elisabethstraße" }, "geometry": { "type": "Point", "coordinates": [ 6.569017724752384, 51.166126706018694 ] } },
{ "type": "Feature", "properties": { "strassenschluessel": "05162000002001165", "bezeichnung": "Am Heisterdahl" }, "geometry": { "type": "Point", "coordinates": [ 6.608869516084757, 51.165413071434109 ] } },
{ "type": "Feature", "properties": { "strassenschluessel": "05162000002001170", "bezeichnung": "Epsendorfer Weg" }, "geometry": { "type": "Point", "coordinates": [ 6.600331663747138, 51.157609085930019 ] } },
{ "type": "Feature", "properties": { "strassenschluessel": "05162000002001175", "bezeichnung": "Am Bilderstock" }, "geometry": { "type": "Point", "coordinates": [ 6.594605137236685, 51.163287666704001 ] } },
{ "type": "Feature", "properties": { "strassenschluessel": "05162000002001180", "bezeichnung": "Friedensstraße" }, "geometry": { "type": "Point", "coordinates": [ 6.583638675816673, 51.164791626232116 ] } },
{ "type": "Feature", "properties": { "strassenschluessel": "05162000002001185", "bezeichnung": "Fürther Weg" }, "geometry": { "type": "Point", "coordinates": [ 6.554114281178003, 51.163113480954735 ] } },
{ "type": "Feature", "properties": { "strassenschluessel": "05162000002001190", "bezeichnung": "Forsterstraße" }, "geometry": { "type": "Point", "coordinates": [ 6.575417825730826, 51.162750726221908 ] } },
{ "type": "Feature", "properties": { "strassenschluessel": "05162000002001192", "bezeichnung": "Fuchsstraße" }, "geometry": { "type": "Point", "coordinates": [ 6.537769893471027, 51.165997341643823 ] } },
{ "type": "Feature", "properties": { "strassenschluessel": "05162000002001195", "bezeichnung": "Gertrudisstraße" }, "geometry": { "type": "Point", "coordinates": [ 6.570740487026206, 51.163628733067213 ] } },
{ "type": "Feature", "properties": { "strassenschluessel": "05162000002001200", "bezeichnung": "Rubbelrath" }, "geometry": { "type": "Point", "coordinates": [ 6.549715233126232, 51.149347256528856 ] } },
{ "type": "Feature", "properties": { "strassenschluessel": "05162000002001205", "bezeichnung": "Hagweg" }, "geometry": { "type": "Point", "coordinates": [ 6.541854026334967, 51.1629975810283 ] } },
{ "type": "Feature", "properties": { "strassenschluessel": "05162000002001210", "bezeichnung": "Hauptstraße" }, "geometry": { "type": "Point", "coordinates": [ 6.56357759593197, 51.167638084337355 ] } },
{ "type": "Feature", "properties": { "strassenschluessel": "05162000002001220", "bezeichnung": "Haus Glehn" }, "geometry": { "type": "Point", "coordinates": [ 6.575723089113967, 51.169107195781848 ] } },
{ "type": "Feature", "properties": { "strassenschluessel": "05162000002001221", "bezeichnung": "Heidestraße" }, "geometry": { "type": "Point", "coordinates": [ 6.581804517647082, 51.168827127149626 ] } },
{ "type": "Feature", "properties": { "strassenschluessel": "05162000002001222", "bezeichnung": "Haus Raedt" }, "geometry": { "type": "Point", "coordinates": [ 6.548772002057794, 51.170417874433994 ] } },
{ "type": "Feature", "properties": { "strassenschluessel": "05162000002001224", "bezeichnung": "Hausweberstraße" }, "geometry": { "type": "Point", "coordinates": [ 6.537551787510443, 51.166609953276946 ] } },
{ "type": "Feature", "properties": { "strassenschluessel": "05162000002001225", "bezeichnung": "Heckenend" }, "geometry": { "type": "Point", "coordinates": [ 6.579962720985112, 51.164812866043192 ] } },
{ "type": "Feature", "properties": { "strassenschluessel": "05162000002001230", "bezeichnung": "Hedwigstraße" }, "geometry": { "type": "Point", "coordinates": [ 6.569159424698184, 51.164398367193499 ] } },
{ "type": "Feature", "properties": { "strassenschluessel": "05162000002001235", "bezeichnung": "Hildegundisstraße" }, "geometry": { "type": "Point", "coordinates": [ 6.536681885320293, 51.168006863335144 ] } },
{ "type": "Feature", "properties": { "strassenschluessel": "05162000002001236", "bezeichnung": "Holunderstraße" }, "geometry": { "type": "Point", "coordinates": [ 6.582004106288013, 51.166384523484417 ] } },
{ "type": "Feature", "properties": { "strassenschluessel": "05162000002001240", "bezeichnung": "Am Buscherhof" }, "geometry": { "type": "Point", "coordinates": [ 6.576195988499547, 51.160835011857593 ] } },
{ "type": "Feature", "properties": { "strassenschluessel": "05162000002001245", "bezeichnung": "Horster Straße" }, "geometry": { "type": "Point", "coordinates": [ 6.527884623047084, 51.166282143923681 ] } },
{ "type": "Feature", "properties": { "strassenschluessel": "05162000002001246", "bezeichnung": "Jahnstraße" }, "geometry": { "type": "Point", "coordinates": [ 6.529976498970386, 51.165964743075541 ] } },
{ "type": "Feature", "properties": { "strassenschluessel": "05162000002001247", "bezeichnung": "In der Hött" }, "geometry": { "type": "Point", "coordinates": [ 6.608739402027609, 51.166055588678304 ] } },
{ "type": "Feature", "properties": { "strassenschluessel": "05162000002001248", "bezeichnung": "Im Kottenkamp" }, "geometry": { "type": "Point", "coordinates": [ 6.581593445688514, 51.162859565607533 ] } },
{ "type": "Feature", "properties": { "strassenschluessel": "05162000002001250", "bezeichnung": "Joenstraße" }, "geometry": { "type": "Point", "coordinates": [ 6.579309705343808, 51.169141960453658 ] } },
{ "type": "Feature", "properties": { "strassenschluessel": "05162000002001255", "bezeichnung": "Kampgasse" }, "geometry": { "type": "Point", "coordinates": [ 6.571798794215199, 51.167634935978022 ] } },
{ "type": "Feature", "properties": { "strassenschluessel": "05162000002001256", "bezeichnung": "Karolingerstraße" }, "geometry": { "type": "Point", "coordinates": [ 6.536207833109885, 51.170135308684301 ] } },
{ "type": "Feature", "properties": { "strassenschluessel": "05162000002001260", "bezeichnung": "Katharinenstraße" }, "geometry": { "type": "Point", "coordinates": [ 6.567645846630582, 51.163380977822456 ] } },
{ "type": "Feature", "properties": { "strassenschluessel": "05162000002001265", "bezeichnung": "Kellereiweg" }, "geometry": { "type": "Point", "coordinates": [ 6.545609190858504, 51.172137398054907 ] } },
{ "type": "Feature", "properties": { "strassenschluessel": "05162000002001270", "bezeichnung": "Kemperweg" }, "geometry": { "type": "Point", "coordinates": [ 6.568726666158576, 51.167446796387289 ] } },
{ "type": "Feature", "properties": { "strassenschluessel": "05162000002001275", "bezeichnung": "Kirchstraße" }, "geometry": { "type": "Point", "coordinates": [ 6.576556741327934, 51.166744434781101 ] } },
{ "type": "Feature", "properties": { "strassenschluessel": "05162000002001280", "bezeichnung": "Josefstraße" }, "geometry": { "type": "Point", "coordinates": [ 6.545544706409847, 51.145398973475039 ] } },
{ "type": "Feature", "properties": { "strassenschluessel": "05162000002001285", "bezeichnung": "Kivitter Hof" }, "geometry": null },
{ "type": "Feature", "properties": { "strassenschluessel": "05162000002001290", "bezeichnung": "Drölsholz" }, "geometry": { "type": "Point", "coordinates": [ 6.539935145555389, 51.170551554036052 ] } },
{ "type": "Feature", "properties": { "strassenschluessel": "05162000002001295", "bezeichnung": "Johannes-Büchner-Straße" }, "geometry": { "type": "Point", "coordinates": [ 6.574067329809535, 51.16069894353474 ] } },
{ "type": "Feature", "properties": { "strassenschluessel": "05162000002001300", "bezeichnung": "Klosterweg" }, "geometry": { "type": "Point", "coordinates": [ 6.551171189326322, 51.149977872277809 ] } },
{ "type": "Feature", "properties": { "strassenschluessel": "05162000002001305", "bezeichnung": "Lüttenglehn" }, "geometry": { "type": "Point", "coordinates": [ 6.61035280099826, 51.167637290035572 ] } },
{ "type": "Feature", "properties": { "strassenschluessel": "05162000002001310", "bezeichnung": "Landstraße" }, "geometry": { "type": "Point", "coordinates": [ 6.526484354042918, 51.162213784864235 ] } },
{ "type": "Feature", "properties": { "strassenschluessel": "05162000002001320", "bezeichnung": "Lehmstraße" }, "geometry": { "type": "Point", "coordinates": [ 6.541597462245372, 51.173418593852574 ] } },
{ "type": "Feature", "properties": { "strassenschluessel": "05162000002001321", "bezeichnung": "Am Dyckerholz" }, "geometry": { "type": "Point", "coordinates": [ 6.543123115273656, 51.173657802782472 ] } },
{ "type": "Feature", "properties": { "strassenschluessel": "05162000002001322", "bezeichnung": "Leo-Töller-Straße" }, "geometry": { "type": "Point", "coordinates": [ 6.575812808043674, 51.161640553357437 ] } },
{ "type": "Feature", "properties": { "strassenschluessel": "05162000002001325", "bezeichnung": "Schlich" }, "geometry": { "type": "Point", "coordinates": [ 6.557301102845716, 51.168792218421139 ] } },
{ "type": "Feature", "properties": { "strassenschluessel": "05162000002001330", "bezeichnung": "Liedberger Weg" }, "geometry": { "type": "Point", "coordinates": [ 6.542913096187202, 51.146266548374129 ] } },
{ "type": "Feature", "properties": { "strassenschluessel": "05162000002001332", "bezeichnung": "Ligusterstraße" }, "geometry": { "type": "Point", "coordinates": [ 6.585006245856571, 51.167383804072756 ] } },
{ "type": "Feature", "properties": { "strassenschluessel": "05162000002001335", "bezeichnung": "Loosbenden" }, "geometry": { "type": "Point", "coordinates": [ 6.532592909407034, 51.170277865398127 ] } },
{ "type": "Feature", "properties": { "strassenschluessel": "05162000002001336", "bezeichnung": "Luisenstraße" }, "geometry": { "type": "Point", "coordinates": [ 6.567786761247699, 51.165314726250053 ] } },
{ "type": "Feature", "properties": { "strassenschluessel": "05162000002001340", "bezeichnung": "Marienstraße" }, "geometry": { "type": "Point", "coordinates": [ 6.570287503907506, 51.164995190431753 ] } },
{ "type": "Feature", "properties": { "strassenschluessel": "05162000002001345", "bezeichnung": "Mergelweg" }, "geometry": { "type": "Point", "coordinates": [ 6.612367152280457, 51.166990947976636 ] } },
{ "type": "Feature", "properties": { "strassenschluessel": "05162000002001350", "bezeichnung": "Mühlengasse" }, "geometry": { "type": "Point", "coordinates": [ 6.541825399756728, 51.163359950416478 ] } },
{ "type": "Feature", "properties": { "strassenschluessel": "05162000002001352", "bezeichnung": "Neu-Schanzerhof" }, "geometry": { "type": "Point", "coordinates": [ 6.584513991585061, 51.16472233713079 ] } },
{ "type": "Feature", "properties": { "strassenschluessel": "05162000002001355", "bezeichnung": "Mühlenkamp" }, "geometry": { "type": "Point", "coordinates": [ 6.530093360291186, 51.168412533642559 ] } },
{ "type": "Feature", "properties": { "strassenschluessel": "05162000002001360", "bezeichnung": "Blausteinstraße" }, "geometry": { "type": "Point", "coordinates": [ 6.595847588602704, 51.167101807279465 ] } },
{ "type": "Feature", "properties": { "strassenschluessel": "05162000002001365", "bezeichnung": "An der Mühle" }, "geometry": { "type": "Point", "coordinates": [ 6.539505411051868, 51.168239695116533 ] } },
{ "type": "Feature", "properties": { "strassenschluessel": "05162000002001375", "bezeichnung": "Neustraße" }, "geometry": { "type": "Point", "coordinates": [ 6.597516697221458, 51.162244111136346 ] } },
{ "type": "Feature", "properties": { "strassenschluessel": "05162000002001380", "bezeichnung": "Oberstraße" }, "geometry": { "type": "Point", "coordinates": [ 6.609198096787323, 51.166581714205428 ] } },
{ "type": "Feature", "properties": { "strassenschluessel": "05162000002001381", "bezeichnung": "Ottostraße" }, "geometry": { "type": "Point", "coordinates": [ 6.584828049149412, 51.172100089395521 ] } },
{ "type": "Feature", "properties": { "strassenschluessel": "05162000002001382", "bezeichnung": "Pankratiusplatz" }, "geometry": { "type": "Point", "coordinates": [ 6.57531653233653, 51.165972816689049 ] } },
{ "type": "Feature", "properties": { "strassenschluessel": "05162000002001385", "bezeichnung": "Rittergut Birkhof" }, "geometry": { "type": "Point", "coordinates": [ 6.610757150954953, 51.174557412535421 ] } },
{ "type": "Feature", "properties": { "strassenschluessel": "05162000002001386", "bezeichnung": "Salierstraße" }, "geometry": { "type": "Point", "coordinates": [ 6.536251066785534, 51.169453754239015 ] } },
{ "type": "Feature", "properties": { "strassenschluessel": "05162000002001388", "bezeichnung": "Rotdornstraße" }, "geometry": { "type": "Point", "coordinates": [ 6.582367520913705, 51.167103864714676 ] } },
{ "type": "Feature", "properties": { "strassenschluessel": "05162000002001391", "bezeichnung": "Schelsener Straße" }, "geometry": { "type": "Point", "coordinates": [ 6.531943465868995, 51.16528859490699 ] } },
{ "type": "Feature", "properties": { "strassenschluessel": "05162000002001393", "bezeichnung": "Schlehenweg" }, "geometry": { "type": "Point", "coordinates": [ 6.580110557053076, 51.167047514397687 ] } },
{ "type": "Feature", "properties": { "strassenschluessel": "05162000002001400", "bezeichnung": "Schlickumsweg" }, "geometry": { "type": "Point", "coordinates": [ 6.561013431692887, 51.169425914364446 ] } },
{ "type": "Feature", "properties": { "strassenschluessel": "05162000002001401", "bezeichnung": "Haus Schlickum" }, "geometry": { "type": "Point", "coordinates": [ 6.560070147694835, 51.170292625691239 ] } },
{ "type": "Feature", "properties": { "strassenschluessel": "05162000002001405", "bezeichnung": "Schloss-Dyck-Straße" }, "geometry": { "type": "Point", "coordinates": [ 6.57174609486009, 51.165466278344248 ] } },
{ "type": "Feature", "properties": { "strassenschluessel": "05162000002001410", "bezeichnung": "Schloßstraße" }, "geometry": { "type": "Point", "coordinates": [ 6.542283708706504, 51.165625543763156 ] } },
{ "type": "Feature", "properties": { "strassenschluessel": "05162000002001420", "bezeichnung": "Schützendelle" }, "geometry": { "type": "Point", "coordinates": [ 6.57757688120808, 51.167598586417427 ] } },
{ "type": "Feature", "properties": { "strassenschluessel": "05162000002001425", "bezeichnung": "Schulstraße" }, "geometry": { "type": "Point", "coordinates": [ 6.578029128982894, 51.162247179726876 ] } },
{ "type": "Feature", "properties": { "strassenschluessel": "05162000002001430", "bezeichnung": "An der Tränke" }, "geometry": { "type": "Point", "coordinates": [ 6.540475288335061, 51.164165642401606 ] } },
{ "type": "Feature", "properties": { "strassenschluessel": "05162000002001435", "bezeichnung": "An der Bleiche" }, "geometry": { "type": "Point", "coordinates": [ 6.54437132740892, 51.14741795359835 ] } },
{ "type": "Feature", "properties": { "strassenschluessel": "05162000002001440", "bezeichnung": "Schwohenend" }, "geometry": { "type": "Point", "coordinates": [ 6.573254869868964, 51.163206347037438 ] } },
{ "type": "Feature", "properties": { "strassenschluessel": "05162000002001441", "bezeichnung": "Stauferstraße" }, "geometry": { "type": "Point", "coordinates": [ 6.535842159299095, 51.169312259378103 ] } },
{ "type": "Feature", "properties": { "strassenschluessel": "05162000002001442", "bezeichnung": "An der Bachaue" }, "geometry": { "type": "Point", "coordinates": [ 6.576686628788765, 51.167630909007556 ] } },
{ "type": "Feature", "properties": { "strassenschluessel": "05162000002001445", "bezeichnung": "St.-Georg-Straße" }, "geometry": { "type": "Point", "coordinates": [ 6.535726639573788, 51.168022340791488 ] } },
{ "type": "Feature", "properties": { "strassenschluessel": "05162000002001450", "bezeichnung": "Tümpsend" }, "geometry": { "type": "Point", "coordinates": [ 6.527941699314824, 51.163892549247009 ] } },
{ "type": "Feature", "properties": { "strassenschluessel": "05162000002001454", "bezeichnung": "Wacholderstraße" }, "geometry": { "type": "Point", "coordinates": [ 6.58401992448349, 51.167412920981825 ] } },
{ "type": "Feature", "properties": { "strassenschluessel": "05162000002001455", "bezeichnung": "Unterstraße" }, "geometry": { "type": "Point", "coordinates": [ 6.609112278378076, 51.168600369129557 ] } },
{ "type": "Feature", "properties": { "strassenschluessel": "05162000002001460", "bezeichnung": "Von-Fürstenberg-Straße" }, "geometry": { "type": "Point", "coordinates": [ 6.530770471693767, 51.166092788376226 ] } },
{ "type": "Feature", "properties": { "strassenschluessel": "05162000002001465", "bezeichnung": "Von-Limburg-Straße" }, "geometry": { "type": "Point", "coordinates": [ 6.531549145024913, 51.167792668978848 ] } },
{ "type": "Feature", "properties": { "strassenschluessel": "05162000002001466", "bezeichnung": "Wankelstraße" }, "geometry": { "type": "Point", "coordinates": [ 6.590515335920551, 51.171376755290936 ] } },
{ "type": "Feature", "properties": { "strassenschluessel": "05162000002001468", "bezeichnung": "Glehner Heide" }, "geometry": { "type": "Point", "coordinates": [ 6.587597820304159, 51.174480824094125 ] } },
{ "type": "Feature", "properties": { "strassenschluessel": "05162000002001470", "bezeichnung": "Von-Merode-Straße" }, "geometry": { "type": "Point", "coordinates": [ 6.532296163262994, 51.168718722796875 ] } },
{ "type": "Feature", "properties": { "strassenschluessel": "05162000002001475", "bezeichnung": "Von-Randerath-Straße" }, "geometry": { "type": "Point", "coordinates": [ 6.532632277957016, 51.166510391945188 ] } },
{ "type": "Feature", "properties": { "strassenschluessel": "05162000002001480", "bezeichnung": "Wallrather Weg" }, "geometry": { "type": "Point", "coordinates": [ 6.544519355232417, 51.143967589894146 ] } },
{ "type": "Feature", "properties": { "strassenschluessel": "05162000002001484", "bezeichnung": "An der Hofesfeste" }, "geometry": { "type": "Point", "coordinates": [ 6.53353728945943, 51.170594980476935 ] } },
{ "type": "Feature", "properties": { "strassenschluessel": "05162000002001485", "bezeichnung": "Wasserweg" }, "geometry": { "type": "Point", "coordinates": [ 6.534698957829614, 51.166313578339917 ] } },
{ "type": "Feature", "properties": { "strassenschluessel": "05162000002001490", "bezeichnung": "Weidenhof" }, "geometry": { "type": "Point", "coordinates": [ 6.594759480743421, 51.17349293385238 ] } },
{ "type": "Feature", "properties": { "strassenschluessel": "05162000002001495", "bezeichnung": "Wingespfad" }, "geometry": { "type": "Point", "coordinates": [ 6.54509846469476, 51.144353338034435 ] } },
{ "type": "Feature", "properties": { "strassenschluessel": "05162000002001500", "bezeichnung": "Wolfstraße" }, "geometry": { "type": "Point", "coordinates": [ 6.579009535447798, 51.166793234885695 ] } },
{ "type": "Feature", "properties": { "strassenschluessel": "05162000002002005", "bezeichnung": "Kondorstraße" }, "geometry": { "type": "Point", "coordinates": [ 6.566447077628212, 51.206231278019345 ] } },
{ "type": "Feature", "properties": { "strassenschluessel": "05162000002002010", "bezeichnung": "Ahornweg" }, "geometry": { "type": "Point", "coordinates": [ 6.554311683142445, 51.199370026459292 ] } },
{ "type": "Feature", "properties": { "strassenschluessel": "05162000002002011", "bezeichnung": "Ahrstraße" }, "geometry": { "type": "Point", "coordinates": [ 6.565206937625213, 51.194001953913528 ] } },
{ "type": "Feature", "properties": { "strassenschluessel": "05162000002002015", "bezeichnung": "Albert-Schweitzer-Straße" }, "geometry": { "type": "Point", "coordinates": [ 6.561090806684005, 51.191273877691209 ] } },
{ "type": "Feature", "properties": { "strassenschluessel": "05162000002002016", "bezeichnung": "Am Acker" }, "geometry": { "type": "Point", "coordinates": [ 6.560183602454911, 51.185820214098776 ] } },
{ "type": "Feature", "properties": { "strassenschluessel": "05162000002002020", "bezeichnung": "Am Dyckershof" }, "geometry": { "type": "Point", "coordinates": [ 6.543964194897331, 51.179317952018337 ] } },
{ "type": "Feature", "properties": { "strassenschluessel": "05162000002002024", "bezeichnung": "Am Hallenbad" }, "geometry": { "type": "Point", "coordinates": [ 6.558600405005181, 51.204984953999528 ] } },
{ "type": "Feature", "properties": { "strassenschluessel": "05162000002002025", "bezeichnung": "Am Jüchener Bach" }, "geometry": { "type": "Point", "coordinates": [ 6.557888775510546, 51.190730120730201 ] } },
{ "type": "Feature", "properties": { "strassenschluessel": "05162000002002030", "bezeichnung": "Am Lindenhof" }, "geometry": { "type": "Point", "coordinates": [ 6.559657647520907, 51.195632305207468 ] } },
{ "type": "Feature", "properties": { "strassenschluessel": "05162000002002031", "bezeichnung": "Am Lohschälerhof" }, "geometry": { "type": "Point", "coordinates": [ 6.554210813032125, 51.191276130353252 ] } },
{ "type": "Feature", "properties": { "strassenschluessel": "05162000002002035", "bezeichnung": "Am Stepprather Hof" }, "geometry": { "type": "Point", "coordinates": [ 6.565515978567794, 51.207033369006716 ] } },
{ "type": "Feature", "properties": { "strassenschluessel": "05162000002002040", "bezeichnung": "Am Stirkenbend" }, "geometry": { "type": "Point", "coordinates": [ 6.55760646438395, 51.202198340759068 ] } },
{ "type": "Feature", "properties": { "strassenschluessel": "05162000002002041", "bezeichnung": "An der Ladestraße" }, "geometry": { "type": "Point", "coordinates": [ 6.553061779337185, 51.194753925639013 ] } },
{ "type": "Feature", "properties": { "strassenschluessel": "05162000002002045", "bezeichnung": "An der Lohe" }, "geometry": { "type": "Point", "coordinates": [ 6.555353084241066, 51.190969514442997 ] } },
{ "type": "Feature", "properties": { "strassenschluessel": "05162000002002046", "bezeichnung": "Anne-Frank-Straße" }, "geometry": { "type": "Point", "coordinates": [ 6.558699118250699, 51.199801335667793 ] } },
{ "type": "Feature", "properties": { "strassenschluessel": "05162000002002050", "bezeichnung": "Antoniusstraße" }, "geometry": { "type": "Point", "coordinates": [ 6.559259843013143, 51.196546620027512 ] } },
{ "type": "Feature", "properties": { "strassenschluessel": "05162000002002055", "bezeichnung": "Asternweg" }, "geometry": { "type": "Point", "coordinates": [ 6.555147621105827, 51.202857170687736 ] } },
{ "type": "Feature", "properties": { "strassenschluessel": "05162000002002060", "bezeichnung": "Auf den Kempen" }, "geometry": { "type": "Point", "coordinates": [ 6.557192963321231, 51.204306184799023 ] } },
{ "type": "Feature", "properties": { "strassenschluessel": "05162000002002065", "bezeichnung": "Auf der Boom" }, "geometry": { "type": "Point", "coordinates": [ 6.55250348838026, 51.198996103171062 ] } },
{ "type": "Feature", "properties": { "strassenschluessel": "05162000002002070", "bezeichnung": "Matthiasstraße" }, "geometry": { "type": "Point", "coordinates": [ 6.555306730460667, 51.196324417106609 ] } },
{ "type": "Feature", "properties": { "strassenschluessel": "05162000002002075", "bezeichnung": "Bahnhofstraße" }, "geometry": { "type": "Point", "coordinates": [ 6.553605014520842, 51.195547756073942 ] } },
{ "type": "Feature", "properties": { "strassenschluessel": "05162000002002076", "bezeichnung": "Carbonnestraße" }, "geometry": null },
{ "type": "Feature", "properties": { "strassenschluessel": "05162000002002080", "bezeichnung": "Baumsweg" }, "geometry": { "type": "Point", "coordinates": [ 6.559831691795377, 51.199030052547037 ] } },
{ "type": "Feature", "properties": { "strassenschluessel": "05162000002002081", "bezeichnung": "Beethovenweg" }, "geometry": { "type": "Point", "coordinates": [ 6.563811075566706, 51.209967175142744 ] } },
{ "type": "Feature", "properties": { "strassenschluessel": "05162000002002082", "bezeichnung": "Berliner Straße" }, "geometry": { "type": "Point", "coordinates": [ 6.553569210013727, 51.196858514091979 ] } },
{ "type": "Feature", "properties": { "strassenschluessel": "05162000002002084", "bezeichnung": "Birkenhof" }, "geometry": { "type": "Point", "coordinates": [ 6.557699398683217, 51.212361481772021 ] } },
{ "type": "Feature", "properties": { "strassenschluessel": "05162000002002085", "bezeichnung": "Birkenweg" }, "geometry": { "type": "Point", "coordinates": [ 6.559016370887555, 51.189476306511978 ] } },
{ "type": "Feature", "properties": { "strassenschluessel": "05162000002002090", "bezeichnung": "Blumenstraße" }, "geometry": { "type": "Point", "coordinates": [ 6.554319206466998, 51.202959945801119 ] } },
{ "type": "Feature", "properties": { "strassenschluessel": "05162000002002091", "bezeichnung": "Brentanostraße" }, "geometry": { "type": "Point", "coordinates": [ 6.564470073398812, 51.190961048108093 ] } },
{ "type": "Feature", "properties": { "strassenschluessel": "05162000002002095", "bezeichnung": "Buchenweg" }, "geometry": { "type": "Point", "coordinates": [ 6.555254086986625, 51.201014954656443 ] } },
{ "type": "Feature", "properties": { "strassenschluessel": "05162000002002100", "bezeichnung": "Büttgerwald" }, "geometry": { "type": "Point", "coordinates": [ 6.525558918267233, 51.224228868052897 ] } },
{ "type": "Feature", "properties": { "strassenschluessel": "05162000002002101", "bezeichnung": "Chopinweg" }, "geometry": { "type": "Point", "coordinates": [ 6.566604236915767, 51.209208450131051 ] } },
{ "type": "Feature", "properties": { "strassenschluessel": "05162000002002102", "bezeichnung": "Christophorusstraße" }, "geometry": { "type": "Point", "coordinates": [ 6.560951050909382, 51.198364008922596 ] } },
{ "type": "Feature", "properties": { "strassenschluessel": "05162000002002105", "bezeichnung": "Dorfer Feldweg" }, "geometry": { "type": "Point", "coordinates": [ 6.561067021949499, 51.204201899145353 ] } },
{ "type": "Feature", "properties": { "strassenschluessel": "05162000002002110", "bezeichnung": "Drosselweg" }, "geometry": { "type": "Point", "coordinates": [ 6.564388196021389, 51.206717612563587 ] } },
{ "type": "Feature", "properties": { "strassenschluessel": "05162000002002115", "bezeichnung": "Düppheide" }, "geometry": { "type": "Point", "coordinates": [ 6.56681569129445, 51.210911062518555 ] } },
{ "type": "Feature", "properties": { "strassenschluessel": "05162000002002120", "bezeichnung": "Düppheider Weg" }, "geometry": { "type": "Point", "coordinates": [ 6.563887408686965, 51.209650110542874 ] } },
{ "type": "Feature", "properties": { "strassenschluessel": "05162000002002125", "bezeichnung": "Eichendorffstraße" }, "geometry": { "type": "Point", "coordinates": [ 6.552694539438568, 51.202282487454667 ] } },
{ "type": "Feature", "properties": { "strassenschluessel": "05162000002002130", "bezeichnung": "Eichenweg" }, "geometry": { "type": "Point", "coordinates": [ 6.553798000757102, 51.200558967354851 ] } },
{ "type": "Feature", "properties": { "strassenschluessel": "05162000002002131", "bezeichnung": "Eifelstraße" }, "geometry": { "type": "Point", "coordinates": [ 6.56491255303669, 51.19152014347609 ] } },
{ "type": "Feature", "properties": { "strassenschluessel": "05162000002002132", "bezeichnung": "Eichhörnchenweg" }, "geometry": { "type": "Point", "coordinates": [ 6.554409638915165, 51.203699295134491 ] } },
{ "type": "Feature", "properties": { "strassenschluessel": "05162000002002133", "bezeichnung": "Eickerender Feld" }, "geometry": { "type": "Point", "coordinates": [ 6.558841407640124, 51.197727874757497 ] } },
{ "type": "Feature", "properties": { "strassenschluessel": "05162000002002135", "bezeichnung": "Erlenweg" }, "geometry": { "type": "Point", "coordinates": [ 6.554300777958165, 51.200012766624987 ] } },
{ "type": "Feature", "properties": { "strassenschluessel": "05162000002002136", "bezeichnung": "Eschenweg" }, "geometry": { "type": "Point", "coordinates": [ 6.556279345881651, 51.199410115888817 ] } },
{ "type": "Feature", "properties": { "strassenschluessel": "05162000002002140", "bezeichnung": "Fichtenstraße" }, "geometry": { "type": "Point", "coordinates": [ 6.550152923873055, 51.200927570196981 ] } },
{ "type": "Feature", "properties": { "strassenschluessel": "05162000002002141", "bezeichnung": "Fuggerstraße" }, "geometry": { "type": "Point", "coordinates": [ 6.540008923150232, 51.197386611767449 ] } },
{ "type": "Feature", "properties": { "strassenschluessel": "05162000002002142", "bezeichnung": "Fledermausweg" }, "geometry": { "type": "Point", "coordinates": [ 6.553518728679681, 51.203492274578736 ] } },
{ "type": "Feature", "properties": { "strassenschluessel": "05162000002002145", "bezeichnung": "Kranichweg" }, "geometry": { "type": "Point", "coordinates": [ 6.565358611297311, 51.206386641078623 ] } },
{ "type": "Feature", "properties": { "strassenschluessel": "05162000002002150", "bezeichnung": "Friedhofsweg" }, "geometry": { "type": "Point", "coordinates": [ 6.559358614129818, 51.187509619083876 ] } },
{ "type": "Feature", "properties": { "strassenschluessel": "05162000002002155", "bezeichnung": "Heinrich-Lübke-Straße" }, "geometry": { "type": "Point", "coordinates": [ 6.562472582729255, 51.191845220658728 ] } },
{ "type": "Feature", "properties": { "strassenschluessel": "05162000002002160", "bezeichnung": "Gartenstraße" }, "geometry": { "type": "Point", "coordinates": [ 6.556488801280191, 51.193137652527646 ] } },
{ "type": "Feature", "properties": { "strassenschluessel": "05162000002002165", "bezeichnung": "Ginsterweg" }, "geometry": { "type": "Point", "coordinates": [ 6.554800966243931, 51.203408914765056 ] } },
{ "type": "Feature", "properties": { "strassenschluessel": "05162000002002170", "bezeichnung": "Von-Stauffenberg-Straße" }, "geometry": { "type": "Point", "coordinates": [ 6.550070670309798, 51.192564121177675 ] } },
{ "type": "Feature", "properties": { "strassenschluessel": "05162000002002175", "bezeichnung": "Glehner Straße" }, "geometry": { "type": "Point", "coordinates": [ 6.564971095966657, 51.187716933321418 ] } },
{ "type": "Feature", "properties": { "strassenschluessel": "05162000002002180", "bezeichnung": "Goethestraße" }, "geometry": { "type": "Point", "coordinates": [ 6.555309325891596, 51.207093134276903 ] } },
{ "type": "Feature", "properties": { "strassenschluessel": "05162000002002185", "bezeichnung": "Bismarckstraße" }, "geometry": { "type": "Point", "coordinates": [ 6.558567604159453, 51.19385929555871 ] } },
{ "type": "Feature", "properties": { "strassenschluessel": "05162000002002186", "bezeichnung": "Haus-Randerath-Straße" }, "geometry": { "type": "Point", "coordinates": [ 6.560513217868433, 51.19019899713085 ] } },
{ "type": "Feature", "properties": { "strassenschluessel": "05162000002002187", "bezeichnung": "Haydnweg" }, "geometry": { "type": "Point", "coordinates": [ 6.56730224627503, 51.208496019545983 ] } },
{ "type": "Feature", "properties": { "strassenschluessel": "05162000002002188", "bezeichnung": "Hansestraße" }, "geometry": { "type": "Point", "coordinates": [ 6.545858262886191, 51.198184632055501 ] } },
{ "type": "Feature", "properties": { "strassenschluessel": "05162000002002190", "bezeichnung": "Hochstraße" }, "geometry": { "type": "Point", "coordinates": [ 6.5603665858382, 51.192623566587308 ] } },
{ "type": "Feature", "properties": { "strassenschluessel": "05162000002002195", "bezeichnung": "Hohe Brücke" }, "geometry": { "type": "Point", "coordinates": [ 6.559962364533014, 51.189862166213771 ] } },
{ "type": "Feature", "properties": { "strassenschluessel": "05162000002002200", "bezeichnung": "Holzkamp" }, "geometry": { "type": "Point", "coordinates": [ 6.550714215164518, 51.195087968606416 ] } },
{ "type": "Feature", "properties": { "strassenschluessel": "05162000002002201", "bezeichnung": "Hunsrückstraße" }, "geometry": { "type": "Point", "coordinates": [ 6.566014131881614, 51.190822626197466 ] } },
{ "type": "Feature", "properties": { "strassenschluessel": "05162000002002202", "bezeichnung": "Igelweg" }, "geometry": { "type": "Point", "coordinates": [ 6.553274763478556, 51.203308254330906 ] } },
{ "type": "Feature", "properties": { "strassenschluessel": "05162000002002203", "bezeichnung": "Pfarrer-Fellner-Straße" }, "geometry": { "type": "Point", "coordinates": [ 6.548223643469083, 51.191267461090028 ] } },
{ "type": "Feature", "properties": { "strassenschluessel": "05162000002002204", "bezeichnung": "Hans-Herzig-Straße" }, "geometry": { "type": "Point", "coordinates": [ 6.549159206351364, 51.189937743952378 ] } },
{ "type": "Feature", "properties": { "strassenschluessel": "05162000002002205", "bezeichnung": "Im Hasseldamm" }, "geometry": { "type": "Point", "coordinates": [ 6.54744377900992, 51.216524685115466 ] } },
{ "type": "Feature", "properties": { "strassenschluessel": "05162000002002207", "bezeichnung": "Prof.-Schipperges-Straße" }, "geometry": { "type": "Point", "coordinates": [ 6.549645282135613, 51.18925597957562 ] } },
{ "type": "Feature", "properties": { "strassenschluessel": "05162000002002210", "bezeichnung": "Im Kamp" }, "geometry": { "type": "Point", "coordinates": [ 6.558465698297445, 51.189358393955764 ] } },
{ "type": "Feature", "properties": { "strassenschluessel": "05162000002002212", "bezeichnung": "Hilde-Coppi-Straße" }, "geometry": { "type": "Point", "coordinates": [ 6.552591429584417, 51.191635438685722 ] } },
{ "type": "Feature", "properties": { "strassenschluessel": "05162000002002213", "bezeichnung": "Erika-von-Brockdorff-Straße" }, "geometry": { "type": "Point", "coordinates": [ 6.551396316712103, 51.190005816615326 ] } },
{ "type": "Feature", "properties": { "strassenschluessel": "05162000002002214", "bezeichnung": "Dietrich-Bonhoeffer-Straße" }, "geometry": { "type": "Point", "coordinates": [ 6.549554534433788, 51.190994410242425 ] } },
{ "type": "Feature", "properties": { "strassenschluessel": "05162000002002215", "bezeichnung": "Dionysiusstraße" }, "geometry": { "type": "Point", "coordinates": [ 6.556843315185926, 51.193821791428583 ] } },
{ "type": "Feature", "properties": { "strassenschluessel": "05162000002002216", "bezeichnung": "Jan-Palach-Straße" }, "geometry": { "type": "Point", "coordinates": [ 6.55993206313096, 51.203152556876518 ] } },
{ "type": "Feature", "properties": { "strassenschluessel": "05162000002002220", "bezeichnung": "Josef-Thory-Straße" }, "geometry": { "type": "Point", "coordinates": [ 6.561758483266814, 51.193044489245125 ] } },
{ "type": "Feature", "properties": { "strassenschluessel": "05162000002002225", "bezeichnung": "Kaarster Hütte" }, "geometry": { "type": "Point", "coordinates": [ 6.56200189584688, 51.184790277026842 ] } },
{ "type": "Feature", "properties": { "strassenschluessel": "05162000002002226", "bezeichnung": "Karl-Arnold-Straße" }, "geometry": { "type": "Point", "coordinates": [ 6.55880586534488, 51.190998905335455 ] } },
{ "type": "Feature", "properties": { "strassenschluessel": "05162000002002227", "bezeichnung": "Karl-Nöthen-Straße" }, "geometry": { "type": "Point", "coordinates": [ 6.561073844294095, 51.192436135404158 ] } },
{ "type": "Feature", "properties": { "strassenschluessel": "05162000002002228", "bezeichnung": "Kastanienstraße" }, "geometry": { "type": "Point", "coordinates": [ 6.556970065542903, 51.20021399935257 ] } },
{ "type": "Feature", "properties": { "strassenschluessel": "05162000002002230", "bezeichnung": "Kiefernweg" }, "geometry": { "type": "Point", "coordinates": [ 6.553970733265556, 51.200289380173324 ] } },
{ "type": "Feature", "properties": { "strassenschluessel": "05162000002002235", "bezeichnung": "Maternusstraße" }, "geometry": { "type": "Point", "coordinates": [ 6.562122897741604, 51.193153025765561 ] } },
{ "type": "Feature", "properties": { "strassenschluessel": "05162000002002240", "bezeichnung": "Kolpingstraße" }, "geometry": { "type": "Point", "coordinates": [ 6.55849095039736, 51.204673988266933 ] } },
{ "type": "Feature", "properties": { "strassenschluessel": "05162000002002245", "bezeichnung": "Kriegersweg" }, "geometry": { "type": "Point", "coordinates": [ 6.545772633642308, 51.194830272558093 ] } },
{ "type": "Feature", "properties": { "strassenschluessel": "05162000002002246", "bezeichnung": "Kurt-Schumacher-Straße" }, "geometry": { "type": "Point", "coordinates": [ 6.558465177709142, 51.192037816196063 ] } },
{ "type": "Feature", "properties": { "strassenschluessel": "05162000002002250", "bezeichnung": "Ladestraße" }, "geometry": { "type": "Point", "coordinates": [ 6.549425192403443, 51.195328722986829 ] } },
{ "type": "Feature", "properties": { "strassenschluessel": "05162000002002251", "bezeichnung": "Leharweg" }, "geometry": { "type": "Point", "coordinates": [ 6.565041447279523, 51.208184164854096 ] } },
{ "type": "Feature", "properties": { "strassenschluessel": "05162000002002252", "bezeichnung": "Lärchenweg" }, "geometry": { "type": "Point", "coordinates": [ 6.550685855509705, 51.202647061528097 ] } },
{ "type": "Feature", "properties": { "strassenschluessel": "05162000002002253", "bezeichnung": "Laurentiusstraße" }, "geometry": { "type": "Point", "coordinates": [ 6.559181328985203, 51.197481493608997 ] } },
{ "type": "Feature", "properties": { "strassenschluessel": "05162000002002255", "bezeichnung": "Lessingstraße" }, "geometry": { "type": "Point", "coordinates": [ 6.555881761347742, 51.208071586629728 ] } },
{ "type": "Feature", "properties": { "strassenschluessel": "05162000002002260", "bezeichnung": "Konrad-Adenauer-Straße" }, "geometry": { "type": "Point", "coordinates": [ 6.558632205664411, 51.187414112583156 ] } },
{ "type": "Feature", "properties": { "strassenschluessel": "05162000002002265", "bezeichnung": "Lilienweg" }, "geometry": { "type": "Point", "coordinates": [ 6.553259810962179, 51.202706651411447 ] } },
{ "type": "Feature", "properties": { "strassenschluessel": "05162000002002270", "bezeichnung": "Lindenweg" }, "geometry": { "type": "Point", "coordinates": [ 6.552360140432151, 51.201028694453427 ] } },
{ "type": "Feature", "properties": { "strassenschluessel": "05162000002002271", "bezeichnung": "Lisztweg" }, "geometry": { "type": "Point", "coordinates": [ 6.566064557456367, 51.210698044158377 ] } },
{ "type": "Feature", "properties": { "strassenschluessel": "05162000002002272", "bezeichnung": "Martin-Luther-Straße" }, "geometry": { "type": "Point", "coordinates": [ 6.553335494345812, 51.197737163364131 ] } },
{ "type": "Feature", "properties": { "strassenschluessel": "05162000002002273", "bezeichnung": "Mainstraße" }, "geometry": { "type": "Point", "coordinates": [ 6.561855795994428, 51.195598459343188 ] } },
{ "type": "Feature", "properties": { "strassenschluessel": "05162000002002275", "bezeichnung": "Martinsgasse" }, "geometry": { "type": "Point", "coordinates": [ 6.545339164526299, 51.199633646048618 ] } },
{ "type": "Feature", "properties": { "strassenschluessel": "05162000002002280", "bezeichnung": "Martinshütte" }, "geometry": { "type": "Point", "coordinates": [ 6.547871622072295, 51.199778862859795 ] } },
{ "type": "Feature", "properties": { "strassenschluessel": "05162000002002285", "bezeichnung": "Martinshütter Weg" }, "geometry": { "type": "Point", "coordinates": [ 6.546415530591218, 51.200533782924666 ] } },
{ "type": "Feature", "properties": { "strassenschluessel": "05162000002002286", "bezeichnung": "Mendelssohnweg" }, "geometry": { "type": "Point", "coordinates": [ 6.565141562439637, 51.210872237865317 ] } },
{ "type": "Feature", "properties": { "strassenschluessel": "05162000002002287", "bezeichnung": "Moselstraße" }, "geometry": { "type": "Point", "coordinates": [ 6.563736467564027, 51.19565219715777 ] } },
{ "type": "Feature", "properties": { "strassenschluessel": "05162000002002290", "bezeichnung": "Nikolausstraße" }, "geometry": { "type": "Point", "coordinates": [ 6.549270974222053, 51.198883500498688 ] } },
{ "type": "Feature", "properties": { "strassenschluessel": "05162000002002295", "bezeichnung": "Mozartweg" }, "geometry": { "type": "Point", "coordinates": [ 6.566280239905763, 51.211116189506747 ] } },
{ "type": "Feature", "properties": { "strassenschluessel": "05162000002002300", "bezeichnung": "Jan-van-Werth-Straße" }, "geometry": { "type": "Point", "coordinates": [ 6.560152606313341, 51.204107843777294 ] } },
{ "type": "Feature", "properties": { "strassenschluessel": "05162000002002305", "bezeichnung": "Nelkenweg" }, "geometry": { "type": "Point", "coordinates": [ 6.554273608329831, 51.201797073749056 ] } },
{ "type": "Feature", "properties": { "strassenschluessel": "05162000002002306", "bezeichnung": "Johannes-Wolf-Straße" }, "geometry": null },
{ "type": "Feature", "properties": { "strassenschluessel": "05162000002002307", "bezeichnung": "An der Obstwiese" }, "geometry": { "type": "Point", "coordinates": [ 6.560893350007357, 51.194062478425387 ] } },
{ "type": "Feature", "properties": { "strassenschluessel": "05162000002002310", "bezeichnung": "Raitz-von-Frentz-Straße" }, "geometry": { "type": "Point", "coordinates": [ 6.562838046191493, 51.188389125300056 ] } },
{ "type": "Feature", "properties": { "strassenschluessel": "05162000002002315", "bezeichnung": "Nordstraße" }, "geometry": { "type": "Point", "coordinates": [ 6.559406279432855, 51.204972390795014 ] } },
{ "type": "Feature", "properties": { "strassenschluessel": "05162000002002320", "bezeichnung": "Oststraße" }, "geometry": { "type": "Point", "coordinates": [ 6.565591373146809, 51.207414769617678 ] } },
{ "type": "Feature", "properties": { "strassenschluessel": "05162000002002325", "bezeichnung": "Akazienweg" }, "geometry": { "type": "Point", "coordinates": [ 6.554059332092689, 51.199680436356765 ] } },
{ "type": "Feature", "properties": { "strassenschluessel": "05162000002002330", "bezeichnung": "Pestalozzistraße" }, "geometry": { "type": "Point", "coordinates": [ 6.556035646641842, 51.194380824468126 ] } },
{ "type": "Feature", "properties": { "strassenschluessel": "05162000002002335", "bezeichnung": "Püllenweg" }, "geometry": { "type": "Point", "coordinates": [ 6.546475758859466, 51.199413589989966 ] } },
{ "type": "Feature", "properties": { "strassenschluessel": "05162000002002340", "bezeichnung": "Rhedung" }, "geometry": { "type": "Point", "coordinates": [ 6.549251288389198, 51.201149321309245 ] } },
{ "type": "Feature", "properties": { "strassenschluessel": "05162000002002341", "bezeichnung": "Rheinstraße" }, "geometry": { "type": "Point", "coordinates": [ 6.563812979549661, 51.193477626573596 ] } },
{ "type": "Feature", "properties": { "strassenschluessel": "05162000002002342", "bezeichnung": "Rurstraße" }, "geometry": { "type": "Point", "coordinates": [ 6.56382824199826, 51.194262081181279 ] } },
{ "type": "Feature", "properties": { "strassenschluessel": "05162000002002345", "bezeichnung": "Orchideenweg" }, "geometry": { "type": "Point", "coordinates": [ 6.553804244004391, 51.2020549528769 ] } },
{ "type": "Feature", "properties": { "strassenschluessel": "05162000002002346", "bezeichnung": "Saarstraße" }, "geometry": { "type": "Point", "coordinates": [ 6.563510154244008, 51.194455056805509 ] } },
{ "type": "Feature", "properties": { "strassenschluessel": "05162000002002355", "bezeichnung": "Schiefbahner Straße" }, "geometry": { "type": "Point", "coordinates": [ 6.5588277199889, 51.206792217874884 ] } },
{ "type": "Feature", "properties": { "strassenschluessel": "05162000002002356", "bezeichnung": "Schubertweg" }, "geometry": { "type": "Point", "coordinates": [ 6.563129110130542, 51.210607788335402 ] } },
{ "type": "Feature", "properties": { "strassenschluessel": "05162000002002357", "bezeichnung": "Stephanusstraße" }, "geometry": { "type": "Point", "coordinates": [ 6.559727794186877, 51.197401924108348 ] } },
{ "type": "Feature", "properties": { "strassenschluessel": "05162000002002360", "bezeichnung": "Kantstraße" }, "geometry": { "type": "Point", "coordinates": [ 6.555254248246253, 51.207360379995336 ] } },
{ "type": "Feature", "properties": { "strassenschluessel": "05162000002002365", "bezeichnung": "Stettiner Straße" }, "geometry": { "type": "Point", "coordinates": [ 6.552300726560995, 51.198561975687426 ] } },
{ "type": "Feature", "properties": { "strassenschluessel": "05162000002002366", "bezeichnung": "Stingenhof" }, "geometry": { "type": "Point", "coordinates": [ 6.563804101890716, 51.205286709507718 ] } },
{ "type": "Feature", "properties": { "strassenschluessel": "05162000002002370", "bezeichnung": "Tannenstraße" }, "geometry": { "type": "Point", "coordinates": [ 6.550188420937618, 51.201869341785354 ] } },
{ "type": "Feature", "properties": { "strassenschluessel": "05162000002002375", "bezeichnung": "Theodor-Heuss-Straße" }, "geometry": { "type": "Point", "coordinates": [ 6.563891592859014, 51.190668342542402 ] } },
{ "type": "Feature", "properties": { "strassenschluessel": "05162000002002376", "bezeichnung": "Theodor-Storm-Straße" }, "geometry": { "type": "Point", "coordinates": [ 6.564259238034421, 51.190096449065877 ] } },
{ "type": "Feature", "properties": { "strassenschluessel": "05162000002002380", "bezeichnung": "Enzianweg" }, "geometry": { "type": "Point", "coordinates": [ 6.554803200911063, 51.203119464514025 ] } },
{ "type": "Feature", "properties": { "strassenschluessel": "05162000002002385", "bezeichnung": "Überseite" }, "geometry": { "type": "Point", "coordinates": [ 6.557979357811582, 51.185215686501721 ] } },
{ "type": "Feature", "properties": { "strassenschluessel": "05162000002002390", "bezeichnung": "Uhlandstraße" }, "geometry": { "type": "Point", "coordinates": [ 6.55435098109144, 51.207265451401526 ] } },
{ "type": "Feature", "properties": { "strassenschluessel": "05162000002002395", "bezeichnung": "Ulmenweg" }, "geometry": { "type": "Point", "coordinates": [ 6.551611708339464, 51.200665600709947 ] } },
{ "type": "Feature", "properties": { "strassenschluessel": "05162000002002400", "bezeichnung": "Edelweißweg" }, "geometry": { "type": "Point", "coordinates": [ 6.553794619998364, 51.202771946619919 ] } },
{ "type": "Feature", "properties": { "strassenschluessel": "05162000002002401", "bezeichnung": "Edith-Stein-Straße" }, "geometry": { "type": "Point", "coordinates": [ 6.560022289864335, 51.199297012098661 ] } },
{ "type": "Feature", "properties": { "strassenschluessel": "05162000002002405", "bezeichnung": "Waldweg" }, "geometry": { "type": "Point", "coordinates": [ 6.546905271177613, 51.201180064309519 ] } },
{ "type": "Feature", "properties": { "strassenschluessel": "05162000002002406", "bezeichnung": "Weidenweg" }, "geometry": { "type": "Point", "coordinates": [ 6.557162510966357, 51.200979815153389 ] } },
{ "type": "Feature", "properties": { "strassenschluessel": "05162000002002407", "bezeichnung": "Zedernweg" }, "geometry": { "type": "Point", "coordinates": [ 6.557592139239493, 51.204315277319935 ] } },
{ "type": "Feature", "properties": { "strassenschluessel": "05162000002003005", "bezeichnung": "Adlerstraße" }, "geometry": { "type": "Point", "coordinates": [ 6.512332020684872, 51.187559348308291 ] } },
{ "type": "Feature", "properties": { "strassenschluessel": "05162000002003010", "bezeichnung": "Adolph-Kolping-Straße" }, "geometry": { "type": "Point", "coordinates": [ 6.514349538168177, 51.190533213293399 ] } },
{ "type": "Feature", "properties": { "strassenschluessel": "05162000002003011", "bezeichnung": "Albrecht-Dürer-Straße" }, "geometry": { "type": "Point", "coordinates": [ 6.50149029456104, 51.188556862840251 ] } },
{ "type": "Feature", "properties": { "strassenschluessel": "05162000002003012", "bezeichnung": "Am Alten Sägewerk" }, "geometry": { "type": "Point", "coordinates": [ 6.533559612648292, 51.205695912470915 ] } },
{ "type": "Feature", "properties": { "strassenschluessel": "05162000002003015", "bezeichnung": "Am Brauhaus" }, "geometry": { "type": "Point", "coordinates": [ 6.51252535868712, 51.191773525783987 ] } },
{ "type": "Feature", "properties": { "strassenschluessel": "05162000002003016", "bezeichnung": "Christine-Teusch-Straße" }, "geometry": { "type": "Point", "coordinates": [ 6.50548386951492, 51.190813759980188 ] } },
{ "type": "Feature", "properties": { "strassenschluessel": "05162000002003020", "bezeichnung": "Am Ehrenmal" }, "geometry": { "type": "Point", "coordinates": [ 6.501865178627997, 51.210970421186275 ] } },
{ "type": "Feature", "properties": { "strassenschluessel": "05162000002003025", "bezeichnung": "Am Eichengrund" }, "geometry": { "type": "Point", "coordinates": [ 6.5282892616766, 51.1855523600412 ] } },
{ "type": "Feature", "properties": { "strassenschluessel": "05162000002003026", "bezeichnung": "Elisabeth-Selbert-Straße" }, "geometry": { "type": "Point", "coordinates": [ 6.506499079619275, 51.191040395144199 ] } },
{ "type": "Feature", "properties": { "strassenschluessel": "05162000002003030", "bezeichnung": "Am Getau" }, "geometry": { "type": "Point", "coordinates": [ 6.52910869900626, 51.185801246832732 ] } },
{ "type": "Feature", "properties": { "strassenschluessel": "05162000002003035", "bezeichnung": "Am Graben" }, "geometry": { "type": "Point", "coordinates": [ 6.509428356653683, 51.208758883147674 ] } },
{ "type": "Feature", "properties": { "strassenschluessel": "05162000002003036", "bezeichnung": "Am Heyerhof" }, "geometry": { "type": "Point", "coordinates": [ 6.502527727006125, 51.206375536737532 ] } },
{ "type": "Feature", "properties": { "strassenschluessel": "05162000002003040", "bezeichnung": "Am Hommelshof" }, "geometry": { "type": "Point", "coordinates": [ 6.528995781394497, 51.194517405514048 ] } },
{ "type": "Feature", "properties": { "strassenschluessel": "05162000002003041", "bezeichnung": "Jakob-Scheulen-Straße" }, "geometry": { "type": "Point", "coordinates": [ 6.527412755421195, 51.192957340589508 ] } },
{ "type": "Feature", "properties": { "strassenschluessel": "05162000002003045", "bezeichnung": "Am Kirsmichhof" }, "geometry": { "type": "Point", "coordinates": [ 6.515252022005086, 51.191638753279996 ] } },
{ "type": "Feature", "properties": { "strassenschluessel": "05162000002003046", "bezeichnung": "Am Kuhlenhof" }, "geometry": { "type": "Point", "coordinates": [ 6.510054637193299, 51.190458623065773 ] } },
{ "type": "Feature", "properties": { "strassenschluessel": "05162000002003047", "bezeichnung": "Am Rüttersweg" }, "geometry": { "type": "Point", "coordinates": [ 6.506883497972912, 51.191652711369485 ] } },
{ "type": "Feature", "properties": { "strassenschluessel": "05162000002003050", "bezeichnung": "Am Sportplatz" }, "geometry": { "type": "Point", "coordinates": [ 6.514985860663365, 51.184603148278072 ] } },
{ "type": "Feature", "properties": { "strassenschluessel": "05162000002003055", "bezeichnung": "Am Taubenschlag" }, "geometry": { "type": "Point", "coordinates": [ 6.531527460415773, 51.188514842423508 ] } },
{ "type": "Feature", "properties": { "strassenschluessel": "05162000002003056", "bezeichnung": "Am Henskes Hof" }, "geometry": { "type": "Point", "coordinates": [ 6.545252293203931, 51.193373193364913 ] } },
{ "type": "Feature", "properties": { "strassenschluessel": "05162000002003060", "bezeichnung": "Am Trietenbroich" }, "geometry": { "type": "Point", "coordinates": [ 6.510292484542226, 51.182209248265728 ] } },
{ "type": "Feature", "properties": { "strassenschluessel": "05162000002003061", "bezeichnung": "Am Waldfriedhof" }, "geometry": { "type": "Point", "coordinates": [ 6.501405370952748, 51.198544655401712 ] } },
{ "type": "Feature", "properties": { "strassenschluessel": "05162000002003062", "bezeichnung": "Am Winandshof" }, "geometry": { "type": "Point", "coordinates": [ 6.501777302604936, 51.191068643151468 ] } },
{ "type": "Feature", "properties": { "strassenschluessel": "05162000002003065", "bezeichnung": "Am Zalfenhof" }, "geometry": { "type": "Point", "coordinates": [ 6.529733379115674, 51.187351321586185 ] } },
{ "type": "Feature", "properties": { "strassenschluessel": "05162000002003066", "bezeichnung": "Am Zollhaus" }, "geometry": { "type": "Point", "coordinates": [ 6.501500482156619, 51.206782403056728 ] } },
{ "type": "Feature", "properties": { "strassenschluessel": "05162000002003067", "bezeichnung": "An den Drei Steinen" }, "geometry": { "type": "Point", "coordinates": [ 6.502923529318745, 51.20500372214461 ] } },
{ "type": "Feature", "properties": { "strassenschluessel": "05162000002003070", "bezeichnung": "An der Blankstraße" }, "geometry": { "type": "Point", "coordinates": [ 6.52927255414813, 51.194588055174151 ] } },
{ "type": "Feature", "properties": { "strassenschluessel": "05162000002003071", "bezeichnung": "Am Steg" }, "geometry": { "type": "Point", "coordinates": [ 6.523321807648872, 51.207208332725969 ] } },
{ "type": "Feature", "properties": { "strassenschluessel": "05162000002003072", "bezeichnung": "An der Alten Post" }, "geometry": { "type": "Point", "coordinates": [ 6.512755523257576, 51.191559723063655 ] } },
{ "type": "Feature", "properties": { "strassenschluessel": "05162000002003075", "bezeichnung": "An der Insel" }, "geometry": { "type": "Point", "coordinates": [ 6.529906894334336, 51.195528169229206 ] } },
{ "type": "Feature", "properties": { "strassenschluessel": "05162000002003080", "bezeichnung": "An der Kreuzkapelle" }, "geometry": { "type": "Point", "coordinates": [ 6.522875962281272, 51.192339565906352 ] } },
{ "type": "Feature", "properties": { "strassenschluessel": "05162000002003081", "bezeichnung": "An der Niers-Aue" }, "geometry": { "type": "Point", "coordinates": [ 6.502339328548342, 51.190563788799999 ] } },
{ "type": "Feature", "properties": { "strassenschluessel": "05162000002003085", "bezeichnung": "An der Sandkuhle" }, "geometry": { "type": "Point", "coordinates": [ 6.508354860082375, 51.190481885535036 ] } },
{ "type": "Feature", "properties": { "strassenschluessel": "05162000002003086", "bezeichnung": "An der Synagoge" }, "geometry": { "type": "Point", "coordinates": [ 6.51133278565884, 51.191070623072129 ] } },
{ "type": "Feature", "properties": { "strassenschluessel": "05162000002003087", "bezeichnung": "Anemonenweg" }, "geometry": null },
{ "type": "Feature", "properties": { "strassenschluessel": "05162000002003090", "bezeichnung": "An Heldsmühle" }, "geometry": { "type": "Point", "coordinates": [ 6.511528708889377, 51.184191306645012 ] } },
{ "type": "Feature", "properties": { "strassenschluessel": "05162000002003091", "bezeichnung": "An Ruhren" }, "geometry": { "type": "Point", "coordinates": [ 6.502027586100406, 51.206696563389144 ] } },
{ "type": "Feature", "properties": { "strassenschluessel": "05162000002003095", "bezeichnung": "Arndtstraße" }, "geometry": { "type": "Point", "coordinates": [ 6.515784258958624, 51.193969895478197 ] } },
{ "type": "Feature", "properties": { "strassenschluessel": "05162000002003096", "bezeichnung": "St.-Katharina-Platz" }, "geometry": { "type": "Point", "coordinates": [ 6.514933288940856, 51.191003046851307 ] } },
{ "type": "Feature", "properties": { "strassenschluessel": "05162000002003100", "bezeichnung": "Bahnstraße" }, "geometry": { "type": "Point", "coordinates": [ 6.544808430498606, 51.194716082229306 ] } },
{ "type": "Feature", "properties": { "strassenschluessel": "05162000002003104", "bezeichnung": "Bärlauchweg" }, "geometry": { "type": "Point", "coordinates": [ 6.498556573598722, 51.189453805840436 ] } },
{ "type": "Feature", "properties": { "strassenschluessel": "05162000002003105", "bezeichnung": "Bauesweg" }, "geometry": { "type": "Point", "coordinates": [ 6.492093422781267, 51.214568817435079 ] } },
{ "type": "Feature", "properties": { "strassenschluessel": "05162000002003106", "bezeichnung": "Bertha-von-Suttner-Straße" }, "geometry": { "type": "Point", "coordinates": [ 6.506299387858034, 51.188052403788639 ] } },
{ "type": "Feature", "properties": { "strassenschluessel": "05162000002003107", "bezeichnung": "Clara-Schumann-Straße" }, "geometry": { "type": "Point", "coordinates": [ 6.505172228468078, 51.190301827004021 ] } },
{ "type": "Feature", "properties": { "strassenschluessel": "05162000002003108", "bezeichnung": "Clara-Viebig-Straße" }, "geometry": { "type": "Point", "coordinates": [ 6.507352721979535, 51.19062138610682 ] } },
{ "type": "Feature", "properties": { "strassenschluessel": "05162000002003110", "bezeichnung": "Franz-Karl-Kremer-Straße" }, "geometry": { "type": "Point", "coordinates": [ 6.528944853296381, 51.183202070562885 ] } },
{ "type": "Feature", "properties": { "strassenschluessel": "05162000002003115", "bezeichnung": "Blecherstraße" }, "geometry": { "type": "Point", "coordinates": [ 6.541673382490816, 51.179025553041228 ] } },
{ "type": "Feature", "properties": { "strassenschluessel": "05162000002003120", "bezeichnung": "Bleichstraße" }, "geometry": { "type": "Point", "coordinates": [ 6.517872377025633, 51.188196739349941 ] } },
{ "type": "Feature", "properties": { "strassenschluessel": "05162000002003125", "bezeichnung": "Borrenstraße" }, "geometry": { "type": "Point", "coordinates": [ 6.512010926423793, 51.188605608931127 ] } },
{ "type": "Feature", "properties": { "strassenschluessel": "05162000002003130", "bezeichnung": "Borrenweg" }, "geometry": { "type": "Point", "coordinates": [ 6.516864969004412, 51.187255560157915 ] } },
{ "type": "Feature", "properties": { "strassenschluessel": "05162000002003131", "bezeichnung": "Brauereistraße" }, "geometry": { "type": "Point", "coordinates": [ 6.512631475208443, 51.191095484566667 ] } },
{ "type": "Feature", "properties": { "strassenschluessel": "05162000002003135", "bezeichnung": "Bruchstraße" }, "geometry": { "type": "Point", "coordinates": [ 6.496918408306474, 51.182673368798909 ] } },
{ "type": "Feature", "properties": { "strassenschluessel": "05162000002003136", "bezeichnung": "Danziger Straße" }, "geometry": { "type": "Point", "coordinates": [ 6.505664423016646, 51.186024809221301 ] } },
{ "type": "Feature", "properties": { "strassenschluessel": "05162000002003140", "bezeichnung": "Don-Bosco-Straße" }, "geometry": { "type": "Point", "coordinates": [ 6.514023958628072, 51.189423679689064 ] } },
{ "type": "Feature", "properties": { "strassenschluessel": "05162000002003145", "bezeichnung": "Novalisstraße" }, "geometry": { "type": "Point", "coordinates": [ 6.507351196653726, 51.20908253919481 ] } },
{ "type": "Feature", "properties": { "strassenschluessel": "05162000002003150", "bezeichnung": "Engbrück" }, "geometry": { "type": "Point", "coordinates": [ 6.521998276058373, 51.192949678224608 ] } },
{ "type": "Feature", "properties": { "strassenschluessel": "05162000002003152", "bezeichnung": "Ernst-Barlach-Straße" }, "geometry": { "type": "Point", "coordinates": [ 6.502704704564569, 51.186669719097772 ] } },
{ "type": "Feature", "properties": { "strassenschluessel": "05162000002003155", "bezeichnung": "Feldstraße" }, "geometry": { "type": "Point", "coordinates": [ 6.538109337828754, 51.181352026482386 ] } },
{ "type": "Feature", "properties": { "strassenschluessel": "05162000002003160", "bezeichnung": "Finkenweg" }, "geometry": { "type": "Point", "coordinates": [ 6.512457675506022, 51.18693156743803 ] } },
{ "type": "Feature", "properties": { "strassenschluessel": "05162000002003161", "bezeichnung": "Flachsbleiche" }, "geometry": { "type": "Point", "coordinates": [ 6.523472664485293, 51.207564451117534 ] } },
{ "type": "Feature", "properties": { "strassenschluessel": "05162000002003165", "bezeichnung": "Fragenhütte" }, "geometry": { "type": "Point", "coordinates": [ 6.501115617224073, 51.199397987143357 ] } },
{ "type": "Feature", "properties": { "strassenschluessel": "05162000002003170", "bezeichnung": "Freiheitsstraße" }, "geometry": { "type": "Point", "coordinates": [ 6.517423246242076, 51.192271007886042 ] } },
{ "type": "Feature", "properties": { "strassenschluessel": "05162000002003171", "bezeichnung": "Frida-Kahlo-Straße" }, "geometry": { "type": "Point", "coordinates": [ 6.501192295128108, 51.187829083378624 ] } },
{ "type": "Feature", "properties": { "strassenschluessel": "05162000002003175", "bezeichnung": "Donatusstraße" }, "geometry": { "type": "Point", "coordinates": [ 6.529206809106166, 51.182829633082193 ] } },
{ "type": "Feature", "properties": { "strassenschluessel": "05162000002003180", "bezeichnung": "Friedrich-Ebert-Straße" }, "geometry": { "type": "Point", "coordinates": [ 6.518063508629944, 51.194482662047037 ] } },
{ "type": "Feature", "properties": { "strassenschluessel": "05162000002003185", "bezeichnung": "Friedrich-Kreutzer-Straße" }, "geometry": { "type": "Point", "coordinates": [ 6.509554355658275, 51.216173814524716 ] } },
{ "type": "Feature", "properties": { "strassenschluessel": "05162000002003186", "bezeichnung": "Gabriele-Münter-Straße" }, "geometry": { "type": "Point", "coordinates": [ 6.502850821826939, 51.187287276225369 ] } },
{ "type": "Feature", "properties": { "strassenschluessel": "05162000002003195", "bezeichnung": "Geschwister-Scholl-Straße" }, "geometry": { "type": "Point", "coordinates": [ 6.50862981133033, 51.187058105718343 ] } },
{ "type": "Feature", "properties": { "strassenschluessel": "05162000002003200", "bezeichnung": "Gilleshütte" }, "geometry": { "type": "Point", "coordinates": [ 6.498335423925604, 51.193963991828255 ] } },
{ "type": "Feature", "properties": { "strassenschluessel": "05162000002003205", "bezeichnung": "Gladbacher Straße" }, "geometry": { "type": "Point", "coordinates": [ 6.495090759320685, 51.198306423764265 ] } },
{ "type": "Feature", "properties": { "strassenschluessel": "05162000002003206", "bezeichnung": "Goldnesselweg" }, "geometry": null },
{ "type": "Feature", "properties": { "strassenschluessel": "05162000002003210", "bezeichnung": "Grüner Zierdenweg" }, "geometry": { "type": "Point", "coordinates": [ 6.516343431403227, 51.197808290803479 ] } },
{ "type": "Feature", "properties": { "strassenschluessel": "05162000002003211", "bezeichnung": "Gustav-Heinemann-Straße" }, "geometry": { "type": "Point", "coordinates": [ 6.509201011600379, 51.185026713996209 ] } },
{ "type": "Feature", "properties": { "strassenschluessel": "05162000002003212", "bezeichnung": "Gustav-Stresemann-Straße" }, "geometry": { "type": "Point", "coordinates": [ 6.504089127948238, 51.187107579871537 ] } },
{ "type": "Feature", "properties": { "strassenschluessel": "05162000002003215", "bezeichnung": "Hannengasse" }, "geometry": { "type": "Point", "coordinates": [ 6.512323926206987, 51.190631227702703 ] } },
{ "type": "Feature", "properties": { "strassenschluessel": "05162000002003220", "bezeichnung": "Hannenplatz" }, "geometry": { "type": "Point", "coordinates": [ 6.513076303205763, 51.190757254944799 ] } },
{ "type": "Feature", "properties": { "strassenschluessel": "05162000002003225", "bezeichnung": "Haus-Horst-Straße" }, "geometry": { "type": "Point", "coordinates": [ 6.523842257864798, 51.184871245304848 ] } },
{ "type": "Feature", "properties": { "strassenschluessel": "05162000002003226", "bezeichnung": "Heerstraße" }, "geometry": { "type": "Point", "coordinates": [ 6.509970445066641, 51.198898488670821 ] } },
{ "type": "Feature", "properties": { "strassenschluessel": "05162000002003230", "bezeichnung": "Heinrich-Heine-Straße" }, "geometry": { "type": "Point", "coordinates": [ 6.508165635517719, 51.192328544691577 ] } },
{ "type": "Feature", "properties": { "strassenschluessel": "05162000002003235", "bezeichnung": "Heinrich-Lersch-Straße" }, "geometry": { "type": "Point", "coordinates": [ 6.509688599728634, 51.193050945898435 ] } },
{ "type": "Feature", "properties": { "strassenschluessel": "05162000002003236", "bezeichnung": "Helene-Lange-Straße" }, "geometry": { "type": "Point", "coordinates": [ 6.505733732204861, 51.189976673162441 ] } },
{ "type": "Feature", "properties": { "strassenschluessel": "05162000002003237", "bezeichnung": "Henri-Dunant-Straße" }, "geometry": { "type": "Point", "coordinates": [ 6.507030083656048, 51.187761638474178 ] } },
{ "type": "Feature", "properties": { "strassenschluessel": "05162000002003240", "bezeichnung": "Hermann-Löns-Straße" }, "geometry": { "type": "Point", "coordinates": [ 6.51130068016561, 51.192692127948305 ] } },
{ "type": "Feature", "properties": { "strassenschluessel": "05162000002003245", "bezeichnung": "Herzbroicher Weg" }, "geometry": { "type": "Point", "coordinates": [ 6.511897428303247, 51.213589361204249 ] } },
{ "type": "Feature", "properties": { "strassenschluessel": "05162000002003250", "bezeichnung": "Hindenburgstraße" }, "geometry": { "type": "Point", "coordinates": [ 6.513228879722644, 51.194917380308894 ] } },
{ "type": "Feature", "properties": { "strassenschluessel": "05162000002003251", "bezeichnung": "Holzweg" }, "geometry": { "type": "Point", "coordinates": [ 6.524227567972935, 51.207760871327771 ] } },
{ "type": "Feature", "properties": { "strassenschluessel": "05162000002003252", "bezeichnung": "Industriestraße" }, "geometry": { "type": "Point", "coordinates": [ 6.505986256941881, 51.198531121263677 ] } },
{ "type": "Feature", "properties": { "strassenschluessel": "05162000002003253", "bezeichnung": "Johann-Hövel-Weg" }, "geometry": { "type": "Point", "coordinates": [ 6.510849283646924, 51.191452102633384 ] } },
{ "type": "Feature", "properties": { "strassenschluessel": "05162000002003254", "bezeichnung": "Jane-Addams-Weg" }, "geometry": { "type": "Point", "coordinates": [ 6.50822947209799, 51.188589847706112 ] } },
{ "type": "Feature", "properties": { "strassenschluessel": "05162000002003255", "bezeichnung": "Sebastianusstraße" }, "geometry": { "type": "Point", "coordinates": [ 6.512533117416899, 51.190018094506243 ] } },
{ "type": "Feature", "properties": { "strassenschluessel": "05162000002003256", "bezeichnung": "Johannes-Huppertz-Straße" }, "geometry": { "type": "Point", "coordinates": [ 6.504220164516986, 51.210939348880729 ] } },
{ "type": "Feature", "properties": { "strassenschluessel": "05162000002003260", "bezeichnung": "Hoher Weg" }, "geometry": { "type": "Point", "coordinates": [ 6.510133676738224, 51.186742347283555 ] } },
{ "type": "Feature", "properties": { "strassenschluessel": "05162000002003265", "bezeichnung": "Vogtstraße" }, "geometry": { "type": "Point", "coordinates": [ 6.53051970084242, 51.181581712303647 ] } },
{ "type": "Feature", "properties": { "strassenschluessel": "05162000002003270", "bezeichnung": "Hubertusstraße" }, "geometry": { "type": "Point", "coordinates": [ 6.506612603793919, 51.207584007469151 ] } },
{ "type": "Feature", "properties": { "strassenschluessel": "05162000002003271", "bezeichnung": "Hufeisen" }, "geometry": { "type": "Point", "coordinates": [ 6.524980298099869, 51.208755833889292 ] } },
{ "type": "Feature", "properties": { "strassenschluessel": "05162000002003275", "bezeichnung": "Im Dorffeld" }, "geometry": { "type": "Point", "coordinates": [ 6.511178440505315, 51.196487950836556 ] } },
{ "type": "Feature", "properties": { "strassenschluessel": "05162000002003280", "bezeichnung": "Werner-von-Siemens-Straße" }, "geometry": { "type": "Point", "coordinates": [ 6.511575591726527, 51.195920839707568 ] } },
{ "type": "Feature", "properties": { "strassenschluessel": "05162000002003281", "bezeichnung": "Johann-Georg-Halske-Straße" }, "geometry": { "type": "Point", "coordinates": [ 6.497621550326344, 51.199375303304627 ] } },
{ "type": "Feature", "properties": { "strassenschluessel": "05162000002003282", "bezeichnung": "Willy-Brandt-Straße" }, "geometry": { "type": "Point", "coordinates": [ 6.505545257950347, 51.187754625906386 ] } },
{ "type": "Feature", "properties": { "strassenschluessel": "05162000002003285", "bezeichnung": "Julius-Otto-Straße" }, "geometry": { "type": "Point", "coordinates": [ 6.518350347386384, 51.190641697820709 ] } },
{ "type": "Feature", "properties": { "strassenschluessel": "05162000002003286", "bezeichnung": "Käthe-Kollwitz-Straße" }, "geometry": { "type": "Point", "coordinates": [ 6.506213722396859, 51.18924913930136 ] } },
{ "type": "Feature", "properties": { "strassenschluessel": "05162000002003290", "bezeichnung": "Kirchplatz" }, "geometry": { "type": "Point", "coordinates": [ 6.51318256283508, 51.190312880835904 ] } },
{ "type": "Feature", "properties": { "strassenschluessel": "05162000002003291", "bezeichnung": "Königsberger Straße" }, "geometry": { "type": "Point", "coordinates": [ 6.506938741805145, 51.185510391739655 ] } },
{ "type": "Feature", "properties": { "strassenschluessel": "05162000002003292", "bezeichnung": "Kriegersweg" }, "geometry": { "type": "Point", "coordinates": [ 6.545074386697069, 51.194215053526257 ] } },
{ "type": "Feature", "properties": { "strassenschluessel": "05162000002003295", "bezeichnung": "An der Kapelle" }, "geometry": { "type": "Point", "coordinates": [ 6.529577588677669, 51.184265606871712 ] } },
{ "type": "Feature", "properties": { "strassenschluessel": "05162000002003300", "bezeichnung": "Kleinenbroicher Straße" }, "geometry": { "type": "Point", "coordinates": [ 6.534980926233008, 51.187903205240289 ] } },
{ "type": "Feature", "properties": { "strassenschluessel": "05162000002003301", "bezeichnung": "Am Kamberg" }, "geometry": { "type": "Point", "coordinates": [ 6.533671701804733, 51.188263123310939 ] } },
{ "type": "Feature", "properties": { "strassenschluessel": "05162000002003315", "bezeichnung": "Krünsend" }, "geometry": { "type": "Point", "coordinates": [ 6.483771763730416, 51.174614228588915 ] } },
{ "type": "Feature", "properties": { "strassenschluessel": "05162000002003320", "bezeichnung": "Am Bahnhof" }, "geometry": { "type": "Point", "coordinates": [ 6.506334122770123, 51.195920992217502 ] } },
{ "type": "Feature", "properties": { "strassenschluessel": "05162000002003325", "bezeichnung": "Lichtstraße" }, "geometry": { "type": "Point", "coordinates": [ 6.533886539448888, 51.194000817076855 ] } },
{ "type": "Feature", "properties": { "strassenschluessel": "05162000002003330", "bezeichnung": "Liedberger Straße" }, "geometry": { "type": "Point", "coordinates": [ 6.531362295076806, 51.181570534666442 ] } },
{ "type": "Feature", "properties": { "strassenschluessel": "05162000002003335", "bezeichnung": "Lievensteg" }, "geometry": { "type": "Point", "coordinates": [ 6.510143272588673, 51.208057301685727 ] } },
{ "type": "Feature", "properties": { "strassenschluessel": "05162000002003336", "bezeichnung": "Luise-Hensel-Straße" }, "geometry": { "type": "Point", "coordinates": [ 6.50721000313407, 51.188901357025152 ] } },
{ "type": "Feature", "properties": { "strassenschluessel": "05162000002003337", "bezeichnung": "Martin-Luther-King-Straße" }, "geometry": { "type": "Point", "coordinates": [ 6.506321999711808, 51.187396186828977 ] } },
{ "type": "Feature", "properties": { "strassenschluessel": "05162000002003338", "bezeichnung": "Maria-Merian-Straße" }, "geometry": { "type": "Point", "coordinates": [ 6.502657606151751, 51.187657382742557 ] } },
{ "type": "Feature", "properties": { "strassenschluessel": "05162000002003340", "bezeichnung": "Neusser Straße" }, "geometry": { "type": "Point", "coordinates": [ 6.526090692084798, 51.196184557312741 ] } },
{ "type": "Feature", "properties": { "strassenschluessel": "05162000002003345", "bezeichnung": "Marienkirchstraße" }, "geometry": { "type": "Point", "coordinates": [ 6.529088650349979, 51.184939359806393 ] } },
{ "type": "Feature", "properties": { "strassenschluessel": "05162000002003350", "bezeichnung": "Matthias-Claudius-Straße" }, "geometry": { "type": "Point", "coordinates": [ 6.509089746551227, 51.192579802008019 ] } },
{ "type": "Feature", "properties": { "strassenschluessel": "05162000002003351", "bezeichnung": "Matthias-Hoeren-Platz" }, "geometry": { "type": "Point", "coordinates": [ 6.509279417081606, 51.189136118345509 ] } },
{ "type": "Feature", "properties": { "strassenschluessel": "05162000002003355", "bezeichnung": "Meutersweg" }, "geometry": { "type": "Point", "coordinates": [ 6.500528233559096, 51.185395574782568 ] } },
{ "type": "Feature", "properties": { "strassenschluessel": "05162000002003356", "bezeichnung": "Mistelweg" }, "geometry": { "type": "Point", "coordinates": [ 6.500392113177395, 51.190524178240224 ] } },
{ "type": "Feature", "properties": { "strassenschluessel": "05162000002003360", "bezeichnung": "Mörikestraße" }, "geometry": { "type": "Point", "coordinates": [ 6.510644469102022, 51.20678507567694 ] } },
{ "type": "Feature", "properties": { "strassenschluessel": "05162000002003365", "bezeichnung": "Mühlenstraße" }, "geometry": { "type": "Point", "coordinates": [ 6.501363736663373, 51.195239567274704 ] } },
{ "type": "Feature", "properties": { "strassenschluessel": "05162000002003370", "bezeichnung": "Mühlenweg" }, "geometry": { "type": "Point", "coordinates": [ 6.545128448284161, 51.191515686532782 ] } },
{ "type": "Feature", "properties": { "strassenschluessel": "05162000002003371", "bezeichnung": "Mutter-Teresa-Straße" }, "geometry": { "type": "Point", "coordinates": [ 6.504342435775206, 51.187912574026811 ] } },
{ "type": "Feature", "properties": { "strassenschluessel": "05162000002003375", "bezeichnung": "Myllendonker Straße" }, "geometry": { "type": "Point", "coordinates": [ 6.507605714474523, 51.206204224974343 ] } },
{ "type": "Feature", "properties": { "strassenschluessel": "05162000002003380", "bezeichnung": "Neersener Weg" }, "geometry": { "type": "Point", "coordinates": [ 6.498653146398508, 51.225848741441126 ] } },
{ "type": "Feature", "properties": { "strassenschluessel": "05162000002003385", "bezeichnung": "Dahlienweg" }, "geometry": { "type": "Point", "coordinates": [ 6.50225830717759, 51.210301766754043 ] } },
{ "type": "Feature", "properties": { "strassenschluessel": "05162000002003390", "bezeichnung": "Neusser Straße" }, "geometry": { "type": "Point", "coordinates": [ 6.540545915986368, 51.196330619079369 ] } },
{ "type": "Feature", "properties": { "strassenschluessel": "05162000002003400", "bezeichnung": "Neustadt" }, "geometry": { "type": "Point", "coordinates": [ 6.48986536095761, 51.179368331143067 ] } },
{ "type": "Feature", "properties": { "strassenschluessel": "05162000002003401", "bezeichnung": "Nöhlenweg" }, "geometry": { "type": "Point", "coordinates": [ 6.525907360579913, 51.207094088000531 ] } },
{ "type": "Feature", "properties": { "strassenschluessel": "05162000002003405", "bezeichnung": "Robert-Bosch-Straße" }, "geometry": { "type": "Point", "coordinates": [ 6.506972154164164, 51.19361091860992 ] } },
{ "type": "Feature", "properties": { "strassenschluessel": "05162000002003410", "bezeichnung": "Pappelweg" }, "geometry": { "type": "Point", "coordinates": [ 6.518501236161557, 51.186971772455152 ] } },
{ "type": "Feature", "properties": { "strassenschluessel": "05162000002003411", "bezeichnung": "Pastoratsstraße" }, "geometry": { "type": "Point", "coordinates": [ 6.525791207357895, 51.213342451860626 ] } },
{ "type": "Feature", "properties": { "strassenschluessel": "05162000002003412", "bezeichnung": "Paul-Klee-Straße" }, "geometry": { "type": "Point", "coordinates": [ 6.501928597761288, 51.188346394923151 ] } },
{ "type": "Feature", "properties": { "strassenschluessel": "05162000002003415", "bezeichnung": "Pescher Straße" }, "geometry": { "type": "Point", "coordinates": [ 6.51649282003956, 51.190599923948874 ] } },
{ "type": "Feature", "properties": { "strassenschluessel": "05162000002003416", "bezeichnung": "Pescher Straße" }, "geometry": { "type": "Point", "coordinates": [ 6.520726161552345, 51.187723621070177 ] } },
{ "type": "Feature", "properties": { "strassenschluessel": "05162000002003420", "bezeichnung": "Peter-Gens-Straße" }, "geometry": { "type": "Point", "coordinates": [ 6.537130187331878, 51.179415065290776 ] } },
{ "type": "Feature", "properties": { "strassenschluessel": "05162000002003425", "bezeichnung": "Peter-Irmen-Straße" }, "geometry": { "type": "Point", "coordinates": [ 6.518877861730317, 51.190292969337236 ] } },
{ "type": "Feature", "properties": { "strassenschluessel": "05162000002003426", "bezeichnung": "Pfarrer-Spülbeck-Straße" }, "geometry": { "type": "Point", "coordinates": [ 6.508610391360175, 51.209072557463656 ] } },
{ "type": "Feature", "properties": { "strassenschluessel": "05162000002003430", "bezeichnung": "Raderbroich" }, "geometry": { "type": "Point", "coordinates": [ 6.532574260710609, 51.20400501932675 ] } },
{ "type": "Feature", "properties": { "strassenschluessel": "05162000002003435", "bezeichnung": "Regentenstraße" }, "geometry": { "type": "Point", "coordinates": [ 6.519964386992849, 51.193087439813993 ] } },
{ "type": "Feature", "properties": { "strassenschluessel": "05162000002003436", "bezeichnung": "Rigoberta-Menchu-Straße" }, "geometry": { "type": "Point", "coordinates": [ 6.505377466263852, 51.187986690057627 ] } },
{ "type": "Feature", "properties": { "strassenschluessel": "05162000002003440", "bezeichnung": "Rheydter Straße" }, "geometry": { "type": "Point", "coordinates": [ 6.502322190050066, 51.184834464087274 ] } },
{ "type": "Feature", "properties": { "strassenschluessel": "05162000002003445", "bezeichnung": "Rochusstraße" }, "geometry": { "type": "Point", "coordinates": [ 6.512273175170426, 51.194572189329548 ] } },
{ "type": "Feature", "properties": { "strassenschluessel": "05162000002003450", "bezeichnung": "Rosenweg" }, "geometry": { "type": "Point", "coordinates": [ 6.504478756895158, 51.208004663235322 ] } },
{ "type": "Feature", "properties": { "strassenschluessel": "05162000002003451", "bezeichnung": "Rubensweg" }, "geometry": { "type": "Point", "coordinates": [ 6.502678952208619, 51.188035705069005 ] } },
{ "type": "Feature", "properties": { "strassenschluessel": "05162000002003455", "bezeichnung": "Schaffenbergstraße" }, "geometry": { "type": "Point", "coordinates": [ 6.503904460114439, 51.211628549525976 ] } },
{ "type": "Feature", "properties": { "strassenschluessel": "05162000002003460", "bezeichnung": "Willicher Straße" }, "geometry": { "type": "Point", "coordinates": [ 6.516765510351008, 51.215832201598573 ] } },
{ "type": "Feature", "properties": { "strassenschluessel": "05162000002003461", "bezeichnung": "Schilfrohrweg" }, "geometry": null },
{ "type": "Feature", "properties": { "strassenschluessel": "05162000002003465", "bezeichnung": "Schillerstraße" }, "geometry": { "type": "Point", "coordinates": [ 6.517051046514974, 51.193784370183423 ] } },
{ "type": "Feature", "properties": { "strassenschluessel": "05162000002003470", "bezeichnung": "Herrenshoffer Straße" }, "geometry": { "type": "Point", "coordinates": [ 6.511295711768163, 51.198036166457662 ] } },
{ "type": "Feature", "properties": { "strassenschluessel": "05162000002003475", "bezeichnung": "Schlömerweg" }, "geometry": { "type": "Point", "coordinates": [ 6.504785473262381, 51.207770464935791 ] } },
{ "type": "Feature", "properties": { "strassenschluessel": "05162000002003480", "bezeichnung": "Schöpperweg" }, "geometry": { "type": "Point", "coordinates": [ 6.501078602916431, 51.221547257663218 ] } },
{ "type": "Feature", "properties": { "strassenschluessel": "05162000002003485", "bezeichnung": "Zalfenstraße" }, "geometry": { "type": "Point", "coordinates": [ 6.529170030798649, 51.186879646188054 ] } },
{ "type": "Feature", "properties": { "strassenschluessel": "05162000002003490", "bezeichnung": "St.-Andreas-Straße" }, "geometry": { "type": "Point", "coordinates": [ 6.519433133432313, 51.19102223758275 ] } },
{ "type": "Feature", "properties": { "strassenschluessel": "05162000002003500", "bezeichnung": "Steinstraße" }, "geometry": { "type": "Point", "coordinates": [ 6.515214731698332, 51.190662443206968 ] } },
{ "type": "Feature", "properties": { "strassenschluessel": "05162000002003501", "bezeichnung": "Therese-von-Wüllenweber-Platz" }, "geometry": { "type": "Point", "coordinates": [ 6.511928047421472, 51.191566781430041 ] } },
{ "type": "Feature", "properties": { "strassenschluessel": "05162000002003505", "bezeichnung": "Tulpenweg" }, "geometry": { "type": "Point", "coordinates": [ 6.503486100245852, 51.208396707473476 ] } },
{ "type": "Feature", "properties": { "strassenschluessel": "05162000002003510", "bezeichnung": "Von-Bodelschwingh-Straße" }, "geometry": { "type": "Point", "coordinates": [ 6.515263215236085, 51.188957092865436 ] } },
{ "type": "Feature", "properties": { "strassenschluessel": "05162000002003515", "bezeichnung": "Von-Galen-Straße" }, "geometry": { "type": "Point", "coordinates": [ 6.508125895881768, 51.186886779847796 ] } },
{ "type": "Feature", "properties": { "strassenschluessel": "05162000002003516", "bezeichnung": "Von-Kleist-Straße" }, "geometry": { "type": "Point", "coordinates": [ 6.508818997932162, 51.20669875313223 ] } },
{ "type": "Feature", "properties": { "strassenschluessel": "05162000002003517", "bezeichnung": "Waldmeisterweg" }, "geometry": { "type": "Point", "coordinates": [ 6.50210257038997, 51.189522052220589 ] } },
{ "type": "Feature", "properties": { "strassenschluessel": "05162000002003520", "bezeichnung": "Josef-Thelen-Straße" }, "geometry": { "type": "Point", "coordinates": [ 6.518987103102275, 51.193700337274777 ] } },
{ "type": "Feature", "properties": { "strassenschluessel": "05162000002003525", "bezeichnung": "Veilchenweg" }, "geometry": { "type": "Point", "coordinates": [ 6.502335250587236, 51.210117242995793 ] } },
{ "type": "Feature", "properties": { "strassenschluessel": "05162000002003530", "bezeichnung": "Waldstraße" }, "geometry": { "type": "Point", "coordinates": [ 6.530037208638625, 51.185829425568855 ] } },
{ "type": "Feature", "properties": { "strassenschluessel": "05162000002003535", "bezeichnung": "Weißer Weg" }, "geometry": { "type": "Point", "coordinates": [ 6.539192615707652, 51.181430043387401 ] } },
{ "type": "Feature", "properties": { "strassenschluessel": "05162000002003540", "bezeichnung": "Wiesenweg" }, "geometry": { "type": "Point", "coordinates": [ 6.528164918530948, 51.183921394385884 ] } },
{ "type": "Feature", "properties": { "strassenschluessel": "05162000002003545", "bezeichnung": "Willi-Hannen-Straße" }, "geometry": { "type": "Point", "coordinates": [ 6.508396212470133, 51.191340706596456 ] } },
{ "type": "Feature", "properties": { "strassenschluessel": "05162000002003555", "bezeichnung": "Zollhausstraße" }, "geometry": { "type": "Point", "coordinates": [ 6.499520337645505, 51.203745407501621 ] } },
{ "type": "Feature", "properties": { "strassenschluessel": "05162000002009849", "bezeichnung": "Am Breitacker" }, "geometry": { "type": "Point", "coordinates": [ 6.580965071903579, 51.193840206497313 ] } },
{ "type": "Feature", "properties": { "strassenschluessel": "05162000002009850", "bezeichnung": "Am Herrenshoff" }, "geometry": { "type": "Point", "coordinates": [ 6.508382120774105, 51.212003866545231 ] } },
{ "type": "Feature", "properties": { "strassenschluessel": "05162000002009863", "bezeichnung": "L 382" }, "geometry": null },
{ "type": "Feature", "properties": { "strassenschluessel": "05162000002009864", "bezeichnung": "Zw d Taubenschl. u. Pferdestr." }, "geometry": null },
{ "type": "Feature", "properties": { "strassenschluessel": "05162000002009865", "bezeichnung": "Am Kommerbach" }, "geometry": null },
{ "type": "Feature", "properties": { "strassenschluessel": "05162000002009866", "bezeichnung": "Am Wasserwege" }, "geometry": null },
{ "type": "Feature", "properties": { "strassenschluessel": "05162000002009867", "bezeichnung": "Neersbenden" }, "geometry": null },
{ "type": "Feature", "properties": { "strassenschluessel": "05162000002009868", "bezeichnung": "Am Wynespfad" }, "geometry": null },
{ "type": "Feature", "properties": { "strassenschluessel": "05162000002009869", "bezeichnung": "Laakbenden" }, "geometry": { "type": "Point", "coordinates": [ 6.495239691164732, 51.196721932769435 ] } },
{ "type": "Feature", "properties": { "strassenschluessel": "05162000002009870", "bezeichnung": "Steinhausen" }, "geometry": null },
{ "type": "Feature", "properties": { "strassenschluessel": "05162000002009871", "bezeichnung": "Am Haag" }, "geometry": { "type": "Point", "coordinates": [ 6.538813660365693, 51.163760283443096 ] } },
{ "type": "Feature", "properties": { "strassenschluessel": "05162000002009872", "bezeichnung": "Hoppbruch" }, "geometry": null },
{ "type": "Feature", "properties": { "strassenschluessel": "05162000002009873", "bezeichnung": "Schanzer Weide" }, "geometry": null },
{ "type": "Feature", "properties": { "strassenschluessel": "05162000002009874", "bezeichnung": "Teschenbenden" }, "geometry": null },
{ "type": "Feature", "properties": { "strassenschluessel": "05162000002009875", "bezeichnung": "Am Blauen Stein" }, "geometry": { "type": "Point", "coordinates": [ 6.610228203459062, 51.149311377421078 ] } },
{ "type": "Feature", "properties": { "strassenschluessel": "05162000002009877", "bezeichnung": "Schelsener Weg" }, "geometry": { "type": "Point", "coordinates": [ 6.535555657964966, 51.163511916346962 ] } },
{ "type": "Feature", "properties": { "strassenschluessel": "05162000002009878", "bezeichnung": "Im Radebroicher Feld" }, "geometry": { "type": "Point", "coordinates": [ 6.512715508485181, 51.201044999096894 ] } },
{ "type": "Feature", "properties": { "strassenschluessel": "05162000002009879", "bezeichnung": "Radebroicher Benden" }, "geometry": { "type": "Point", "coordinates": [ 6.524293122430639, 51.215784587468491 ] } },
{ "type": "Feature", "properties": { "strassenschluessel": "05162000002009880", "bezeichnung": "Am Kirchenpfad" }, "geometry": null },
{ "type": "Feature", "properties": { "strassenschluessel": "05162000002009881", "bezeichnung": "Am Glehner Wege" }, "geometry": { "type": "Point", "coordinates": [ 6.571981060193226, 51.181110943343029 ] } },
{ "type": "Feature", "properties": { "strassenschluessel": "05162000002009884", "bezeichnung": "Auf dem Kamp" }, "geometry": { "type": "Point", "coordinates": [ 6.548003036421849, 51.149122535430507 ] } },
{ "type": "Feature", "properties": { "strassenschluessel": "05162000002009886", "bezeichnung": "An der Klippertzmühle" }, "geometry": { "type": "Point", "coordinates": [ 6.496794977120656, 51.195948569123026 ] } },
{ "type": "Feature", "properties": { "strassenschluessel": "05162000002009887", "bezeichnung": "Am Neusser Wege" }, "geometry": { "type": "Point", "coordinates": [ 6.512908631190758, 51.205816934575772 ] } },
{ "type": "Feature", "properties": { "strassenschluessel": "05162000002009888", "bezeichnung": "Pferdsbroich" }, "geometry": null },
{ "type": "Feature", "properties": { "strassenschluessel": "05162000002009889", "bezeichnung": "Am Rüttenwege" }, "geometry": { "type": "Point", "coordinates": [ 6.569950116650984, 51.193499862706865 ] } },
{ "type": "Feature", "properties": { "strassenschluessel": "05162000002009891", "bezeichnung": "In der Düpp" }, "geometry": { "type": "Point", "coordinates": [ 6.569299636039133, 51.21150377638341 ] } },
{ "type": "Feature", "properties": { "strassenschluessel": "05162000002009892", "bezeichnung": "Im Werret" }, "geometry": null },
{ "type": "Feature", "properties": { "strassenschluessel": "05162000002009894", "bezeichnung": "Hasseldamm" }, "geometry": { "type": "Point", "coordinates": [ 6.548346601934792, 51.211962569188863 ] } },
{ "type": "Feature", "properties": { "strassenschluessel": "05162000002009895", "bezeichnung": "Peschblech" }, "geometry": { "type": "Point", "coordinates": [ 6.51872332670522, 51.184624451391194 ] } },
{ "type": "Feature", "properties": { "strassenschluessel": "05162000002009897", "bezeichnung": "An der Kivitt" }, "geometry": { "type": "Point", "coordinates": [ 6.596009649825696, 51.181539300451071 ] } }
]
}
