{
"type": "FeatureCollection",
"features": [
{ "type": "Feature", "properties": { "strassenschluessel": "05114000000016466", "bezeichnung": "Stock" }, "geometry": null },
{ "type": "Feature", "properties": { "strassenschluessel": "05114000000070001", "bezeichnung": "Ackerstraße" }, "geometry": { "type": "Point", "coordinates": [ 6.614698179916754, 51.325364427413319 ] } },
{ "type": "Feature", "properties": { "strassenschluessel": "05114000000070002", "bezeichnung": "Adlerstraße" }, "geometry": { "type": "Point", "coordinates": [ 6.552610192737866, 51.323862742054807 ] } },
{ "type": "Feature", "properties": { "strassenschluessel": "05114000000070003", "bezeichnung": "Adolfstraße" }, "geometry": { "type": "Point", "coordinates": [ 6.552952005394174, 51.342252687466086 ] } },
{ "type": "Feature", "properties": { "strassenschluessel": "05114000000070004", "bezeichnung": "Ahornstraße" }, "geometry": { "type": "Point", "coordinates": [ 6.642190529753683, 51.365656584571404 ] } },
{ "type": "Feature", "properties": { "strassenschluessel": "05114000000070005", "bezeichnung": "Akazienstraße" }, "geometry": { "type": "Point", "coordinates": [ 6.612370255832476, 51.364185796371146 ] } },
{ "type": "Feature", "properties": { "strassenschluessel": "05114000000070006", "bezeichnung": "Albert-Schweitzer-Straße" }, "geometry": { "type": "Point", "coordinates": [ 6.628263666318715, 51.363470455467308 ] } },
{ "type": "Feature", "properties": { "strassenschluessel": "05114000000070007", "bezeichnung": "Albert-Steeger-Straße" }, "geometry": { "type": "Point", "coordinates": [ 6.63716521638584, 51.334569972096972 ] } },
{ "type": "Feature", "properties": { "strassenschluessel": "05114000000070008", "bezeichnung": "Albrechtplatz" }, "geometry": { "type": "Point", "coordinates": [ 6.571233186101259, 51.329176201678351 ] } },
{ "type": "Feature", "properties": { "strassenschluessel": "05114000000070009", "bezeichnung": "Aldekerker Straße" }, "geometry": { "type": "Point", "coordinates": [ 6.531068470273085, 51.324205252033522 ] } },
{ "type": "Feature", "properties": { "strassenschluessel": "05114000000070010", "bezeichnung": "Alexanderplatz" }, "geometry": { "type": "Point", "coordinates": [ 6.562338963277356, 51.324834253414025 ] } },
{ "type": "Feature", "properties": { "strassenschluessel": "05114000000070011", "bezeichnung": "Alexanderstraße" }, "geometry": { "type": "Point", "coordinates": [ 6.562456692238174, 51.324681742120845 ] } },
{ "type": "Feature", "properties": { "strassenschluessel": "05114000000070012", "bezeichnung": "Alte Friedhofstraße" }, "geometry": { "type": "Point", "coordinates": [ 6.651977487467849, 51.366104246070506 ] } },
{ "type": "Feature", "properties": { "strassenschluessel": "05114000000070013", "bezeichnung": "Alte Gladbacher Straße" }, "geometry": { "type": "Point", "coordinates": [ 6.552206403907503, 51.321510139012325 ] } },
{ "type": "Feature", "properties": { "strassenschluessel": "05114000000070014", "bezeichnung": "Alte Linner Straße" }, "geometry": { "type": "Point", "coordinates": [ 6.569234490986196, 51.331641629653625 ] } },
{ "type": "Feature", "properties": { "strassenschluessel": "05114000000070015", "bezeichnung": "Alte Neusser Straße" }, "geometry": { "type": "Point", "coordinates": [ 6.594574048011107, 51.294866128022456 ] } },
{ "type": "Feature", "properties": { "strassenschluessel": "05114000000070016", "bezeichnung": "Alt-Grundend" }, "geometry": { "type": "Point", "coordinates": [ 6.614668997849691, 51.294035522899598 ] } },
{ "type": "Feature", "properties": { "strassenschluessel": "05114000000070017", "bezeichnung": "Am Baackeshof" }, "geometry": { "type": "Point", "coordinates": [ 6.546574441484636, 51.324233781717034 ] } },
{ "type": "Feature", "properties": { "strassenschluessel": "05114000000070018", "bezeichnung": "Am Badezentrum" }, "geometry": { "type": "Point", "coordinates": [ 6.614864545125381, 51.353994416613226 ] } },
{ "type": "Feature", "properties": { "strassenschluessel": "05114000000070019", "bezeichnung": "Am Bahnhofsplatz" }, "geometry": { "type": "Point", "coordinates": [ 6.647827969790726, 51.357279107400871 ] } },
{ "type": "Feature", "properties": { "strassenschluessel": "05114000000070020", "bezeichnung": "Am Dorfgraben" }, "geometry": { "type": "Point", "coordinates": [ 6.620317441562503, 51.320537472453964 ] } },
{ "type": "Feature", "properties": { "strassenschluessel": "05114000000070021", "bezeichnung": "Am Dreifaltigkeitskloster" }, "geometry": { "type": "Point", "coordinates": [ 6.5756962208616, 51.315440750029431 ] } },
{ "type": "Feature", "properties": { "strassenschluessel": "05114000000070022", "bezeichnung": "Am Egelsberg" }, "geometry": { "type": "Point", "coordinates": [ 6.596109172269971, 51.388667023196092 ] } },
{ "type": "Feature", "properties": { "strassenschluessel": "05114000000070023", "bezeichnung": "Am Eisstadion" }, "geometry": { "type": "Point", "coordinates": [ 6.542473801044321, 51.339078935465587 ] } },
{ "type": "Feature", "properties": { "strassenschluessel": "05114000000070024", "bezeichnung": "Am Feierabend" }, "geometry": { "type": "Point", "coordinates": [ 6.536706371279403, 51.321540816924859 ] } },
{ "type": "Feature", "properties": { "strassenschluessel": "05114000000070025", "bezeichnung": "Am Fischerhof" }, "geometry": { "type": "Point", "coordinates": [ 6.591476814381074, 51.294822504610416 ] } },
{ "type": "Feature", "properties": { "strassenschluessel": "05114000000070026", "bezeichnung": "Am Flohbusch" }, "geometry": { "type": "Point", "coordinates": [ 6.573312419205131, 51.358777305231833 ] } },
{ "type": "Feature", "properties": { "strassenschluessel": "05114000000070027", "bezeichnung": "Am Friedhof" }, "geometry": { "type": "Point", "coordinates": [ 6.595064422138522, 51.299207386409911 ] } },
{ "type": "Feature", "properties": { "strassenschluessel": "05114000000070028", "bezeichnung": "Am Gobbershof" }, "geometry": { "type": "Point", "coordinates": [ 6.516497855402604, 51.322911011819784 ] } },
{ "type": "Feature", "properties": { "strassenschluessel": "05114000000070029", "bezeichnung": "Am Hafenkopf" }, "geometry": { "type": "Point", "coordinates": [ 6.65991054701467, 51.34725350862891 ] } },
{ "type": "Feature", "properties": { "strassenschluessel": "05114000000070030", "bezeichnung": "Am Hauptbahnhof" }, "geometry": { "type": "Point", "coordinates": [ 6.570408593173514, 51.326529828235152 ] } },
{ "type": "Feature", "properties": { "strassenschluessel": "05114000000070031", "bezeichnung": "Am Heckerhof" }, "geometry": { "type": "Point", "coordinates": [ 6.601391891673591, 51.351502760115174 ] } },
{ "type": "Feature", "properties": { "strassenschluessel": "05114000000070032", "bezeichnung": "Am Heesbusch" }, "geometry": { "type": "Point", "coordinates": [ 6.649657584343371, 51.372525181389314 ] } },
{ "type": "Feature", "properties": { "strassenschluessel": "05114000000070033", "bezeichnung": "Am Hirschsprung" }, "geometry": { "type": "Point", "coordinates": [ 6.622918897091495, 51.334995970547425 ] } },
{ "type": "Feature", "properties": { "strassenschluessel": "05114000000070035", "bezeichnung": "Am Holzbruch" }, "geometry": { "type": "Point", "coordinates": [ 6.580583759352625, 51.36246399609211 ] } },
{ "type": "Feature", "properties": { "strassenschluessel": "05114000000070036", "bezeichnung": "Am Hohen Haus" }, "geometry": { "type": "Point", "coordinates": [ 6.574523082976388, 51.337235228849089 ] } },
{ "type": "Feature", "properties": { "strassenschluessel": "05114000000070038", "bezeichnung": "Am Kalvarienberg" }, "geometry": { "type": "Point", "coordinates": [ 6.639180176334516, 51.336974170249668 ] } },
{ "type": "Feature", "properties": { "strassenschluessel": "05114000000070039", "bezeichnung": "Am Kapuzinerkloster" }, "geometry": { "type": "Point", "coordinates": [ 6.52982180797464, 51.355661244903978 ] } },
{ "type": "Feature", "properties": { "strassenschluessel": "05114000000070040", "bezeichnung": "Am Kiesenrott" }, "geometry": { "type": "Point", "coordinates": [ 6.587309402012604, 51.374357625183883 ] } },
{ "type": "Feature", "properties": { "strassenschluessel": "05114000000070041", "bezeichnung": "Am Kinderhort" }, "geometry": { "type": "Point", "coordinates": [ 6.534745747146905, 51.319349092626602 ] } },
{ "type": "Feature", "properties": { "strassenschluessel": "05114000000070042", "bezeichnung": "Am Königshof" }, "geometry": { "type": "Point", "coordinates": [ 6.580934709103317, 51.316120535476742 ] } },
{ "type": "Feature", "properties": { "strassenschluessel": "05114000000070043", "bezeichnung": "Am Konnertzfeld" }, "geometry": { "type": "Point", "coordinates": [ 6.531386080338956, 51.318734746301743 ] } },
{ "type": "Feature", "properties": { "strassenschluessel": "05114000000070044", "bezeichnung": "Am Kreuz" }, "geometry": null },
{ "type": "Feature", "properties": { "strassenschluessel": "05114000000070045", "bezeichnung": "Am Lindenplatz" }, "geometry": { "type": "Point", "coordinates": [ 6.636760340906794, 51.355542890270037 ] } },
{ "type": "Feature", "properties": { "strassenschluessel": "05114000000070046", "bezeichnung": "Am Marktplatz" }, "geometry": { "type": "Point", "coordinates": [ 6.649923441039731, 51.353764180622235 ] } },
{ "type": "Feature", "properties": { "strassenschluessel": "05114000000070047", "bezeichnung": "Am Neuerhof" }, "geometry": { "type": "Point", "coordinates": [ 6.541709548302714, 51.326658421767881 ] } },
{ "type": "Feature", "properties": { "strassenschluessel": "05114000000070048", "bezeichnung": "Am Oberfeld" }, "geometry": { "type": "Point", "coordinates": [ 6.649376411686696, 51.350108915265245 ] } },
{ "type": "Feature", "properties": { "strassenschluessel": "05114000000070049", "bezeichnung": "Am Obertor" }, "geometry": { "type": "Point", "coordinates": [ 6.649948433392323, 51.351237404502228 ] } },
{ "type": "Feature", "properties": { "strassenschluessel": "05114000000070050", "bezeichnung": "Am Ostbahnhof" }, "geometry": { "type": "Point", "coordinates": [ 6.584396284650206, 51.331658807200043 ] } },
{ "type": "Feature", "properties": { "strassenschluessel": "05114000000070051", "bezeichnung": "Am Plänksken" }, "geometry": { "type": "Point", "coordinates": [ 6.647255397032485, 51.344492795973061 ] } },
{ "type": "Feature", "properties": { "strassenschluessel": "05114000000070052", "bezeichnung": "Grafschaftsweg" }, "geometry": { "type": "Point", "coordinates": [ 6.574330878036752, 51.347386560281784 ] } },
{ "type": "Feature", "properties": { "strassenschluessel": "05114000000070053", "bezeichnung": "Am Rheinhorst" }, "geometry": { "type": "Point", "coordinates": [ 6.652199348486563, 51.351172683765938 ] } },
{ "type": "Feature", "properties": { "strassenschluessel": "05114000000070054", "bezeichnung": "Am Rheintor" }, "geometry": { "type": "Point", "coordinates": [ 6.651673665521985, 51.353873185727956 ] } },
{ "type": "Feature", "properties": { "strassenschluessel": "05114000000070055", "bezeichnung": "Am Riddershof" }, "geometry": { "type": "Point", "coordinates": [ 6.583168213685031, 51.326155976202067 ] } },
{ "type": "Feature", "properties": { "strassenschluessel": "05114000000070056", "bezeichnung": "Am Röttgen" }, "geometry": { "type": "Point", "coordinates": [ 6.645026537191801, 51.353947064541522 ] } },
{ "type": "Feature", "properties": { "strassenschluessel": "05114000000070057", "bezeichnung": "Am Saxhof" }, "geometry": { "type": "Point", "coordinates": [ 6.562892104680435, 51.312182640383206 ] } },
{ "type": "Feature", "properties": { "strassenschluessel": "05114000000070058", "bezeichnung": "Am Schicksbaum" }, "geometry": { "type": "Point", "coordinates": [ 6.525174506291813, 51.330941249191405 ] } },
{ "type": "Feature", "properties": { "strassenschluessel": "05114000000070059", "bezeichnung": "Am Schwarzkamp" }, "geometry": { "type": "Point", "coordinates": [ 6.594820926523449, 51.374369639091881 ] } },
{ "type": "Feature", "properties": { "strassenschluessel": "05114000000070060", "bezeichnung": "Amselweg" }, "geometry": { "type": "Point", "coordinates": [ 6.496518684922453, 51.29980914886854 ] } },
{ "type": "Feature", "properties": { "strassenschluessel": "05114000000070061", "bezeichnung": "Am Sonnenhof" }, "geometry": { "type": "Point", "coordinates": [ 6.608942849610615, 51.341213178590692 ] } },
{ "type": "Feature", "properties": { "strassenschluessel": "05114000000070062", "bezeichnung": "Am Steinacker" }, "geometry": { "type": "Point", "coordinates": [ 6.647558033892885, 51.339486150267042 ] } },
{ "type": "Feature", "properties": { "strassenschluessel": "05114000000070063", "bezeichnung": "Am Stockerhof" }, "geometry": { "type": "Point", "coordinates": [ 6.617844906726486, 51.323530309958223 ] } },
{ "type": "Feature", "properties": { "strassenschluessel": "05114000000070064", "bezeichnung": "Am Stöcksken" }, "geometry": { "type": "Point", "coordinates": [ 6.645074732357987, 51.337607335957628 ] } },
{ "type": "Feature", "properties": { "strassenschluessel": "05114000000070065", "bezeichnung": "Am Vaterhaus" }, "geometry": { "type": "Point", "coordinates": [ 6.568408061681393, 51.312886827653351 ] } },
{ "type": "Feature", "properties": { "strassenschluessel": "05114000000070066", "bezeichnung": "Am Verschubbahnhof" }, "geometry": { "type": "Point", "coordinates": [ 6.592311463451011, 51.330152551557617 ] } },
{ "type": "Feature", "properties": { "strassenschluessel": "05114000000070067", "bezeichnung": "Am Waldwinkel" }, "geometry": { "type": "Point", "coordinates": [ 6.53796096883956, 51.4002397610844 ] } },
{ "type": "Feature", "properties": { "strassenschluessel": "05114000000070068", "bezeichnung": "Am Wallgarten" }, "geometry": { "type": "Point", "coordinates": [ 6.64826116595892, 51.35126518009826 ] } },
{ "type": "Feature", "properties": { "strassenschluessel": "05114000000070069", "bezeichnung": "Am Wiesenhof" }, "geometry": { "type": "Point", "coordinates": [ 6.568533469052292, 51.370017644740187 ] } },
{ "type": "Feature", "properties": { "strassenschluessel": "05114000000070070", "bezeichnung": "Am Zollhof" }, "geometry": { "type": "Point", "coordinates": [ 6.651268031366237, 51.356546404819113 ] } },
{ "type": "Feature", "properties": { "strassenschluessel": "05114000000070071", "bezeichnung": "An Bruckhausen" }, "geometry": { "type": "Point", "coordinates": [ 6.587082192591462, 51.380665846083232 ] } },
{ "type": "Feature", "properties": { "strassenschluessel": "05114000000070072", "bezeichnung": "An de Plank" }, "geometry": { "type": "Point", "coordinates": [ 6.53296173385964, 51.315948165865429 ] } },
{ "type": "Feature", "properties": { "strassenschluessel": "05114000000070073", "bezeichnung": "An de Welt" }, "geometry": { "type": "Point", "coordinates": [ 6.581613557528025, 51.301745171793421 ] } },
{ "type": "Feature", "properties": { "strassenschluessel": "05114000000070074", "bezeichnung": "An der Alten Kirche" }, "geometry": { "type": "Point", "coordinates": [ 6.561879071162841, 51.33101713144567 ] } },
{ "type": "Feature", "properties": { "strassenschluessel": "05114000000070075", "bezeichnung": "An der Alten Kur" }, "geometry": { "type": "Point", "coordinates": [ 6.499829615466513, 51.299374629808646 ] } },
{ "type": "Feature", "properties": { "strassenschluessel": "05114000000070076", "bezeichnung": "An der Andreaskirche" }, "geometry": { "type": "Point", "coordinates": [ 6.672595227359549, 51.330267783256339 ] } },
{ "type": "Feature", "properties": { "strassenschluessel": "05114000000070077", "bezeichnung": "An der Annakirche" }, "geometry": { "type": "Point", "coordinates": [ 6.553542622225586, 51.34402198953692 ] } },
{ "type": "Feature", "properties": { "strassenschluessel": "05114000000070078", "bezeichnung": "An der Bruchmühle" }, "geometry": { "type": "Point", "coordinates": [ 6.628978141627483, 51.359348680010719 ] } },
{ "type": "Feature", "properties": { "strassenschluessel": "05114000000070079", "bezeichnung": "An der Charlottenburg" }, "geometry": { "type": "Point", "coordinates": [ 6.542901740501, 51.326538642067973 ] } },
{ "type": "Feature", "properties": { "strassenschluessel": "05114000000070080", "bezeichnung": "An der Elfrather Mühle" }, "geometry": { "type": "Point", "coordinates": [ 6.606827566554256, 51.382265620823524 ] } },
{ "type": "Feature", "properties": { "strassenschluessel": "05114000000070081", "bezeichnung": "An der Elisabethkirche" }, "geometry": { "type": "Point", "coordinates": [ 6.579602474877782, 51.335046056266485 ] } },
{ "type": "Feature", "properties": { "strassenschluessel": "05114000000070082", "bezeichnung": "An der Geismühle" }, "geometry": { "type": "Point", "coordinates": [ 6.63210761102446, 51.310925955642126 ] } },
{ "type": "Feature", "properties": { "strassenschluessel": "05114000000070083", "bezeichnung": "An der Heimstätte" }, "geometry": { "type": "Point", "coordinates": [ 6.568287399965534, 51.311896254995744 ] } },
{ "type": "Feature", "properties": { "strassenschluessel": "05114000000070084", "bezeichnung": "An der Hufschmiede" }, "geometry": { "type": "Point", "coordinates": [ 6.585109072286365, 51.310001196724158 ] } },
{ "type": "Feature", "properties": { "strassenschluessel": "05114000000070085", "bezeichnung": "An der Pauluskirche" }, "geometry": { "type": "Point", "coordinates": [ 6.548765746601491, 51.345471829215981 ] } },
{ "type": "Feature", "properties": { "strassenschluessel": "05114000000070086", "bezeichnung": "An der Puppenburg" }, "geometry": { "type": "Point", "coordinates": [ 6.666742162485588, 51.324738925880716 ] } },
{ "type": "Feature", "properties": { "strassenschluessel": "05114000000070087", "bezeichnung": "An der Römerschanze" }, "geometry": { "type": "Point", "coordinates": [ 6.693934018093932, 51.329179491722094 ] } },
{ "type": "Feature", "properties": { "strassenschluessel": "05114000000070088", "bezeichnung": "An der Tränke" }, "geometry": { "type": "Point", "coordinates": [ 6.647093273820293, 51.359736160203866 ] } },
{ "type": "Feature", "properties": { "strassenschluessel": "05114000000070089", "bezeichnung": "An der Wildbahn" }, "geometry": { "type": "Point", "coordinates": [ 6.607950448822957, 51.345802000655745 ] } },
{ "type": "Feature", "properties": { "strassenschluessel": "05114000000070090", "bezeichnung": "Andreasmarkt" }, "geometry": { "type": "Point", "coordinates": [ 6.637351460387363, 51.334059356555613 ] } },
{ "type": "Feature", "properties": { "strassenschluessel": "05114000000070091", "bezeichnung": "Angerhausenstraße" }, "geometry": { "type": "Point", "coordinates": [ 6.563504080755155, 51.332399497480914 ] } },
{ "type": "Feature", "properties": { "strassenschluessel": "05114000000070092", "bezeichnung": "An Kleinhütten" }, "geometry": { "type": "Point", "coordinates": [ 6.594145864224055, 51.350464560103973 ] } },
{ "type": "Feature", "properties": { "strassenschluessel": "05114000000070093", "bezeichnung": "An Maria-Waldrast" }, "geometry": { "type": "Point", "coordinates": [ 6.506295693004478, 51.297117436727227 ] } },
{ "type": "Feature", "properties": { "strassenschluessel": "05114000000070094", "bezeichnung": "An Neuenhofen" }, "geometry": { "type": "Point", "coordinates": [ 6.620370709222205, 51.344356156141366 ] } },
{ "type": "Feature", "properties": { "strassenschluessel": "05114000000070095", "bezeichnung": "Anrather Straße" }, "geometry": { "type": "Point", "coordinates": [ 6.553202825442021, 51.295005003697412 ] } },
{ "type": "Feature", "properties": { "strassenschluessel": "05114000000070096", "bezeichnung": "Anton-Heinen-Straße" }, "geometry": { "type": "Point", "coordinates": [ 6.586886083929629, 51.31393002821985 ] } },
{ "type": "Feature", "properties": { "strassenschluessel": "05114000000070097", "bezeichnung": "Appellweg" }, "geometry": { "type": "Point", "coordinates": [ 6.57357629498512, 51.351895777630048 ] } },
{ "type": "Feature", "properties": { "strassenschluessel": "05114000000070098", "bezeichnung": "Arbeitsfrieden" }, "geometry": { "type": "Point", "coordinates": [ 6.534459704143948, 51.32279967266264 ] } },
{ "type": "Feature", "properties": { "strassenschluessel": "05114000000070099", "bezeichnung": "Arndtstraße" }, "geometry": { "type": "Point", "coordinates": [ 6.636767225350402, 51.356567916187196 ] } },
{ "type": "Feature", "properties": { "strassenschluessel": "05114000000070100", "bezeichnung": "Asternstraße" }, "geometry": { "type": "Point", "coordinates": [ 6.606946695211147, 51.339998062306641 ] } },
{ "type": "Feature", "properties": { "strassenschluessel": "05114000000070101", "bezeichnung": "Auf dem Bollwerk" }, "geometry": { "type": "Point", "coordinates": [ 6.634424948134623, 51.336134106067384 ] } },
{ "type": "Feature", "properties": { "strassenschluessel": "05114000000070102", "bezeichnung": "Auf dem Hamm" }, "geometry": { "type": "Point", "coordinates": [ 6.602066828354422, 51.348572573044002 ] } },
{ "type": "Feature", "properties": { "strassenschluessel": "05114000000070103", "bezeichnung": "Auf dem Kamp" }, "geometry": { "type": "Point", "coordinates": [ 6.600406450542843, 51.349780009951353 ] } },
{ "type": "Feature", "properties": { "strassenschluessel": "05114000000070104", "bezeichnung": "Auf der Scholle" }, "geometry": { "type": "Point", "coordinates": [ 6.540227749830985, 51.310469561905961 ] } },
{ "type": "Feature", "properties": { "strassenschluessel": "05114000000070105", "bezeichnung": "Augustastraße" }, "geometry": { "type": "Point", "coordinates": [ 6.644432228122186, 51.353562342882874 ] } },
{ "type": "Feature", "properties": { "strassenschluessel": "05114000000070106", "bezeichnung": "Axel-Holst-Weg" }, "geometry": null },
{ "type": "Feature", "properties": { "strassenschluessel": "05114000000070107", "bezeichnung": "Baackesweg" }, "geometry": { "type": "Point", "coordinates": [ 6.544229295896836, 51.324304054335265 ] } },
{ "type": "Feature", "properties": { "strassenschluessel": "05114000000070108", "bezeichnung": "Bacherhofstraße" }, "geometry": { "type": "Point", "coordinates": [ 6.617073867222787, 51.320622162489173 ] } },
{ "type": "Feature", "properties": { "strassenschluessel": "05114000000070109", "bezeichnung": "Bacherstraße" }, "geometry": { "type": "Point", "coordinates": [ 6.603810569990266, 51.308226983749357 ] } },
{ "type": "Feature", "properties": { "strassenschluessel": "05114000000070110", "bezeichnung": "Bäkerpfad" }, "geometry": { "type": "Point", "coordinates": [ 6.579275156903698, 51.320217079531787 ] } },
{ "type": "Feature", "properties": { "strassenschluessel": "05114000000070111", "bezeichnung": "Bärenstraße" }, "geometry": { "type": "Point", "coordinates": [ 6.596518233960126, 51.374125402966321 ] } },
{ "type": "Feature", "properties": { "strassenschluessel": "05114000000070112", "bezeichnung": "Bahnhofstraße" }, "geometry": { "type": "Point", "coordinates": [ 6.648587475913189, 51.358087786541702 ] } },
{ "type": "Feature", "properties": { "strassenschluessel": "05114000000070113", "bezeichnung": "Bahnstraße" }, "geometry": { "type": "Point", "coordinates": [ 6.576443090310011, 51.329625576659318 ] } },
{ "type": "Feature", "properties": { "strassenschluessel": "05114000000070114", "bezeichnung": "Beethovenstraße" }, "geometry": { "type": "Point", "coordinates": [ 6.640740451944729, 51.358667427506013 ] } },
{ "type": "Feature", "properties": { "strassenschluessel": "05114000000070115", "bezeichnung": "Behringstraße" }, "geometry": { "type": "Point", "coordinates": [ 6.644611439535412, 51.364943588719278 ] } },
{ "type": "Feature", "properties": { "strassenschluessel": "05114000000070116", "bezeichnung": "Bellenweg" }, "geometry": { "type": "Point", "coordinates": [ 6.506736075081368, 51.297213160721313 ] } },
{ "type": "Feature", "properties": { "strassenschluessel": "05114000000070117", "bezeichnung": "Bengerpfad" }, "geometry": { "type": "Point", "coordinates": [ 6.577274143242226, 51.364615223897772 ] } },
{ "type": "Feature", "properties": { "strassenschluessel": "05114000000070118", "bezeichnung": "Benrader Straße" }, "geometry": { "type": "Point", "coordinates": [ 6.521724957297507, 51.347680381512049 ] } },
{ "type": "Feature", "properties": { "strassenschluessel": "05114000000070119", "bezeichnung": "Bergackerweg" }, "geometry": { "type": "Point", "coordinates": [ 6.624650242761279, 51.37760696736764 ] } },
{ "type": "Feature", "properties": { "strassenschluessel": "05114000000070120", "bezeichnung": "Bergheimer Straße" }, "geometry": { "type": "Point", "coordinates": [ 6.578614550581145, 51.302553359851437 ] } },
{ "type": "Feature", "properties": { "strassenschluessel": "05114000000070121", "bezeichnung": "Bergstiege" }, "geometry": { "type": "Point", "coordinates": [ 6.591791415285728, 51.381055301747743 ] } },
{ "type": "Feature", "properties": { "strassenschluessel": "05114000000070122", "bezeichnung": "Bergstraße" }, "geometry": { "type": "Point", "coordinates": [ 6.627953104116659, 51.357247790861834 ] } },
{ "type": "Feature", "properties": { "strassenschluessel": "05114000000070123", "bezeichnung": "Berliner Straße" }, "geometry": { "type": "Point", "coordinates": [ 6.638745796237708, 51.345880558821051 ] } },
{ "type": "Feature", "properties": { "strassenschluessel": "05114000000070124", "bezeichnung": "Bethelstraße" }, "geometry": { "type": "Point", "coordinates": [ 6.625405206860243, 51.352037870811856 ] } },
{ "type": "Feature", "properties": { "strassenschluessel": "05114000000070125", "bezeichnung": "Billsteinstraße" }, "geometry": { "type": "Point", "coordinates": [ 6.57360892105374, 51.323911189793868 ] } },
{ "type": "Feature", "properties": { "strassenschluessel": "05114000000070126", "bezeichnung": "Birkendonk" }, "geometry": { "type": "Point", "coordinates": [ 6.613475602348872, 51.323841735018895 ] } },
{ "type": "Feature", "properties": { "strassenschluessel": "05114000000070127", "bezeichnung": "Birkendyk" }, "geometry": { "type": "Point", "coordinates": [ 6.563108508401776, 51.344835773539842 ] } },
{ "type": "Feature", "properties": { "strassenschluessel": "05114000000070128", "bezeichnung": "Birkenweg" }, "geometry": { "type": "Point", "coordinates": [ 6.669027009570232, 51.317199179717662 ] } },
{ "type": "Feature", "properties": { "strassenschluessel": "05114000000070128", "bezeichnung": "Birkenweg" }, "geometry": { "type": "Point", "coordinates": [ 6.669027009570232, 51.317199179717662 ] } },
{ "type": "Feature", "properties": { "strassenschluessel": "05114000000070130", "bezeichnung": "Birkschenweg" }, "geometry": { "type": "Point", "coordinates": [ 6.541003117066482, 51.346650969014782 ] } },
{ "type": "Feature", "properties": { "strassenschluessel": "05114000000070131", "bezeichnung": "Bischofstraße" }, "geometry": { "type": "Point", "coordinates": [ 6.620858618639921, 51.327444152472786 ] } },
{ "type": "Feature", "properties": { "strassenschluessel": "05114000000070132", "bezeichnung": "Biselter Weg" }, "geometry": { "type": "Point", "coordinates": [ 6.665686168304773, 51.33504346061563 ] } },
{ "type": "Feature", "properties": { "strassenschluessel": "05114000000070133", "bezeichnung": "Bismarckplatz" }, "geometry": { "type": "Point", "coordinates": [ 6.576369583471481, 51.340472010598575 ] } },
{ "type": "Feature", "properties": { "strassenschluessel": "05114000000070134", "bezeichnung": "Bismarckstraße" }, "geometry": { "type": "Point", "coordinates": [ 6.574531422862226, 51.340628254255058 ] } },
{ "type": "Feature", "properties": { "strassenschluessel": "05114000000070135", "bezeichnung": "Bleichpfad" }, "geometry": { "type": "Point", "coordinates": [ 6.568856757592578, 51.335718165143952 ] } },
{ "type": "Feature", "properties": { "strassenschluessel": "05114000000070136", "bezeichnung": "Bloemersheimstraße" }, "geometry": { "type": "Point", "coordinates": [ 6.543721089883058, 51.32224748997001 ] } },
{ "type": "Feature", "properties": { "strassenschluessel": "05114000000070137", "bezeichnung": "Blomekamp" }, "geometry": { "type": "Point", "coordinates": [ 6.610415396722107, 51.32576633323211 ] } },
{ "type": "Feature", "properties": { "strassenschluessel": "05114000000070138", "bezeichnung": "Blücherstraße" }, "geometry": { "type": "Point", "coordinates": [ 6.57805391789033, 51.332480979442806 ] } },
{ "type": "Feature", "properties": { "strassenschluessel": "05114000000070139", "bezeichnung": "Blumenplatz" }, "geometry": { "type": "Point", "coordinates": [ 6.549935787638943, 51.329109088286522 ] } },
{ "type": "Feature", "properties": { "strassenschluessel": "05114000000070140", "bezeichnung": "Blumenstraße" }, "geometry": { "type": "Point", "coordinates": [ 6.557768481743919, 51.330453584103282 ] } },
{ "type": "Feature", "properties": { "strassenschluessel": "05114000000070141", "bezeichnung": "Blumentalstraße" }, "geometry": { "type": "Point", "coordinates": [ 6.553911743842292, 51.345308534164367 ] } },
{ "type": "Feature", "properties": { "strassenschluessel": "05114000000070142", "bezeichnung": "Bockumer Platz" }, "geometry": { "type": "Point", "coordinates": [ 6.618214797205326, 51.346189550060231 ] } },
{ "type": "Feature", "properties": { "strassenschluessel": "05114000000070143", "bezeichnung": "Bodelschwinghstraße" }, "geometry": { "type": "Point", "coordinates": [ 6.622397855067945, 51.349338500779155 ] } },
{ "type": "Feature", "properties": { "strassenschluessel": "05114000000070144", "bezeichnung": "Boedikerstraße" }, "geometry": { "type": "Point", "coordinates": [ 6.642095194539259, 51.342671387463795 ] } },
{ "type": "Feature", "properties": { "strassenschluessel": "05114000000070145", "bezeichnung": "Bökendonk" }, "geometry": { "type": "Point", "coordinates": [ 6.609262104550218, 51.324212812710144 ] } },
{ "type": "Feature", "properties": { "strassenschluessel": "05114000000070146", "bezeichnung": "Bogenstraße" }, "geometry": { "type": "Point", "coordinates": [ 6.575453044944463, 51.33741553332603 ] } },
{ "type": "Feature", "properties": { "strassenschluessel": "05114000000070147", "bezeichnung": "Boleystraße" }, "geometry": { "type": "Point", "coordinates": [ 6.628065178007969, 51.354567896371883 ] } },
{ "type": "Feature", "properties": { "strassenschluessel": "05114000000070148", "bezeichnung": "Bommersweg" }, "geometry": { "type": "Point", "coordinates": [ 6.594810832343875, 51.303373561792839 ] } },
{ "type": "Feature", "properties": { "strassenschluessel": "05114000000070149", "bezeichnung": "Bongertsaue" }, "geometry": { "type": "Point", "coordinates": [ 6.533048842056114, 51.355668904005313 ] } },
{ "type": "Feature", "properties": { "strassenschluessel": "05114000000070150", "bezeichnung": "Bonifatiusstraße" }, "geometry": { "type": "Point", "coordinates": [ 6.558152280745904, 51.309014389933715 ] } },
{ "type": "Feature", "properties": { "strassenschluessel": "05114000000070152", "bezeichnung": "Borsigstraße" }, "geometry": { "type": "Point", "coordinates": [ 6.591845024063794, 51.333150342295681 ] } },
{ "type": "Feature", "properties": { "strassenschluessel": "05114000000070153", "bezeichnung": "Brahmsstraße" }, "geometry": { "type": "Point", "coordinates": [ 6.574510546659558, 51.342494292047952 ] } },
{ "type": "Feature", "properties": { "strassenschluessel": "05114000000070154", "bezeichnung": "Brandenburger Straße" }, "geometry": { "type": "Point", "coordinates": [ 6.616589567312018, 51.340269371815211 ] } },
{ "type": "Feature", "properties": { "strassenschluessel": "05114000000070155", "bezeichnung": "Braunschweiger Platz" }, "geometry": { "type": "Point", "coordinates": [ 6.644635753869571, 51.361473857916302 ] } },
{ "type": "Feature", "properties": { "strassenschluessel": "05114000000070156", "bezeichnung": "Breitenbachstraße" }, "geometry": { "type": "Point", "coordinates": [ 6.613060306100049, 51.332477552274327 ] } },
{ "type": "Feature", "properties": { "strassenschluessel": "05114000000070157", "bezeichnung": "Breiten Dyk" }, "geometry": { "type": "Point", "coordinates": [ 6.554974253047316, 51.352031076268183 ] } },
{ "type": "Feature", "properties": { "strassenschluessel": "05114000000070158", "bezeichnung": "Breite Straße" }, "geometry": { "type": "Point", "coordinates": [ 6.561851200222554, 51.32897603538094 ] } },
{ "type": "Feature", "properties": { "strassenschluessel": "05114000000070159", "bezeichnung": "Bremer Straße" }, "geometry": { "type": "Point", "coordinates": [ 6.627235070831111, 51.352876947146463 ] } },
{ "type": "Feature", "properties": { "strassenschluessel": "05114000000070160", "bezeichnung": "Breslauer Straße" }, "geometry": { "type": "Point", "coordinates": [ 6.621801904289331, 51.366359845729306 ] } },
{ "type": "Feature", "properties": { "strassenschluessel": "05114000000070161", "bezeichnung": "Breuningstraße" }, "geometry": { "type": "Point", "coordinates": [ 6.54368200764968, 51.337408584190385 ] } },
{ "type": "Feature", "properties": { "strassenschluessel": "05114000000070162", "bezeichnung": "Brockerhofstraße" }, "geometry": { "type": "Point", "coordinates": [ 6.542319853854382, 51.34323644463538 ] } },
{ "type": "Feature", "properties": { "strassenschluessel": "05114000000070163", "bezeichnung": "Brockerweg" }, "geometry": null },
{ "type": "Feature", "properties": { "strassenschluessel": "05114000000070164", "bezeichnung": "Bromberger Straße" }, "geometry": { "type": "Point", "coordinates": [ 6.639400131356537, 51.341112777988414 ] } },
{ "type": "Feature", "properties": { "strassenschluessel": "05114000000070165", "bezeichnung": "Bromeledonk" }, "geometry": { "type": "Point", "coordinates": [ 6.612512316183573, 51.318288354363084 ] } },
{ "type": "Feature", "properties": { "strassenschluessel": "05114000000070166", "bezeichnung": "Bruchfeld" }, "geometry": { "type": "Point", "coordinates": [ 6.626761316643735, 51.337266678279313 ] } },
{ "type": "Feature", "properties": { "strassenschluessel": "05114000000070167", "bezeichnung": "Bruchhecke" }, "geometry": { "type": "Point", "coordinates": [ 6.632801920189407, 51.336652423717396 ] } },
{ "type": "Feature", "properties": { "strassenschluessel": "05114000000070168", "bezeichnung": "Bruchhöfe" }, "geometry": { "type": "Point", "coordinates": [ 6.619493188417731, 51.371889234781968 ] } },
{ "type": "Feature", "properties": { "strassenschluessel": "05114000000070169", "bezeichnung": "Bruchstraße" }, "geometry": { "type": "Point", "coordinates": [ 6.650191921056861, 51.355435239520816 ] } },
{ "type": "Feature", "properties": { "strassenschluessel": "05114000000070170", "bezeichnung": "Bruchweg" }, "geometry": { "type": "Point", "coordinates": [ 6.63482361926219, 51.36177871364751 ] } },
{ "type": "Feature", "properties": { "strassenschluessel": "05114000000070171", "bezeichnung": "Bruderschaftsweg" }, "geometry": { "type": "Point", "coordinates": [ 6.588475051071993, 51.300532922540015 ] } },
{ "type": "Feature", "properties": { "strassenschluessel": "05114000000070172", "bezeichnung": "Buchenstraße" }, "geometry": { "type": "Point", "coordinates": [ 6.559754538678428, 51.321666050258841 ] } },
{ "type": "Feature", "properties": { "strassenschluessel": "05114000000070173", "bezeichnung": "Buchheimer Straße" }, "geometry": { "type": "Point", "coordinates": [ 6.601565092004731, 51.347617806180189 ] } },
{ "type": "Feature", "properties": { "strassenschluessel": "05114000000070174", "bezeichnung": "Buddestraße" }, "geometry": { "type": "Point", "coordinates": [ 6.615175238263421, 51.328982633780498 ] } },
{ "type": "Feature", "properties": { "strassenschluessel": "05114000000070175", "bezeichnung": "Bückerfeldstraße" }, "geometry": { "type": "Point", "coordinates": [ 6.527993674834507, 51.340684901390389 ] } },
{ "type": "Feature", "properties": { "strassenschluessel": "05114000000070176", "bezeichnung": "Bunsenstraße" }, "geometry": { "type": "Point", "coordinates": [ 6.606779891553752, 51.350891887785679 ] } },
{ "type": "Feature", "properties": { "strassenschluessel": "05114000000070177", "bezeichnung": "Burgersstraße" }, "geometry": { "type": "Point", "coordinates": [ 6.558245151257983, 51.308268042973523 ] } },
{ "type": "Feature", "properties": { "strassenschluessel": "05114000000070178", "bezeichnung": "Burgstraße" }, "geometry": { "type": "Point", "coordinates": [ 6.651811105176148, 51.352781716295588 ] } },
{ "type": "Feature", "properties": { "strassenschluessel": "05114000000070179", "bezeichnung": "Buschdonk" }, "geometry": { "type": "Point", "coordinates": [ 6.610864915798466, 51.323513752814229 ] } },
{ "type": "Feature", "properties": { "strassenschluessel": "05114000000070180", "bezeichnung": "Buscher Holzweg" }, "geometry": { "type": "Point", "coordinates": [ 6.588713388733249, 51.376184817439665 ] } },
{ "type": "Feature", "properties": { "strassenschluessel": "05114000000070181", "bezeichnung": "Buschhüterdyk" }, "geometry": { "type": "Point", "coordinates": [ 6.568370157581761, 51.344650848753382 ] } },
{ "type": "Feature", "properties": { "strassenschluessel": "05114000000070182", "bezeichnung": "Buschstraße" }, "geometry": { "type": "Point", "coordinates": [ 6.613239596080356, 51.347357964826152 ] } },
{ "type": "Feature", "properties": { "strassenschluessel": "05114000000070183", "bezeichnung": "Buschweg" }, "geometry": null },
{ "type": "Feature", "properties": { "strassenschluessel": "05114000000070184", "bezeichnung": "Busenpfad" }, "geometry": { "type": "Point", "coordinates": [ 6.577666117476768, 51.366102572069124 ] } },
{ "type": "Feature", "properties": { "strassenschluessel": "05114000000070185", "bezeichnung": "Camesstraße" }, "geometry": { "type": "Point", "coordinates": [ 6.58030836059044, 51.310794793218264 ] } },
{ "type": "Feature", "properties": { "strassenschluessel": "05114000000070186", "bezeichnung": "Campendonkstraße" }, "geometry": { "type": "Point", "coordinates": [ 6.603145066916778, 51.353340707043635 ] } },
{ "type": "Feature", "properties": { "strassenschluessel": "05114000000070187", "bezeichnung": "Canisiusstraße" }, "geometry": { "type": "Point", "coordinates": [ 6.539354287463137, 51.338780319959909 ] } },
{ "type": "Feature", "properties": { "strassenschluessel": "05114000000070189", "bezeichnung": "Carl-Schurz-Straße" }, "geometry": { "type": "Point", "coordinates": [ 6.54582534952027, 51.335817357477502 ] } },
{ "type": "Feature", "properties": { "strassenschluessel": "05114000000070190", "bezeichnung": "Carl-Sonnenschein-Straße" }, "geometry": { "type": "Point", "coordinates": [ 6.639296712269006, 51.344452955177438 ] } },
{ "type": "Feature", "properties": { "strassenschluessel": "05114000000070191", "bezeichnung": "Carl-Wilhelm-Straße" }, "geometry": { "type": "Point", "coordinates": [ 6.560176204215015, 51.334184641565109 ] } },
{ "type": "Feature", "properties": { "strassenschluessel": "05114000000070192", "bezeichnung": "Casinogasse" }, "geometry": { "type": "Point", "coordinates": [ 6.651835377292034, 51.35356803781422 ] } },
{ "type": "Feature", "properties": { "strassenschluessel": "05114000000070194", "bezeichnung": "Christian-Roos-Straße" }, "geometry": { "type": "Point", "coordinates": [ 6.563035117423084, 51.320389866429018 ] } },
{ "type": "Feature", "properties": { "strassenschluessel": "05114000000070195", "bezeichnung": "Clemensplatz" }, "geometry": { "type": "Point", "coordinates": [ 6.5857920384824, 51.302685123374538 ] } },
{ "type": "Feature", "properties": { "strassenschluessel": "05114000000070196", "bezeichnung": "Clemensstraße" }, "geometry": { "type": "Point", "coordinates": [ 6.58862248942977, 51.303247608029373 ] } },
{ "type": "Feature", "properties": { "strassenschluessel": "05114000000070197", "bezeichnung": "Corneliusplatz" }, "geometry": { "type": "Point", "coordinates": [ 6.55709645280476, 51.326064196726932 ] } },
{ "type": "Feature", "properties": { "strassenschluessel": "05114000000070198", "bezeichnung": "Corneliusstraße" }, "geometry": { "type": "Point", "coordinates": [ 6.557128541086975, 51.32653421584935 ] } },
{ "type": "Feature", "properties": { "strassenschluessel": "05114000000070199", "bezeichnung": "Cracauer Straße" }, "geometry": { "type": "Point", "coordinates": [ 6.57232880452837, 51.337731253283579 ] } },
{ "type": "Feature", "properties": { "strassenschluessel": "05114000000070200", "bezeichnung": "Crön" }, "geometry": { "type": "Point", "coordinates": [ 6.616485475915328, 51.333495972198563 ] } },
{ "type": "Feature", "properties": { "strassenschluessel": "05114000000070201", "bezeichnung": "Crousstraße" }, "geometry": { "type": "Point", "coordinates": [ 6.581414898605227, 51.340170493366394 ] } },
{ "type": "Feature", "properties": { "strassenschluessel": "05114000000070202", "bezeichnung": "Dachsstraße" }, "geometry": { "type": "Point", "coordinates": [ 6.605967465393322, 51.346062562125475 ] } },
{ "type": "Feature", "properties": { "strassenschluessel": "05114000000070203", "bezeichnung": "Dahlerdyk" }, "geometry": { "type": "Point", "coordinates": [ 6.567064630415795, 51.351104499632456 ] } },
{ "type": "Feature", "properties": { "strassenschluessel": "05114000000070204", "bezeichnung": "Dahlienstraße" }, "geometry": { "type": "Point", "coordinates": [ 6.615692300531522, 51.342229505009662 ] } },
{ "type": "Feature", "properties": { "strassenschluessel": "05114000000070205", "bezeichnung": "Damaschkestraße" }, "geometry": { "type": "Point", "coordinates": [ 6.628597455049453, 51.360717123394551 ] } },
{ "type": "Feature", "properties": { "strassenschluessel": "05114000000070206", "bezeichnung": "Dammstraße" }, "geometry": { "type": "Point", "coordinates": [ 6.653056481362095, 51.351637263021978 ] } },
{ "type": "Feature", "properties": { "strassenschluessel": "05114000000070207", "bezeichnung": "Dampfmühlenweg" }, "geometry": { "type": "Point", "coordinates": [ 6.567788508915442, 51.335235928521946 ] } },
{ "type": "Feature", "properties": { "strassenschluessel": "05114000000070208", "bezeichnung": "Danziger Platz" }, "geometry": { "type": "Point", "coordinates": [ 6.64267817103452, 51.335922290790215 ] } },
{ "type": "Feature", "properties": { "strassenschluessel": "05114000000070209", "bezeichnung": "Degensweg" }, "geometry": { "type": "Point", "coordinates": [ 6.49349905063768, 51.29982686595762 ] } },
{ "type": "Feature", "properties": { "strassenschluessel": "05114000000070210", "bezeichnung": "De-Greiff-Straße" }, "geometry": { "type": "Point", "coordinates": [ 6.536453620572154, 51.338897035908573 ] } },
{ "type": "Feature", "properties": { "strassenschluessel": "05114000000070211", "bezeichnung": "Deichstraße" }, "geometry": { "type": "Point", "coordinates": [ 6.667463430550975, 51.37177091730296 ] } },
{ "type": "Feature", "properties": { "strassenschluessel": "05114000000070212", "bezeichnung": "Deußstraße" }, "geometry": { "type": "Point", "coordinates": [ 6.576905420177875, 51.349453231508356 ] } },
{ "type": "Feature", "properties": { "strassenschluessel": "05114000000070213", "bezeichnung": "Deutscher Ring" }, "geometry": { "type": "Point", "coordinates": [ 6.559923706449237, 51.324259821839391 ] } },
{ "type": "Feature", "properties": { "strassenschluessel": "05114000000070214", "bezeichnung": "Diebersweg" }, "geometry": { "type": "Point", "coordinates": [ 6.591589616320848, 51.303455513943774 ] } },
{ "type": "Feature", "properties": { "strassenschluessel": "05114000000070215", "bezeichnung": "Dieselstraße" }, "geometry": { "type": "Point", "coordinates": [ 6.52539490411668, 51.346447635655757 ] } },
{ "type": "Feature", "properties": { "strassenschluessel": "05114000000070216", "bezeichnung": "Dießemer Bruch" }, "geometry": { "type": "Point", "coordinates": [ 6.587987772193665, 51.331951747188967 ] } },
{ "type": "Feature", "properties": { "strassenschluessel": "05114000000070217", "bezeichnung": "Dießemer Straße" }, "geometry": { "type": "Point", "coordinates": [ 6.573953659519354, 51.334674297423703 ] } },
{ "type": "Feature", "properties": { "strassenschluessel": "05114000000070218", "bezeichnung": "Dilbornstraße" }, "geometry": { "type": "Point", "coordinates": [ 6.540083749615575, 51.324895812345403 ] } },
{ "type": "Feature", "properties": { "strassenschluessel": "05114000000070219", "bezeichnung": "Dionysiusplatz" }, "geometry": { "type": "Point", "coordinates": [ 6.560480457720168, 51.333146850484397 ] } },
{ "type": "Feature", "properties": { "strassenschluessel": "05114000000070220", "bezeichnung": "Dionysiusstraße" }, "geometry": { "type": "Point", "coordinates": [ 6.554856349309271, 51.331513699653044 ] } },
{ "type": "Feature", "properties": { "strassenschluessel": "05114000000070221", "bezeichnung": "Junkersdyk" }, "geometry": { "type": "Point", "coordinates": [ 6.544163393090866, 51.379592287150913 ] } },
{ "type": "Feature", "properties": { "strassenschluessel": "05114000000070222", "bezeichnung": "Doerperhofstraße" }, "geometry": { "type": "Point", "coordinates": [ 6.606765917626937, 51.347347012689518 ] } },
{ "type": "Feature", "properties": { "strassenschluessel": "05114000000070223", "bezeichnung": "Bussardweg" }, "geometry": { "type": "Point", "coordinates": [ 6.495803080129538, 51.298488976379296 ] } },
{ "type": "Feature", "properties": { "strassenschluessel": "05114000000070224", "bezeichnung": "Dohmenstraße" }, "geometry": { "type": "Point", "coordinates": [ 6.590885685210898, 51.294377072129514 ] } },
{ "type": "Feature", "properties": { "strassenschluessel": "05114000000070225", "bezeichnung": "Dohrhofweg" }, "geometry": { "type": "Point", "coordinates": [ 6.589047491005917, 51.298621856735593 ] } },
{ "type": "Feature", "properties": { "strassenschluessel": "05114000000070226", "bezeichnung": "Donaustraße" }, "geometry": { "type": "Point", "coordinates": [ 6.595156721055683, 51.321990964778855 ] } },
{ "type": "Feature", "properties": { "strassenschluessel": "05114000000070227", "bezeichnung": "Dr.-Walter-Kleinschmidt-Straße" }, "geometry": { "type": "Point", "coordinates": [ 6.62893844243862, 51.36345237254303 ] } },
{ "type": "Feature", "properties": { "strassenschluessel": "05114000000070228", "bezeichnung": "Doppelfeldstraße" }, "geometry": { "type": "Point", "coordinates": [ 6.548230490792315, 51.332940238547401 ] } },
{ "type": "Feature", "properties": { "strassenschluessel": "05114000000070229", "bezeichnung": "Dorfstraße" }, "geometry": { "type": "Point", "coordinates": [ 6.664912274148051, 51.370146104429452 ] } },
{ "type": "Feature", "properties": { "strassenschluessel": "05114000000070230", "bezeichnung": "Dreffdonk" }, "geometry": { "type": "Point", "coordinates": [ 6.605017241511862, 51.316769075015237 ] } },
{ "type": "Feature", "properties": { "strassenschluessel": "05114000000070231", "bezeichnung": "Dreikönigenstraße" }, "geometry": { "type": "Point", "coordinates": [ 6.569638658716727, 51.330873274993834 ] } },
{ "type": "Feature", "properties": { "strassenschluessel": "05114000000070232", "bezeichnung": "Drieschweg" }, "geometry": { "type": "Point", "coordinates": [ 6.531878727496291, 51.323689463437532 ] } },
{ "type": "Feature", "properties": { "strassenschluessel": "05114000000070233", "bezeichnung": "Drießendorfer Straße" }, "geometry": { "type": "Point", "coordinates": [ 6.554006098807519, 51.338080407073946 ] } },
{ "type": "Feature", "properties": { "strassenschluessel": "05114000000070234", "bezeichnung": "Drosselweg" }, "geometry": { "type": "Point", "coordinates": [ 6.503862373436579, 51.299942224946875 ] } },
{ "type": "Feature", "properties": { "strassenschluessel": "05114000000070235", "bezeichnung": "Drususstraße" }, "geometry": null },
{ "type": "Feature", "properties": { "strassenschluessel": "05114000000070236", "bezeichnung": "Dülkener Straße" }, "geometry": { "type": "Point", "coordinates": [ 6.527081488660111, 51.321299549791078 ] } },
{ "type": "Feature", "properties": { "strassenschluessel": "05114000000070237", "bezeichnung": "Dürerplatz" }, "geometry": null },
{ "type": "Feature", "properties": { "strassenschluessel": "05114000000070238", "bezeichnung": "Dürerstraße" }, "geometry": { "type": "Point", "coordinates": [ 6.580117841522357, 51.343164892189812 ] } },
{ "type": "Feature", "properties": { "strassenschluessel": "05114000000070239", "bezeichnung": "Düsseldorfer Straße" }, "geometry": { "type": "Point", "coordinates": [ 6.655582352540377, 51.347248400622931 ] } },
{ "type": "Feature", "properties": { "strassenschluessel": "05114000000070240", "bezeichnung": "Duisburger Straße" }, "geometry": { "type": "Point", "coordinates": [ 6.651151770459336, 51.376536169088482 ] } },
{ "type": "Feature", "properties": { "strassenschluessel": "05114000000070241", "bezeichnung": "Dujardinstraße" }, "geometry": { "type": "Point", "coordinates": [ 6.650140243058921, 51.357004882455335 ] } },
{ "type": "Feature", "properties": { "strassenschluessel": "05114000000070242", "bezeichnung": "Ebersteg" }, "geometry": { "type": "Point", "coordinates": [ 6.622663963121586, 51.335651604471323 ] } },
{ "type": "Feature", "properties": { "strassenschluessel": "05114000000070243", "bezeichnung": "Edmundstraße" }, "geometry": { "type": "Point", "coordinates": [ 6.639905349889402, 51.364467626047883 ] } },
{ "type": "Feature", "properties": { "strassenschluessel": "05114000000070244", "bezeichnung": "Eichendorffstraße" }, "geometry": { "type": "Point", "coordinates": [ 6.598961577670681, 51.33910862378427 ] } },
{ "type": "Feature", "properties": { "strassenschluessel": "05114000000070245", "bezeichnung": "Eichental" }, "geometry": { "type": "Point", "coordinates": [ 6.562379192929734, 51.340608879793137 ] } },
{ "type": "Feature", "properties": { "strassenschluessel": "05114000000070246", "bezeichnung": "Eichhornstraße" }, "geometry": { "type": "Point", "coordinates": [ 6.595085720823193, 51.301649036218038 ] } },
{ "type": "Feature", "properties": { "strassenschluessel": "05114000000070247", "bezeichnung": "Ekendonk" }, "geometry": { "type": "Point", "coordinates": [ 6.607609907768685, 51.321202320162257 ] } },
{ "type": "Feature", "properties": { "strassenschluessel": "05114000000070248", "bezeichnung": "Elbestraße" }, "geometry": { "type": "Point", "coordinates": [ 6.616479036729245, 51.356011248187954 ] } },
{ "type": "Feature", "properties": { "strassenschluessel": "05114000000070249", "bezeichnung": "Elbinger Straße" }, "geometry": { "type": "Point", "coordinates": [ 6.640875263798637, 51.33729483098189 ] } },
{ "type": "Feature", "properties": { "strassenschluessel": "05114000000070250", "bezeichnung": "Elfrather Weg" }, "geometry": { "type": "Point", "coordinates": [ 6.601495423981112, 51.38616779026836 ] } },
{ "type": "Feature", "properties": { "strassenschluessel": "05114000000070251", "bezeichnung": "Elfrather Feldweg" }, "geometry": null },
{ "type": "Feature", "properties": { "strassenschluessel": "05114000000070252", "bezeichnung": "Elisabethstraße" }, "geometry": { "type": "Point", "coordinates": [ 6.571671723472051, 51.330454569890357 ] } },
{ "type": "Feature", "properties": { "strassenschluessel": "05114000000070253", "bezeichnung": "Elmendonk" }, "geometry": { "type": "Point", "coordinates": [ 6.613674781168545, 51.321651979004116 ] } },
{ "type": "Feature", "properties": { "strassenschluessel": "05114000000070254", "bezeichnung": "Elsa-Brändström-Straße" }, "geometry": { "type": "Point", "coordinates": [ 6.62744318865827, 51.36329867693739 ] } },
{ "type": "Feature", "properties": { "strassenschluessel": "05114000000070255", "bezeichnung": "Elsendonk" }, "geometry": { "type": "Point", "coordinates": [ 6.606562988237938, 51.320048988385118 ] } },
{ "type": "Feature", "properties": { "strassenschluessel": "05114000000070256", "bezeichnung": "Elsternweg" }, "geometry": { "type": "Point", "coordinates": [ 6.504483172676492, 51.29773693969836 ] } },
{ "type": "Feature", "properties": { "strassenschluessel": "05114000000070257", "bezeichnung": "Eltweg" }, "geometry": { "type": "Point", "coordinates": [ 6.638732688753567, 51.330812362129194 ] } },
{ "type": "Feature", "properties": { "strassenschluessel": "05114000000070258", "bezeichnung": "Emil-Fischer-Straße" }, "geometry": { "type": "Point", "coordinates": [ 6.644290282788598, 51.364261546917625 ] } },
{ "type": "Feature", "properties": { "strassenschluessel": "05114000000070259", "bezeichnung": "Emil-Schäfer-Straße" }, "geometry": { "type": "Point", "coordinates": [ 6.625962387211422, 51.355246437606276 ] } },
{ "type": "Feature", "properties": { "strassenschluessel": "05114000000070260", "bezeichnung": "En et Bennert" }, "geometry": { "type": "Point", "coordinates": [ 6.532904146151991, 51.314794698415781 ] } },
{ "type": "Feature", "properties": { "strassenschluessel": "05114000000070261", "bezeichnung": "Engerstraße" }, "geometry": { "type": "Point", "coordinates": [ 6.604955175046102, 51.360532410739097 ] } },
{ "type": "Feature", "properties": { "strassenschluessel": "05114000000070262", "bezeichnung": "Erftweg" }, "geometry": { "type": "Point", "coordinates": [ 6.58837123219048, 51.297019291261947 ] } },
{ "type": "Feature", "properties": { "strassenschluessel": "05114000000070263", "bezeichnung": "Erikapfad" }, "geometry": { "type": "Point", "coordinates": [ 6.50791111564296, 51.307176178695798 ] } },
{ "type": "Feature", "properties": { "strassenschluessel": "05114000000070264", "bezeichnung": "Erkelenzer Straße" }, "geometry": { "type": "Point", "coordinates": [ 6.576374414379707, 51.307105892584126 ] } },
{ "type": "Feature", "properties": { "strassenschluessel": "05114000000070265", "bezeichnung": "Erlenbruch" }, "geometry": { "type": "Point", "coordinates": [ 6.613453185902889, 51.363585771514678 ] } },
{ "type": "Feature", "properties": { "strassenschluessel": "05114000000070266", "bezeichnung": "Ernst-Schroeder-Straße" }, "geometry": { "type": "Point", "coordinates": [ 6.627698656515034, 51.356923343985379 ] } },
{ "type": "Feature", "properties": { "strassenschluessel": "05114000000070267", "bezeichnung": "Eschenweg" }, "geometry": { "type": "Point", "coordinates": [ 6.512601594006859, 51.307307019070166 ] } },
{ "type": "Feature", "properties": { "strassenschluessel": "05114000000070268", "bezeichnung": "Espenweg" }, "geometry": { "type": "Point", "coordinates": [ 6.507357518338595, 51.30740162174758 ] } },
{ "type": "Feature", "properties": { "strassenschluessel": "05114000000070269", "bezeichnung": "Essener Straße" }, "geometry": { "type": "Point", "coordinates": [ 6.623906468476188, 51.344593923573811 ] } },
{ "type": "Feature", "properties": { "strassenschluessel": "05114000000070270", "bezeichnung": "Eutiner Straße" }, "geometry": { "type": "Point", "coordinates": [ 6.634204956093719, 51.353782552783059 ] } },
{ "type": "Feature", "properties": { "strassenschluessel": "05114000000070271", "bezeichnung": "Evgl.-Kirch-Straße" }, "geometry": null },
{ "type": "Feature", "properties": { "strassenschluessel": "05114000000070272", "bezeichnung": "Evgl.-Kirch-Platz" }, "geometry": { "type": "Point", "coordinates": [ 6.562352263118626, 51.330766202063089 ] } },
{ "type": "Feature", "properties": { "strassenschluessel": "05114000000070273", "bezeichnung": "Evertsstraße" }, "geometry": { "type": "Point", "coordinates": [ 6.561082309283096, 51.330979462643064 ] } },
{ "type": "Feature", "properties": { "strassenschluessel": "05114000000070274", "bezeichnung": "Fabrikstraße" }, "geometry": { "type": "Point", "coordinates": [ 6.559522865530579, 51.336045199063228 ] } },
{ "type": "Feature", "properties": { "strassenschluessel": "05114000000070275", "bezeichnung": "Fabritiusstraße" }, "geometry": { "type": "Point", "coordinates": [ 6.642743812458981, 51.349092034024544 ] } },
{ "type": "Feature", "properties": { "strassenschluessel": "05114000000070276", "bezeichnung": "Färberstraße" }, "geometry": { "type": "Point", "coordinates": [ 6.563302987874719, 51.336580631452669 ] } },
{ "type": "Feature", "properties": { "strassenschluessel": "05114000000070277", "bezeichnung": "Fasanenstraße" }, "geometry": { "type": "Point", "coordinates": [ 6.626852262585108, 51.348433296277719 ] } },
{ "type": "Feature", "properties": { "strassenschluessel": "05114000000070278", "bezeichnung": "Fegeteschstraße" }, "geometry": { "type": "Point", "coordinates": [ 6.677094830660313, 51.323603000665798 ] } },
{ "type": "Feature", "properties": { "strassenschluessel": "05114000000070279", "bezeichnung": "Felbelstraße" }, "geometry": { "type": "Point", "coordinates": [ 6.567074893204178, 51.335567648260394 ] } },
{ "type": "Feature", "properties": { "strassenschluessel": "05114000000070280", "bezeichnung": "Feldstraße" }, "geometry": { "type": "Point", "coordinates": [ 6.574448112726627, 51.319687347443583 ] } },
{ "type": "Feature", "properties": { "strassenschluessel": "05114000000070281", "bezeichnung": "Ferlingsweg" }, "geometry": { "type": "Point", "coordinates": [ 6.53495473259331, 51.318613239103072 ] } },
{ "type": "Feature", "properties": { "strassenschluessel": "05114000000070282", "bezeichnung": "Fichtenstraße" }, "geometry": { "type": "Point", "coordinates": [ 6.521357734351559, 51.306954996445775 ] } },
{ "type": "Feature", "properties": { "strassenschluessel": "05114000000070283", "bezeichnung": "Gustav-Fünders-Weg" }, "geometry": { "type": "Point", "coordinates": [ 6.504113838448241, 51.299082555156211 ] } },
{ "type": "Feature", "properties": { "strassenschluessel": "05114000000070284", "bezeichnung": "Flaaskamp" }, "geometry": { "type": "Point", "coordinates": [ 6.613920114575963, 51.32678585446105 ] } },
{ "type": "Feature", "properties": { "strassenschluessel": "05114000000070285", "bezeichnung": "Flensburger Zeile" }, "geometry": { "type": "Point", "coordinates": [ 6.63406977138251, 51.351323416231537 ] } },
{ "type": "Feature", "properties": { "strassenschluessel": "05114000000070286", "bezeichnung": "Fliederstraße" }, "geometry": { "type": "Point", "coordinates": [ 6.612345959350564, 51.343313239616123 ] } },
{ "type": "Feature", "properties": { "strassenschluessel": "05114000000070287", "bezeichnung": "Florastraße" }, "geometry": { "type": "Point", "coordinates": [ 6.580210772418909, 51.335039357148339 ] } },
{ "type": "Feature", "properties": { "strassenschluessel": "05114000000070288", "bezeichnung": "Floßstraße" }, "geometry": { "type": "Point", "coordinates": [ 6.654290237818648, 51.345271473905726 ] } },
{ "type": "Feature", "properties": { "strassenschluessel": "05114000000070289", "bezeichnung": "Flünnertzdyk" }, "geometry": { "type": "Point", "coordinates": [ 6.570440339274074, 51.369309718585178 ] } },
{ "type": "Feature", "properties": { "strassenschluessel": "05114000000070290", "bezeichnung": "Alte Flur" }, "geometry": { "type": "Point", "coordinates": [ 6.602236865147824, 51.326514261171425 ] } },
{ "type": "Feature", "properties": { "strassenschluessel": "05114000000070291", "bezeichnung": "Formerweg" }, "geometry": { "type": "Point", "coordinates": [ 6.53225862220822, 51.324380787176906 ] } },
{ "type": "Feature", "properties": { "strassenschluessel": "05114000000070292", "bezeichnung": "Forstwaldstraße" }, "geometry": { "type": "Point", "coordinates": [ 6.53801058636254, 51.320578098348513 ] } },
{ "type": "Feature", "properties": { "strassenschluessel": "05114000000070293", "bezeichnung": "Frankenring" }, "geometry": { "type": "Point", "coordinates": [ 6.552259723205746, 51.326554396868417 ] } },
{ "type": "Feature", "properties": { "strassenschluessel": "05114000000070294", "bezeichnung": "Franz-Hitze-Straße" }, "geometry": { "type": "Point", "coordinates": [ 6.586163745030583, 51.315649409360702 ] } },
{ "type": "Feature", "properties": { "strassenschluessel": "05114000000070295", "bezeichnung": "Franz-Stollwerck-Straße" }, "geometry": { "type": "Point", "coordinates": [ 6.646932492161187, 51.349384361792161 ] } },
{ "type": "Feature", "properties": { "strassenschluessel": "05114000000070296", "bezeichnung": "Freiheitsstraße" }, "geometry": { "type": "Point", "coordinates": [ 6.536451937338509, 51.319181204259856 ] } },
{ "type": "Feature", "properties": { "strassenschluessel": "05114000000070297", "bezeichnung": "Freiligrathstraße" }, "geometry": { "type": "Point", "coordinates": [ 6.57683396821268, 51.333729420074619 ] } },
{ "type": "Feature", "properties": { "strassenschluessel": "05114000000070298", "bezeichnung": "Freizeitanger" }, "geometry": { "type": "Point", "coordinates": [ 6.534588744549324, 51.320718243376305 ] } },
{ "type": "Feature", "properties": { "strassenschluessel": "05114000000070300", "bezeichnung": "Friedensstraße" }, "geometry": { "type": "Point", "coordinates": [ 6.636574156530155, 51.367673966033514 ] } },
{ "type": "Feature", "properties": { "strassenschluessel": "05114000000070301", "bezeichnung": "Friedlandstraße" }, "geometry": { "type": "Point", "coordinates": [ 6.627818365897413, 51.361909269561366 ] } },
{ "type": "Feature", "properties": { "strassenschluessel": "05114000000070302", "bezeichnung": "Friedrich-Ebert-Straße" }, "geometry": { "type": "Point", "coordinates": [ 6.584950274460363, 51.34237547991048 ] } },
{ "type": "Feature", "properties": { "strassenschluessel": "05114000000070303", "bezeichnung": "Friedrich-Fröbel-Straße" }, "geometry": { "type": "Point", "coordinates": [ 6.536942381531276, 51.3165140911265 ] } },
{ "type": "Feature", "properties": { "strassenschluessel": "05114000000070304", "bezeichnung": "Friedrichsplatz" }, "geometry": { "type": "Point", "coordinates": [ 6.559787045398783, 51.336292098451423 ] } },
{ "type": "Feature", "properties": { "strassenschluessel": "05114000000070305", "bezeichnung": "Friedrichstraße" }, "geometry": { "type": "Point", "coordinates": [ 6.560739912159764, 51.335724114136426 ] } },
{ "type": "Feature", "properties": { "strassenschluessel": "05114000000070306", "bezeichnung": "Friesenstraße" }, "geometry": { "type": "Point", "coordinates": [ 6.637167873930469, 51.35737185639811 ] } },
{ "type": "Feature", "properties": { "strassenschluessel": "05114000000070307", "bezeichnung": "Fuchspfad" }, "geometry": { "type": "Point", "coordinates": [ 6.604746919402618, 51.344920592265716 ] } },
{ "type": "Feature", "properties": { "strassenschluessel": "05114000000070308", "bezeichnung": "Fürstenbergstraße" }, "geometry": { "type": "Point", "coordinates": [ 6.535472076931891, 51.329183602061725 ] } },
{ "type": "Feature", "properties": { "strassenschluessel": "05114000000070309", "bezeichnung": "Fütingsweg" }, "geometry": { "type": "Point", "coordinates": [ 6.573104326947502, 51.320332436034406 ] } },
{ "type": "Feature", "properties": { "strassenschluessel": "05114000000070310", "bezeichnung": "Fungendonk" }, "geometry": { "type": "Point", "coordinates": [ 6.603706650899241, 51.316797870452099 ] } },
{ "type": "Feature", "properties": { "strassenschluessel": "05114000000070311", "bezeichnung": "Gabelsbergerstraße" }, "geometry": { "type": "Point", "coordinates": [ 6.546055240805611, 51.327403133181697 ] } },
{ "type": "Feature", "properties": { "strassenschluessel": "05114000000070312", "bezeichnung": "Gageldonk" }, "geometry": { "type": "Point", "coordinates": [ 6.610355141965186, 51.318251514904027 ] } },
{ "type": "Feature", "properties": { "strassenschluessel": "05114000000070313", "bezeichnung": "Gahlingspfad" }, "geometry": { "type": "Point", "coordinates": [ 6.564404430663823, 51.342005766676834 ] } },
{ "type": "Feature", "properties": { "strassenschluessel": "05114000000070315", "bezeichnung": "Garnstraße" }, "geometry": { "type": "Point", "coordinates": [ 6.560615073494144, 51.326720205624547 ] } },
{ "type": "Feature", "properties": { "strassenschluessel": "05114000000070316", "bezeichnung": "Gartenstraße" }, "geometry": { "type": "Point", "coordinates": [ 6.554893371178122, 51.333999831238955 ] } },
{ "type": "Feature", "properties": { "strassenschluessel": "05114000000070317", "bezeichnung": "Gastendonkstraße" }, "geometry": { "type": "Point", "coordinates": [ 6.536154014207095, 51.326246367691134 ] } },
{ "type": "Feature", "properties": { "strassenschluessel": "05114000000070318", "bezeichnung": "Gatherhofstraße" }, "geometry": { "type": "Point", "coordinates": [ 6.532196460630845, 51.327270944669507 ] } },
{ "type": "Feature", "properties": { "strassenschluessel": "05114000000070319", "bezeichnung": "Gatzenstraße" }, "geometry": { "type": "Point", "coordinates": [ 6.595351652674589, 51.365125654512923 ] } },
{ "type": "Feature", "properties": { "strassenschluessel": "05114000000070320", "bezeichnung": "Geldernsche Straße" }, "geometry": { "type": "Point", "coordinates": [ 6.551528800902509, 51.342738959107066 ] } },
{ "type": "Feature", "properties": { "strassenschluessel": "05114000000070321", "bezeichnung": "Gelleper Straße" }, "geometry": { "type": "Point", "coordinates": [ 6.670276197182783, 51.332892482908086 ] } },
{ "type": "Feature", "properties": { "strassenschluessel": "05114000000070322", "bezeichnung": "Gerberstraße" }, "geometry": { "type": "Point", "coordinates": [ 6.563895469676183, 51.325994384163103 ] } },
{ "type": "Feature", "properties": { "strassenschluessel": "05114000000070323", "bezeichnung": "Germaniastraße" }, "geometry": { "type": "Point", "coordinates": [ 6.588917570018078, 51.340515449574255 ] } },
{ "type": "Feature", "properties": { "strassenschluessel": "05114000000070324", "bezeichnung": "Gertrudisstraße" }, "geometry": { "type": "Point", "coordinates": [ 6.621769014102607, 51.347153230308017 ] } },
{ "type": "Feature", "properties": { "strassenschluessel": "05114000000070325", "bezeichnung": "Gertrud-Icks-Weg" }, "geometry": { "type": "Point", "coordinates": [ 6.500096193117363, 51.295331637983416 ] } },
{ "type": "Feature", "properties": { "strassenschluessel": "05114000000070326", "bezeichnung": "Giesenweg" }, "geometry": { "type": "Point", "coordinates": [ 6.604802308791916, 51.333281022222486 ] } },
{ "type": "Feature", "properties": { "strassenschluessel": "05114000000070327", "bezeichnung": "Gießerpfad" }, "geometry": { "type": "Point", "coordinates": [ 6.533213459049372, 51.321459824514527 ] } },
{ "type": "Feature", "properties": { "strassenschluessel": "05114000000070328", "bezeichnung": "Gilldonk" }, "geometry": { "type": "Point", "coordinates": [ 6.605316591058936, 51.318575265943736 ] } },
{ "type": "Feature", "properties": { "strassenschluessel": "05114000000070329", "bezeichnung": "Ginsterpfad" }, "geometry": { "type": "Point", "coordinates": [ 6.514624729958475, 51.30621832535958 ] } },
{ "type": "Feature", "properties": { "strassenschluessel": "05114000000070330", "bezeichnung": "Girmesdyk" }, "geometry": { "type": "Point", "coordinates": [ 6.55262673226913, 51.345210162013601 ] } },
{ "type": "Feature", "properties": { "strassenschluessel": "05114000000070331", "bezeichnung": "Girmesgath" }, "geometry": { "type": "Point", "coordinates": [ 6.54300088041093, 51.339778625432686 ] } },
{ "type": "Feature", "properties": { "strassenschluessel": "05114000000070332", "bezeichnung": "Gladbacher Straße" }, "geometry": { "type": "Point", "coordinates": [ 6.56322771912174, 51.323412223972525 ] } },
{ "type": "Feature", "properties": { "strassenschluessel": "05114000000070333", "bezeichnung": "Glindholzstraße" }, "geometry": { "type": "Point", "coordinates": [ 6.616087715924661, 51.334278661429607 ] } },
{ "type": "Feature", "properties": { "strassenschluessel": "05114000000070334", "bezeichnung": "Glockenspitz" }, "geometry": { "type": "Point", "coordinates": [ 6.590615089810102, 51.333808973089468 ] } },
{ "type": "Feature", "properties": { "strassenschluessel": "05114000000070335", "bezeichnung": "Gneisenaustraße" }, "geometry": { "type": "Point", "coordinates": [ 6.58699834275905, 51.339045899325782 ] } },
{ "type": "Feature", "properties": { "strassenschluessel": "05114000000070336", "bezeichnung": "Goethestraße" }, "geometry": { "type": "Point", "coordinates": [ 6.570299628591253, 51.340056025174697 ] } },
{ "type": "Feature", "properties": { "strassenschluessel": "05114000000070337", "bezeichnung": "Grafschaftsplatz" }, "geometry": { "type": "Point", "coordinates": [ 6.576061777866344, 51.347855670695104 ] } },
{ "type": "Feature", "properties": { "strassenschluessel": "05114000000070338", "bezeichnung": "Graudenzer Platz" }, "geometry": { "type": "Point", "coordinates": [ 6.638024993881151, 51.341543558673678 ] } },
{ "type": "Feature", "properties": { "strassenschluessel": "05114000000070339", "bezeichnung": "Greiffenhorst" }, "geometry": { "type": "Point", "coordinates": [ 6.652210144911869, 51.33520702393951 ] } },
{ "type": "Feature", "properties": { "strassenschluessel": "05114000000070340", "bezeichnung": "Grenzstraße" }, "geometry": { "type": "Point", "coordinates": [ 6.586877587468252, 51.3372854433049 ] } },
{ "type": "Feature", "properties": { "strassenschluessel": "05114000000070341", "bezeichnung": "Grevenbroicher Straße" }, "geometry": { "type": "Point", "coordinates": [ 6.575928237909291, 51.303766192984128 ] } },
{ "type": "Feature", "properties": { "strassenschluessel": "05114000000070342", "bezeichnung": "Gripswaldstraße" }, "geometry": { "type": "Point", "coordinates": [ 6.540939932742733, 51.321574102592635 ] } },
{ "type": "Feature", "properties": { "strassenschluessel": "05114000000070343", "bezeichnung": "Grönkesdyk" }, "geometry": { "type": "Point", "coordinates": [ 6.564013532353152, 51.346253845078436 ] } },
{ "type": "Feature", "properties": { "strassenschluessel": "05114000000070344", "bezeichnung": "Großer Ossumer Weg" }, "geometry": null },
{ "type": "Feature", "properties": { "strassenschluessel": "05114000000070345", "bezeichnung": "Grotenburgstraße" }, "geometry": { "type": "Point", "coordinates": [ 6.59638174580481, 51.343791881556371 ] } },
{ "type": "Feature", "properties": { "strassenschluessel": "05114000000070346", "bezeichnung": "Groten Donk" }, "geometry": { "type": "Point", "coordinates": [ 6.601539071454393, 51.315636591426561 ] } },
{ "type": "Feature", "properties": { "strassenschluessel": "05114000000070347", "bezeichnung": "Grüner Dyk" }, "geometry": { "type": "Point", "coordinates": [ 6.572781553791568, 51.347571695942641 ] } },
{ "type": "Feature", "properties": { "strassenschluessel": "05114000000070348", "bezeichnung": "Grüterhofweg" }, "geometry": { "type": "Point", "coordinates": [ 6.521729642066436, 51.347309935802592 ] } },
{ "type": "Feature", "properties": { "strassenschluessel": "05114000000070349", "bezeichnung": "Grundend" }, "geometry": { "type": "Point", "coordinates": [ 6.603788908706657, 51.301265447185862 ] } },
{ "type": "Feature", "properties": { "strassenschluessel": "05114000000070350", "bezeichnung": "Gubener Straße" }, "geometry": { "type": "Point", "coordinates": [ 6.624379369979777, 51.367257958259025 ] } },
{ "type": "Feature", "properties": { "strassenschluessel": "05114000000070352", "bezeichnung": "Gustav-Wilhelm-Straße" }, "geometry": { "type": "Point", "coordinates": [ 6.594397168313543, 51.335760795563289 ] } },
{ "type": "Feature", "properties": { "strassenschluessel": "05114000000070353", "bezeichnung": "Gutenbergplatz" }, "geometry": { "type": "Point", "coordinates": [ 6.544440574525283, 51.332758977887458 ] } },
{ "type": "Feature", "properties": { "strassenschluessel": "05114000000070354", "bezeichnung": "Gutenbergstraße" }, "geometry": { "type": "Point", "coordinates": [ 6.549419805207904, 51.335241052947445 ] } },
{ "type": "Feature", "properties": { "strassenschluessel": "05114000000070355", "bezeichnung": "Hämmerweg" }, "geometry": { "type": "Point", "coordinates": [ 6.589229765563151, 51.299055882287902 ] } },
{ "type": "Feature", "properties": { "strassenschluessel": "05114000000070356", "bezeichnung": "Hafelsstraße" }, "geometry": { "type": "Point", "coordinates": [ 6.599309026406461, 51.318231508976183 ] } },
{ "type": "Feature", "properties": { "strassenschluessel": "05114000000070357", "bezeichnung": "Hafenstraße" }, "geometry": { "type": "Point", "coordinates": [ 6.644446994681634, 51.336995137890021 ] } },
{ "type": "Feature", "properties": { "strassenschluessel": "05114000000070358", "bezeichnung": "Hagerweg" }, "geometry": { "type": "Point", "coordinates": [ 6.552552960729705, 51.32583948688454 ] } },
{ "type": "Feature", "properties": { "strassenschluessel": "05114000000070360", "bezeichnung": "Hammerschmidtplatz" }, "geometry": { "type": "Point", "coordinates": [ 6.550112912659735, 51.326778708767392 ] } },
{ "type": "Feature", "properties": { "strassenschluessel": "05114000000070361", "bezeichnung": "Hammerschmidtstraße" }, "geometry": { "type": "Point", "coordinates": [ 6.549778219347894, 51.326626679014986 ] } },
{ "type": "Feature", "properties": { "strassenschluessel": "05114000000070362", "bezeichnung": "Hammersteinstraße" }, "geometry": { "type": "Point", "coordinates": [ 6.58293380827048, 51.315762814480337 ] } },
{ "type": "Feature", "properties": { "strassenschluessel": "05114000000070363", "bezeichnung": "Hammerstraße" }, "geometry": { "type": "Point", "coordinates": [ 6.640205608956023, 51.33695782510587 ] } },
{ "type": "Feature", "properties": { "strassenschluessel": "05114000000070364", "bezeichnung": "Hanninxweg" }, "geometry": { "type": "Point", "coordinates": [ 6.580870119035912, 51.298230301110422 ] } },
{ "type": "Feature", "properties": { "strassenschluessel": "05114000000070365", "bezeichnung": "Hansastraße" }, "geometry": { "type": "Point", "coordinates": [ 6.573189317347543, 51.327946364639658 ] } },
{ "type": "Feature", "properties": { "strassenschluessel": "05114000000070366", "bezeichnung": "Hans-Böckler-Straße" }, "geometry": { "type": "Point", "coordinates": [ 6.608842791343434, 51.331268615123804 ] } },
{ "type": "Feature", "properties": { "strassenschluessel": "05114000000070367", "bezeichnung": "Hans-Böckler-Platz" }, "geometry": { "type": "Point", "coordinates": [ 6.609238935736497, 51.330842453767531 ] } },
{ "type": "Feature", "properties": { "strassenschluessel": "05114000000070368", "bezeichnung": "Hardenbergstraße" }, "geometry": { "type": "Point", "coordinates": [ 6.579137322918249, 51.331928498718213 ] } },
{ "type": "Feature", "properties": { "strassenschluessel": "05114000000070369", "bezeichnung": "Haselbuschweg" }, "geometry": { "type": "Point", "coordinates": [ 6.512386641827383, 51.309230008127393 ] } },
{ "type": "Feature", "properties": { "strassenschluessel": "05114000000070370", "bezeichnung": "Haseldonk" }, "geometry": { "type": "Point", "coordinates": [ 6.609246164461937, 51.318875510287825 ] } },
{ "type": "Feature", "properties": { "strassenschluessel": "05114000000070371", "bezeichnung": "Hasenbend" }, "geometry": { "type": "Point", "coordinates": [ 6.605314850136018, 51.333076170920599 ] } },
{ "type": "Feature", "properties": { "strassenschluessel": "05114000000070372", "bezeichnung": "Hauptstraße" }, "geometry": { "type": "Point", "coordinates": [ 6.622577291385157, 51.321049424838264 ] } },
{ "type": "Feature", "properties": { "strassenschluessel": "05114000000070373", "bezeichnung": "Hausbend" }, "geometry": { "type": "Point", "coordinates": [ 6.624842250971085, 51.335494825518154 ] } },
{ "type": "Feature", "properties": { "strassenschluessel": "05114000000070374", "bezeichnung": "Hausweberstraße" }, "geometry": { "type": "Point", "coordinates": [ 6.588847199427502, 51.300040994801677 ] } },
{ "type": "Feature", "properties": { "strassenschluessel": "05114000000070375", "bezeichnung": "Haverkamp" }, "geometry": { "type": "Point", "coordinates": [ 6.607863076053964, 51.326372024802218 ] } },
{ "type": "Feature", "properties": { "strassenschluessel": "05114000000070376", "bezeichnung": "Haydnstraße" }, "geometry": { "type": "Point", "coordinates": [ 6.586368242217398, 51.34311814676537 ] } },
{ "type": "Feature", "properties": { "strassenschluessel": "05114000000070377", "bezeichnung": "Heckenpfad" }, "geometry": { "type": "Point", "coordinates": [ 6.531202320526775, 51.316212229298564 ] } },
{ "type": "Feature", "properties": { "strassenschluessel": "05114000000070378", "bezeichnung": "Heckschenstraße" }, "geometry": { "type": "Point", "coordinates": [ 6.620855200978896, 51.322155783315552 ] } },
{ "type": "Feature", "properties": { "strassenschluessel": "05114000000070379", "bezeichnung": "Hees" }, "geometry": { "type": "Point", "coordinates": [ 6.593075676755969, 51.302885911355233 ] } },
{ "type": "Feature", "properties": { "strassenschluessel": "05114000000070380", "bezeichnung": "Heidbergsweg" }, "geometry": { "type": "Point", "coordinates": [ 6.680731144043785, 51.324422393796517 ] } },
{ "type": "Feature", "properties": { "strassenschluessel": "05114000000070381", "bezeichnung": "Heideckstraße" }, "geometry": { "type": "Point", "coordinates": [ 6.552332502370813, 51.316312822385541 ] } },
{ "type": "Feature", "properties": { "strassenschluessel": "05114000000070382", "bezeichnung": "Heidedyk" }, "geometry": { "type": "Point", "coordinates": [ 6.573348709339215, 51.364002262780168 ] } },
{ "type": "Feature", "properties": { "strassenschluessel": "05114000000070383", "bezeichnung": "Heideweg" }, "geometry": { "type": "Point", "coordinates": [ 6.537889083530835, 51.296078905183641 ] } },
{ "type": "Feature", "properties": { "strassenschluessel": "05114000000070384", "bezeichnung": "Heiligenweg" }, "geometry": null },
{ "type": "Feature", "properties": { "strassenschluessel": "05114000000070385", "bezeichnung": "Heimatplan" }, "geometry": { "type": "Point", "coordinates": [ 6.532511844398488, 51.322079308610576 ] } },
{ "type": "Feature", "properties": { "strassenschluessel": "05114000000070386", "bezeichnung": "Heimendahlstraße" }, "geometry": { "type": "Point", "coordinates": [ 6.543292817685503, 51.342642148734818 ] } },
{ "type": "Feature", "properties": { "strassenschluessel": "05114000000070387", "bezeichnung": "Heimweg" }, "geometry": { "type": "Point", "coordinates": [ 6.570761839921002, 51.350984796427973 ] } },
{ "type": "Feature", "properties": { "strassenschluessel": "05114000000070388", "bezeichnung": "Heinrich-Doergens-Str." }, "geometry": { "type": "Point", "coordinates": [ 6.594882393163298, 51.376197622667 ] } },
{ "type": "Feature", "properties": { "strassenschluessel": "05114000000070389", "bezeichnung": "Heinrich-Kauert-Weg" }, "geometry": { "type": "Point", "coordinates": [ 6.578382459860668, 51.344539606101399 ] } },
{ "type": "Feature", "properties": { "strassenschluessel": "05114000000070390", "bezeichnung": "Heinrichsplatz" }, "geometry": { "type": "Point", "coordinates": [ 6.644586796762079, 51.360920143833518 ] } },
{ "type": "Feature", "properties": { "strassenschluessel": "05114000000070391", "bezeichnung": "Heinrich-Theißen-Straße" }, "geometry": { "type": "Point", "coordinates": [ 6.641740092321583, 51.361083301210371 ] } },
{ "type": "Feature", "properties": { "strassenschluessel": "05114000000070392", "bezeichnung": "Heisterdonk" }, "geometry": { "type": "Point", "coordinates": [ 6.610256196686229, 51.320324749511478 ] } },
{ "type": "Feature", "properties": { "strassenschluessel": "05114000000070393", "bezeichnung": "Helgoländer Steig" }, "geometry": { "type": "Point", "coordinates": [ 6.632590801046251, 51.351595214831029 ] } },
{ "type": "Feature", "properties": { "strassenschluessel": "05114000000070394", "bezeichnung": "Helmuth-Macke-Straße" }, "geometry": { "type": "Point", "coordinates": [ 6.603979839065145, 51.352441479629924 ] } },
{ "type": "Feature", "properties": { "strassenschluessel": "05114000000070395", "bezeichnung": "Henoumontweg" }, "geometry": null },
{ "type": "Feature", "properties": { "strassenschluessel": "05114000000070396", "bezeichnung": "Hentrichstraße" }, "geometry": { "type": "Point", "coordinates": [ 6.669849633344855, 51.342735598570535 ] } },
{ "type": "Feature", "properties": { "strassenschluessel": "05114000000070397", "bezeichnung": "Herbertzstraße" }, "geometry": { "type": "Point", "coordinates": [ 6.595698810400528, 51.327314245227925 ] } },
{ "type": "Feature", "properties": { "strassenschluessel": "05114000000070398", "bezeichnung": "Herderstraße" }, "geometry": { "type": "Point", "coordinates": [ 6.571005660523983, 51.339750219141138 ] } },
{ "type": "Feature", "properties": { "strassenschluessel": "05114000000070399", "bezeichnung": "Hermann-Schumacher-Str." }, "geometry": { "type": "Point", "coordinates": [ 6.502925993989956, 51.296994448892512 ] } },
{ "type": "Feature", "properties": { "strassenschluessel": "05114000000070400", "bezeichnung": "Hermannstraße" }, "geometry": { "type": "Point", "coordinates": [ 6.551482354180465, 51.324376266364901 ] } },
{ "type": "Feature", "properties": { "strassenschluessel": "05114000000070401", "bezeichnung": "Hessenstraße" }, "geometry": { "type": "Point", "coordinates": [ 6.631401656782091, 51.337077060200293 ] } },
{ "type": "Feature", "properties": { "strassenschluessel": "05114000000070402", "bezeichnung": "Heulesheimer Straße" }, "geometry": { "type": "Point", "coordinates": [ 6.66677250700659, 51.326292244195436 ] } },
{ "type": "Feature", "properties": { "strassenschluessel": "05114000000070403", "bezeichnung": "Heydweillerweg" }, "geometry": null },
{ "type": "Feature", "properties": { "strassenschluessel": "05114000000070404", "bezeichnung": "Heyenbaumstraße" }, "geometry": { "type": "Point", "coordinates": [ 6.582222351487231, 51.361219457444662 ] } },
{ "type": "Feature", "properties": { "strassenschluessel": "05114000000070405", "bezeichnung": "Heyenfeldweg" }, "geometry": { "type": "Point", "coordinates": [ 6.575738095269879, 51.362722636160832 ] } },
{ "type": "Feature", "properties": { "strassenschluessel": "05114000000070406", "bezeichnung": "Heyes-Kirchweg" }, "geometry": { "type": "Point", "coordinates": [ 6.592122916688584, 51.305503212965831 ] } },
{ "type": "Feature", "properties": { "strassenschluessel": "05114000000070407", "bezeichnung": "Hinsbecker Straße" }, "geometry": { "type": "Point", "coordinates": [ 6.528500430727518, 51.323912796694017 ] } },
{ "type": "Feature", "properties": { "strassenschluessel": "05114000000070408", "bezeichnung": "Hinter Flur" }, "geometry": { "type": "Point", "coordinates": [ 6.602904554501983, 51.325648520353084 ] } },
{ "type": "Feature", "properties": { "strassenschluessel": "05114000000070409", "bezeichnung": "Hinter Neuburgshof" }, "geometry": { "type": "Point", "coordinates": [ 6.592241264623071, 51.297153248112693 ] } },
{ "type": "Feature", "properties": { "strassenschluessel": "05114000000070410", "bezeichnung": "Hinter Schönhausen" }, "geometry": { "type": "Point", "coordinates": [ 6.603397243567663, 51.344368677210824 ] } },
{ "type": "Feature", "properties": { "strassenschluessel": "05114000000070411", "bezeichnung": "Hinter Sollbrüggen" }, "geometry": { "type": "Point", "coordinates": [ 6.606846468369592, 51.34496012537911 ] } },
{ "type": "Feature", "properties": { "strassenschluessel": "05114000000070412", "bezeichnung": "Hirschgasse" }, "geometry": { "type": "Point", "coordinates": [ 6.563977885649544, 51.333120791170764 ] } },
{ "type": "Feature", "properties": { "strassenschluessel": "05114000000070413", "bezeichnung": "Hochbendweg" }, "geometry": { "type": "Point", "coordinates": [ 6.508182003700553, 51.30616376707475 ] } },
{ "type": "Feature", "properties": { "strassenschluessel": "05114000000070414", "bezeichnung": "Hochfelder Straße" }, "geometry": { "type": "Point", "coordinates": [ 6.609602640143685, 51.328520026199548 ] } },
{ "type": "Feature", "properties": { "strassenschluessel": "05114000000070415", "bezeichnung": "Hochstadenstraße" }, "geometry": { "type": "Point", "coordinates": [ 6.643867076199057, 51.362117949857399 ] } },
{ "type": "Feature", "properties": { "strassenschluessel": "05114000000070416", "bezeichnung": "Hochstraße" }, "geometry": { "type": "Point", "coordinates": [ 6.562458888539349, 51.331965744520481 ] } },
{ "type": "Feature", "properties": { "strassenschluessel": "05114000000070417", "bezeichnung": "Höhweg" }, "geometry": null },
{ "type": "Feature", "properties": { "strassenschluessel": "05114000000070418", "bezeichnung": "Hökendyk" }, "geometry": { "type": "Point", "coordinates": [ 6.555264493292, 51.353215012336172 ] } },
{ "type": "Feature", "properties": { "strassenschluessel": "05114000000070419", "bezeichnung": "Höppnerstraße" }, "geometry": { "type": "Point", "coordinates": [ 6.619922474001452, 51.338137022761522 ] } },
{ "type": "Feature", "properties": { "strassenschluessel": "05114000000070420", "bezeichnung": "Hoestenhofweg" }, "geometry": { "type": "Point", "coordinates": [ 6.589419890077629, 51.298365623118379 ] } },
{ "type": "Feature", "properties": { "strassenschluessel": "05114000000070421", "bezeichnung": "Hoeninghausstraße" }, "geometry": { "type": "Point", "coordinates": [ 6.620850418472157, 51.33932548343877 ] } },
{ "type": "Feature", "properties": { "strassenschluessel": "05114000000070422", "bezeichnung": "Hofstraße" }, "geometry": { "type": "Point", "coordinates": [ 6.554100058004565, 51.338304822024838 ] } },
{ "type": "Feature", "properties": { "strassenschluessel": "05114000000070423", "bezeichnung": "Hohe Linden" }, "geometry": { "type": "Point", "coordinates": [ 6.575153090430005, 51.354740050957773 ] } },
{ "type": "Feature", "properties": { "strassenschluessel": "05114000000070424", "bezeichnung": "Hohenbudberger Straße" }, "geometry": { "type": "Point", "coordinates": [ 6.652208954462736, 51.361165744937971 ] } },
{ "type": "Feature", "properties": { "strassenschluessel": "05114000000070425", "bezeichnung": "Hohen Dyk" }, "geometry": { "type": "Point", "coordinates": [ 6.572014564463077, 51.35684241946921 ] } },
{ "type": "Feature", "properties": { "strassenschluessel": "05114000000070426", "bezeichnung": "Hohenzollernstraße" }, "geometry": { "type": "Point", "coordinates": [ 6.577305948990578, 51.345224431595213 ] } },
{ "type": "Feature", "properties": { "strassenschluessel": "05114000000070427", "bezeichnung": "Hohlweg" }, "geometry": { "type": "Point", "coordinates": [ 6.533253600454112, 51.387988615136237 ] } },
{ "type": "Feature", "properties": { "strassenschluessel": "05114000000070428", "bezeichnung": "Hollerdonk" }, "geometry": { "type": "Point", "coordinates": [ 6.608755776621504, 51.317839652553438 ] } },
{ "type": "Feature", "properties": { "strassenschluessel": "05114000000070429", "bezeichnung": "Holunderpfad" }, "geometry": { "type": "Point", "coordinates": [ 6.510230230409237, 51.309213207425415 ] } },
{ "type": "Feature", "properties": { "strassenschluessel": "05114000000070430", "bezeichnung": "Holsteinstraße" }, "geometry": { "type": "Point", "coordinates": [ 6.54252782454964, 51.331661441227816 ] } },
{ "type": "Feature", "properties": { "strassenschluessel": "05114000000070431", "bezeichnung": "Homberger Straße" }, "geometry": { "type": "Point", "coordinates": [ 6.53023295042654, 51.319951093880199 ] } },
{ "type": "Feature", "properties": { "strassenschluessel": "05114000000070432", "bezeichnung": "Horkesgath" }, "geometry": { "type": "Point", "coordinates": [ 6.529079117544183, 51.33700057656494 ] } },
{ "type": "Feature", "properties": { "strassenschluessel": "05114000000070433", "bezeichnung": "Horstdyk" }, "geometry": { "type": "Point", "coordinates": [ 6.544928275999047, 51.351660218259013 ] } },
{ "type": "Feature", "properties": { "strassenschluessel": "05114000000070434", "bezeichnung": "Hubertusstraße" }, "geometry": { "type": "Point", "coordinates": [ 6.554400212379515, 51.336585862095617 ] } },
{ "type": "Feature", "properties": { "strassenschluessel": "05114000000070435", "bezeichnung": "Hückelsmaystraße" }, "geometry": { "type": "Point", "coordinates": [ 6.533188712681436, 51.297380539987259 ] } },
{ "type": "Feature", "properties": { "strassenschluessel": "05114000000070436", "bezeichnung": "Hülser Straße" }, "geometry": { "type": "Point", "coordinates": [ 6.538016807461996, 51.350132903836432 ] } },
{ "type": "Feature", "properties": { "strassenschluessel": "05114000000070437", "bezeichnung": "Hüskesdyk" }, "geometry": null },
{ "type": "Feature", "properties": { "strassenschluessel": "05114000000070438", "bezeichnung": "Hüttenallee" }, "geometry": { "type": "Point", "coordinates": [ 6.583403467899067, 51.350646159060169 ] } },
{ "type": "Feature", "properties": { "strassenschluessel": "05114000000070439", "bezeichnung": "Hüttensteig" }, "geometry": { "type": "Point", "coordinates": [ 6.53418634566901, 51.323916100622547 ] } },
{ "type": "Feature", "properties": { "strassenschluessel": "05114000000070440", "bezeichnung": "Hulterkamp" }, "geometry": { "type": "Point", "coordinates": [ 6.581030550654625, 51.300285602217606 ] } },
{ "type": "Feature", "properties": { "strassenschluessel": "05114000000070441", "bezeichnung": "Humboldtstraße" }, "geometry": { "type": "Point", "coordinates": [ 6.568982922589933, 51.342503213486339 ] } },
{ "type": "Feature", "properties": { "strassenschluessel": "05114000000070442", "bezeichnung": "Hunzingerstraße" }, "geometry": { "type": "Point", "coordinates": [ 6.581920616855738, 51.339232775456168 ] } },
{ "type": "Feature", "properties": { "strassenschluessel": "05114000000070443", "bezeichnung": "Husarenallee" }, "geometry": { "type": "Point", "coordinates": [ 6.576093132655604, 51.349296413199085 ] } },
{ "type": "Feature", "properties": { "strassenschluessel": "05114000000070444", "bezeichnung": "Ibelskathweg" }, "geometry": { "type": "Point", "coordinates": [ 6.524481623128039, 51.322343823650719 ] } },
{ "type": "Feature", "properties": { "strassenschluessel": "05114000000070445", "bezeichnung": "Idastraße" }, "geometry": { "type": "Point", "coordinates": [ 6.629467050775212, 51.337704839514593 ] } },
{ "type": "Feature", "properties": { "strassenschluessel": "05114000000070446", "bezeichnung": "Illerstraße" }, "geometry": { "type": "Point", "coordinates": [ 6.597397931167219, 51.318521704365772 ] } },
{ "type": "Feature", "properties": { "strassenschluessel": "05114000000070447", "bezeichnung": "Iltisweg" }, "geometry": { "type": "Point", "coordinates": [ 6.603803230852021, 51.345880956562276 ] } },
{ "type": "Feature", "properties": { "strassenschluessel": "05114000000070448", "bezeichnung": "Im Benrader Feld" }, "geometry": { "type": "Point", "coordinates": [ 6.538058730511646, 51.306264312227356 ] } },
{ "type": "Feature", "properties": { "strassenschluessel": "05114000000070449", "bezeichnung": "Im Heggelsfeld" }, "geometry": { "type": "Point", "coordinates": [ 6.591097029184015, 51.373241532872719 ] } },
{ "type": "Feature", "properties": { "strassenschluessel": "05114000000070450", "bezeichnung": "Im Heimgarten" }, "geometry": { "type": "Point", "coordinates": [ 6.606743368538355, 51.335973472719296 ] } },
{ "type": "Feature", "properties": { "strassenschluessel": "05114000000070451", "bezeichnung": "Immenhofweg" }, "geometry": { "type": "Point", "coordinates": [ 6.570774942235686, 51.350077807633511 ] } },
{ "type": "Feature", "properties": { "strassenschluessel": "05114000000070452", "bezeichnung": "Im Siedlergarten" }, "geometry": { "type": "Point", "coordinates": [ 6.566341845594698, 51.311661968309181 ] } },
{ "type": "Feature", "properties": { "strassenschluessel": "05114000000070453", "bezeichnung": "Im Stillen Winkel" }, "geometry": { "type": "Point", "coordinates": [ 6.501051051683185, 51.298492305489518 ] } },
{ "type": "Feature", "properties": { "strassenschluessel": "05114000000070454", "bezeichnung": "Im Tackfeld" }, "geometry": { "type": "Point", "coordinates": [ 6.537534605021151, 51.312188127532018 ] } },
{ "type": "Feature", "properties": { "strassenschluessel": "05114000000070455", "bezeichnung": "Im Talacker" }, "geometry": { "type": "Point", "coordinates": [ 6.627996501724641, 51.358686824792308 ] } },
{ "type": "Feature", "properties": { "strassenschluessel": "05114000000070456", "bezeichnung": "Im Witschen" }, "geometry": { "type": "Point", "coordinates": [ 6.591755228741113, 51.319426093405731 ] } },
{ "type": "Feature", "properties": { "strassenschluessel": "05114000000070457", "bezeichnung": "In der Elt" }, "geometry": { "type": "Point", "coordinates": [ 6.660746391806999, 51.332399788182748 ] } },
{ "type": "Feature", "properties": { "strassenschluessel": "05114000000070458", "bezeichnung": "Industriestraße" }, "geometry": { "type": "Point", "coordinates": [ 6.549674903331748, 51.342200848647792 ] } },
{ "type": "Feature", "properties": { "strassenschluessel": "05114000000070459", "bezeichnung": "Innsbrucker Straße" }, "geometry": { "type": "Point", "coordinates": [ 6.571896975505567, 51.311504356202875 ] } },
{ "type": "Feature", "properties": { "strassenschluessel": "05114000000070460", "bezeichnung": "Inrather Straße" }, "geometry": { "type": "Point", "coordinates": [ 6.546814348701355, 51.347085299567517 ] } },
{ "type": "Feature", "properties": { "strassenschluessel": "05114000000070461", "bezeichnung": "Insterburger Platz" }, "geometry": { "type": "Point", "coordinates": [ 6.614727614028874, 51.363535885018301 ] } },
{ "type": "Feature", "properties": { "strassenschluessel": "05114000000070462", "bezeichnung": "Irmgardisweg" }, "geometry": { "type": "Point", "coordinates": [ 6.631820676231269, 51.356882200861577 ] } },
{ "type": "Feature", "properties": { "strassenschluessel": "05114000000070463", "bezeichnung": "Isarstraße" }, "geometry": { "type": "Point", "coordinates": [ 6.597835662935959, 51.320198935127031 ] } },
{ "type": "Feature", "properties": { "strassenschluessel": "05114000000070464", "bezeichnung": "Ispelsstraße" }, "geometry": { "type": "Point", "coordinates": [ 6.559043228265964, 51.320512220023232 ] } },
{ "type": "Feature", "properties": { "strassenschluessel": "05114000000070465", "bezeichnung": "Issumer Straße" }, "geometry": { "type": "Point", "coordinates": [ 6.638502912480994, 51.333642222423386 ] } },
{ "type": "Feature", "properties": { "strassenschluessel": "05114000000070466", "bezeichnung": "Jägerstraße" }, "geometry": { "type": "Point", "coordinates": [ 6.551264834231493, 51.330101470757533 ] } },
{ "type": "Feature", "properties": { "strassenschluessel": "05114000000070467", "bezeichnung": "Scheutenstraße" }, "geometry": { "type": "Point", "coordinates": [ 6.56293306751036, 51.329792289542553 ] } },
{ "type": "Feature", "properties": { "strassenschluessel": "05114000000070468", "bezeichnung": "Jeerschtekamp" }, "geometry": { "type": "Point", "coordinates": [ 6.611046283140644, 51.326087198692775 ] } },
{ "type": "Feature", "properties": { "strassenschluessel": "05114000000070469", "bezeichnung": "Jentgesallee" }, "geometry": { "type": "Point", "coordinates": [ 6.583057629518628, 51.342719746062357 ] } },
{ "type": "Feature", "properties": { "strassenschluessel": "05114000000070470", "bezeichnung": "Joachimstraße" }, "geometry": { "type": "Point", "coordinates": [ 6.553417172654116, 51.344987978569435 ] } },
{ "type": "Feature", "properties": { "strassenschluessel": "05114000000070471", "bezeichnung": "Konrad-Adenauer-Platz" }, "geometry": { "type": "Point", "coordinates": [ 6.544618137289901, 51.339745119245222 ] } },
{ "type": "Feature", "properties": { "strassenschluessel": "05114000000070472", "bezeichnung": "Johannes-Heynen-Straße" }, "geometry": { "type": "Point", "coordinates": [ 6.596555040026443, 51.347011091595391 ] } },
{ "type": "Feature", "properties": { "strassenschluessel": "05114000000070473", "bezeichnung": "Johannesplatz" }, "geometry": { "type": "Point", "coordinates": [ 6.568939794652955, 51.319028759857083 ] } },
{ "type": "Feature", "properties": { "strassenschluessel": "05114000000070474", "bezeichnung": "Johannesstraße" }, "geometry": { "type": "Point", "coordinates": [ 6.570867000585811, 51.319879511615127 ] } },
{ "type": "Feature", "properties": { "strassenschluessel": "05114000000070475", "bezeichnung": "Johansenaue" }, "geometry": { "type": "Point", "coordinates": [ 6.605783616748201, 51.335896640696483 ] } },
{ "type": "Feature", "properties": { "strassenschluessel": "05114000000070476", "bezeichnung": "Johansenweg" }, "geometry": null },
{ "type": "Feature", "properties": { "strassenschluessel": "05114000000070477", "bezeichnung": "Joseph-Görres-Straße" }, "geometry": { "type": "Point", "coordinates": [ 6.647191683403152, 51.352569930352175 ] } },
{ "type": "Feature", "properties": { "strassenschluessel": "05114000000070478", "bezeichnung": "An der Josefkirche" }, "geometry": { "type": "Point", "coordinates": [ 6.557051760979464, 51.327447586928933 ] } },
{ "type": "Feature", "properties": { "strassenschluessel": "05114000000070479", "bezeichnung": "Jungfernweg" }, "geometry": { "type": "Point", "coordinates": [ 6.565431687551854, 51.335754519498749 ] } },
{ "type": "Feature", "properties": { "strassenschluessel": "05114000000070480", "bezeichnung": "Kaiserplatz" }, "geometry": { "type": "Point", "coordinates": [ 6.589901680367677, 51.3431279971145 ] } },
{ "type": "Feature", "properties": { "strassenschluessel": "05114000000070481", "bezeichnung": "Kaiserstraße" }, "geometry": { "type": "Point", "coordinates": [ 6.594079263101754, 51.336233583051204 ] } },
{ "type": "Feature", "properties": { "strassenschluessel": "05114000000070482", "bezeichnung": "Kaiserswerther Straße" }, "geometry": { "type": "Point", "coordinates": [ 6.666579765740475, 51.331995557001697 ] } },
{ "type": "Feature", "properties": { "strassenschluessel": "05114000000070485", "bezeichnung": "Kaldenkirchener Straße" }, "geometry": { "type": "Point", "coordinates": [ 6.528378295376469, 51.318519144952752 ] } },
{ "type": "Feature", "properties": { "strassenschluessel": "05114000000070486", "bezeichnung": "Kallenstraße" }, "geometry": { "type": "Point", "coordinates": [ 6.598444579337126, 51.333142547599913 ] } },
{ "type": "Feature", "properties": { "strassenschluessel": "05114000000070487", "bezeichnung": "Kampstraße" }, "geometry": { "type": "Point", "coordinates": [ 6.630237849519842, 51.360362786953559 ] } },
{ "type": "Feature", "properties": { "strassenschluessel": "05114000000070488", "bezeichnung": "Kapellenstraße" }, "geometry": { "type": "Point", "coordinates": [ 6.579463020300831, 51.314278705545568 ] } },
{ "type": "Feature", "properties": { "strassenschluessel": "05114000000070489", "bezeichnung": "Karl-Hügel-Straße" }, "geometry": { "type": "Point", "coordinates": [ 6.595241163624889, 51.343963273329919 ] } },
{ "type": "Feature", "properties": { "strassenschluessel": "05114000000070490", "bezeichnung": "Karlsplatz" }, "geometry": { "type": "Point", "coordinates": [ 6.559407143287549, 51.329751743330924 ] } },
{ "type": "Feature", "properties": { "strassenschluessel": "05114000000070491", "bezeichnung": "Kastanienstraße" }, "geometry": { "type": "Point", "coordinates": [ 6.641836860304597, 51.361923742633593 ] } },
{ "type": "Feature", "properties": { "strassenschluessel": "05114000000070492", "bezeichnung": "Kathreinerstraße" }, "geometry": { "type": "Point", "coordinates": [ 6.648759140586206, 51.363138903932807 ] } },
{ "type": "Feature", "properties": { "strassenschluessel": "05114000000070493", "bezeichnung": "Kemmerhofstraße" }, "geometry": { "type": "Point", "coordinates": [ 6.602833751392825, 51.380645752324817 ] } },
{ "type": "Feature", "properties": { "strassenschluessel": "05114000000070494", "bezeichnung": "Kempener Allee" }, "geometry": { "type": "Point", "coordinates": [ 6.524161254939673, 51.34484440106705 ] } },
{ "type": "Feature", "properties": { "strassenschluessel": "05114000000070495", "bezeichnung": "Kesselplatz" }, "geometry": { "type": "Point", "coordinates": [ 6.622258715237975, 51.335360370874859 ] } },
{ "type": "Feature", "properties": { "strassenschluessel": "05114000000070496", "bezeichnung": "Keussenstraße" }, "geometry": { "type": "Point", "coordinates": [ 6.542714025027305, 51.336715994197021 ] } },
{ "type": "Feature", "properties": { "strassenschluessel": "05114000000070497", "bezeichnung": "Keutmannstraße" }, "geometry": { "type": "Point", "coordinates": [ 6.620008325242686, 51.34304572479995 ] } },
{ "type": "Feature", "properties": { "strassenschluessel": "05114000000070498", "bezeichnung": "Kiefernweg" }, "geometry": { "type": "Point", "coordinates": [ 6.613539819037783, 51.365177830513453 ] } },