{
"type": "FeatureCollection",
"features": [
{ "type": "Feature", "properties": { "strassenschluessel": "05358000003206000", "bezeichnung": "Alte Kirchstr." }, "geometry": { "type": "Point", "coordinates": [ 6.35898151753085, 50.817093269674736 ] } },
{ "type": "Feature", "properties": { "strassenschluessel": "05358000003206001", "bezeichnung": "Am Wehebach" }, "geometry": { "type": "Point", "coordinates": [ 6.364998474581027, 50.819135863259923 ] } },
{ "type": "Feature", "properties": { "strassenschluessel": "05358000003206002", "bezeichnung": "Apolloniastr." }, "geometry": { "type": "Point", "coordinates": [ 6.352889459069062, 50.81762156709722 ] } },
{ "type": "Feature", "properties": { "strassenschluessel": "05358000003206003", "bezeichnung": "Auf dem Hiebchen" }, "geometry": { "type": "Point", "coordinates": [ 6.355546013399002, 50.815652578154022 ] } },
{ "type": "Feature", "properties": { "strassenschluessel": "05358000003206004", "bezeichnung": "Auf den Kämpen" }, "geometry": { "type": "Point", "coordinates": [ 6.357541801771534, 50.819211095850712 ] } },
{ "type": "Feature", "properties": { "strassenschluessel": "05358000003206005", "bezeichnung": "Bahnhofsplatz" }, "geometry": { "type": "Point", "coordinates": [ 6.356164565804117, 50.816877167613974 ] } },
{ "type": "Feature", "properties": { "strassenschluessel": "05358000003206006", "bezeichnung": "Bergstr." }, "geometry": { "type": "Point", "coordinates": [ 6.352488390145768, 50.819474276753212 ] } },
{ "type": "Feature", "properties": { "strassenschluessel": "05358000003206007", "bezeichnung": "Burg Frenz" }, "geometry": { "type": "Point", "coordinates": [ 6.342812665341286, 50.82982257883134 ] } },
{ "type": "Feature", "properties": { "strassenschluessel": "05358000003206008", "bezeichnung": "Dechant-Kallen-Str." }, "geometry": { "type": "Point", "coordinates": [ 6.353859122462951, 50.815245424471094 ] } },
{ "type": "Feature", "properties": { "strassenschluessel": "05358000003206009", "bezeichnung": "Florastr." }, "geometry": { "type": "Point", "coordinates": [ 6.363391887804323, 50.819111211777098 ] } },
{ "type": "Feature", "properties": { "strassenschluessel": "05358000003206010", "bezeichnung": "Grüner Weg" }, "geometry": { "type": "Point", "coordinates": [ 6.357091850682698, 50.821241364669 ] } },
{ "type": "Feature", "properties": { "strassenschluessel": "05358000003206011", "bezeichnung": "Hans-Böckler-Str." }, "geometry": { "type": "Point", "coordinates": [ 6.349623932920624, 50.814726037718678 ] } },
{ "type": "Feature", "properties": { "strassenschluessel": "05358000003206012", "bezeichnung": "Hauptstr." }, "geometry": { "type": "Point", "coordinates": [ 6.36095626486926, 50.817577993894773 ] } },
{ "type": "Feature", "properties": { "strassenschluessel": "05358000003206013", "bezeichnung": "Hausbuschgasse" }, "geometry": { "type": "Point", "coordinates": [ 6.355582142284576, 50.819036398074473 ] } },
{ "type": "Feature", "properties": { "strassenschluessel": "05358000003206014", "bezeichnung": "Gut Merberich" }, "geometry": { "type": "Point", "coordinates": [ 6.343678867513304, 50.817844203206995 ] } },
{ "type": "Feature", "properties": { "strassenschluessel": "05358000003206015", "bezeichnung": "Hülsenbergstr." }, "geometry": { "type": "Point", "coordinates": [ 6.351400722624306, 50.815707728262993 ] } },
{ "type": "Feature", "properties": { "strassenschluessel": "05358000003206016", "bezeichnung": "Hirkenweg" }, "geometry": { "type": "Point", "coordinates": [ 6.361095016652514, 50.815466848287322 ] } },
{ "type": "Feature", "properties": { "strassenschluessel": "05358000003206017", "bezeichnung": "Hospitalstr." }, "geometry": { "type": "Point", "coordinates": [ 6.361503668048398, 50.819001120093318 ] } },
{ "type": "Feature", "properties": { "strassenschluessel": "05358000003206018", "bezeichnung": "In der Peitsch" }, "geometry": { "type": "Point", "coordinates": [ 6.354815241458139, 50.81628701208809 ] } },
{ "type": "Feature", "properties": { "strassenschluessel": "05358000003206019", "bezeichnung": "Johannes-Haack-Str." }, "geometry": { "type": "Point", "coordinates": [ 6.362613126186506, 50.819517258803337 ] } },
{ "type": "Feature", "properties": { "strassenschluessel": "05358000003206020", "bezeichnung": "Karl-Arnold-Str." }, "geometry": { "type": "Point", "coordinates": [ 6.348275643706938, 50.814874808276727 ] } },
{ "type": "Feature", "properties": { "strassenschluessel": "05358000003206021", "bezeichnung": "Luchemer Str." }, "geometry": { "type": "Point", "coordinates": [ 6.360638502403793, 50.818878837913424 ] } },
{ "type": "Feature", "properties": { "strassenschluessel": "05358000003206022", "bezeichnung": "Maarweg" }, "geometry": { "type": "Point", "coordinates": [ 6.356523970624554, 50.82232812115339 ] } },
{ "type": "Feature", "properties": { "strassenschluessel": "05358000003206023", "bezeichnung": "Margaretenstr." }, "geometry": { "type": "Point", "coordinates": [ 6.353041372235422, 50.815375554534533 ] } },
{ "type": "Feature", "properties": { "strassenschluessel": "05358000003206024", "bezeichnung": "Marienstr." }, "geometry": { "type": "Point", "coordinates": [ 6.36503564205535, 50.815900456412095 ] } },
{ "type": "Feature", "properties": { "strassenschluessel": "05358000003206025", "bezeichnung": "Martinstr." }, "geometry": { "type": "Point", "coordinates": [ 6.364669592241254, 50.820195749949775 ] } },
{ "type": "Feature", "properties": { "strassenschluessel": "05358000003206026", "bezeichnung": "Neustr." }, "geometry": { "type": "Point", "coordinates": [ 6.350209529730891, 50.816374731716529 ] } },
{ "type": "Feature", "properties": { "strassenschluessel": "05358000003206027", "bezeichnung": "Nikolausberg" }, "geometry": { "type": "Point", "coordinates": [ 6.35196049158345, 50.819762046931302 ] } },
{ "type": "Feature", "properties": { "strassenschluessel": "05358000003206028", "bezeichnung": "Pastoratsweg" }, "geometry": { "type": "Point", "coordinates": [ 6.354183846018154, 50.81615416289754 ] } },
{ "type": "Feature", "properties": { "strassenschluessel": "05358000003206029", "bezeichnung": "Pochmühle" }, "geometry": null },
{ "type": "Feature", "properties": { "strassenschluessel": "05358000003206030", "bezeichnung": "Pochmühlenweg" }, "geometry": { "type": "Point", "coordinates": [ 6.36770038597966, 50.819853737383234 ] } },
{ "type": "Feature", "properties": { "strassenschluessel": "05358000003206031", "bezeichnung": "Poststr." }, "geometry": { "type": "Point", "coordinates": [ 6.358318109471304, 50.818109304378467 ] } },
{ "type": "Feature", "properties": { "strassenschluessel": "05358000003206032", "bezeichnung": "Rothammer" }, "geometry": { "type": "Point", "coordinates": [ 6.355229272420043, 50.810124571985625 ] } },
{ "type": "Feature", "properties": { "strassenschluessel": "05358000003206033", "bezeichnung": "Rymelsberg" }, "geometry": { "type": "Point", "coordinates": [ 6.357504546176465, 50.816007398199403 ] } },
{ "type": "Feature", "properties": { "strassenschluessel": "05358000003206034", "bezeichnung": "Schafenberg" }, "geometry": { "type": "Point", "coordinates": [ 6.357236538848198, 50.813985627224689 ] } },
{ "type": "Feature", "properties": { "strassenschluessel": "05358000003206035", "bezeichnung": "Schießberggraben" }, "geometry": { "type": "Point", "coordinates": [ 6.361691057974324, 50.816808917350158 ] } },
{ "type": "Feature", "properties": { "strassenschluessel": "05358000003206036", "bezeichnung": "Schönthaler Str." }, "geometry": { "type": "Point", "coordinates": [ 6.358176984216712, 50.812280170838662 ] } },
{ "type": "Feature", "properties": { "strassenschluessel": "05358000003206037", "bezeichnung": "Josef-Schwarz-Str." }, "geometry": { "type": "Point", "coordinates": [ 6.363413688435092, 50.81771688798446 ] } },
{ "type": "Feature", "properties": { "strassenschluessel": "05358000003206038", "bezeichnung": "Schützenstr." }, "geometry": { "type": "Point", "coordinates": [ 6.351830098485189, 50.816386930960967 ] } },
{ "type": "Feature", "properties": { "strassenschluessel": "05358000003206039", "bezeichnung": "Sofienhof" }, "geometry": null },
{ "type": "Feature", "properties": { "strassenschluessel": "05358000003206040", "bezeichnung": "Töpferweg" }, "geometry": { "type": "Point", "coordinates": [ 6.354186226860508, 50.820219151859035 ] } },
{ "type": "Feature", "properties": { "strassenschluessel": "05358000003206041", "bezeichnung": "Ulhaus" }, "geometry": { "type": "Point", "coordinates": [ 6.355240739562176, 50.818365933575599 ] } },
{ "type": "Feature", "properties": { "strassenschluessel": "05358000003206042", "bezeichnung": "Ulhausgasse" }, "geometry": { "type": "Point", "coordinates": [ 6.356616660671197, 50.817548196196654 ] } },
{ "type": "Feature", "properties": { "strassenschluessel": "05358000003206044", "bezeichnung": "Zehnthofweg" }, "geometry": { "type": "Point", "coordinates": [ 6.362126382431605, 50.818052596844026 ] } },
{ "type": "Feature", "properties": { "strassenschluessel": "05358000003206046", "bezeichnung": "An der Sandgrube" }, "geometry": { "type": "Point", "coordinates": [ 6.359127912251069, 50.815275175408559 ] } },
{ "type": "Feature", "properties": { "strassenschluessel": "05358000003206047", "bezeichnung": "Merbericher Weg" }, "geometry": { "type": "Point", "coordinates": [ 6.345173681733401, 50.817730105134359 ] } },
{ "type": "Feature", "properties": { "strassenschluessel": "05358000003206048", "bezeichnung": "Im Birkengrund" }, "geometry": { "type": "Point", "coordinates": [ 6.356032017255882, 50.819598659266532 ] } },
{ "type": "Feature", "properties": { "strassenschluessel": "05358000003206049", "bezeichnung": "Felix-Schleicher-Straße" }, "geometry": { "type": "Point", "coordinates": [ 6.360281661732176, 50.820082723897514 ] } },
{ "type": "Feature", "properties": { "strassenschluessel": "05358000003206050", "bezeichnung": "Bahnhofstraße" }, "geometry": { "type": "Point", "coordinates": [ 6.359302833832574, 50.816249072399437 ] } },
{ "type": "Feature", "properties": { "strassenschluessel": "05358000003206051", "bezeichnung": "Frenzer Weg" }, "geometry": { "type": "Point", "coordinates": [ 6.358642689409003, 50.821757992131197 ] } },
{ "type": "Feature", "properties": { "strassenschluessel": "05358000003206052", "bezeichnung": "Im Meisenbusch" }, "geometry": { "type": "Point", "coordinates": [ 6.356414358206834, 50.820237533480501 ] } },
{ "type": "Feature", "properties": { "strassenschluessel": "05358000003206053", "bezeichnung": "Neuer Töpferweg" }, "geometry": { "type": "Point", "coordinates": [ 6.353376963804282, 50.819792812801005 ] } },
{ "type": "Feature", "properties": { "strassenschluessel": "05358000003206054", "bezeichnung": "Am Bahndamm" }, "geometry": null },
{ "type": "Feature", "properties": { "strassenschluessel": "05358000003206055", "bezeichnung": "Leo-Höxter-Straße" }, "geometry": null },
{ "type": "Feature", "properties": { "strassenschluessel": "05358000003206056", "bezeichnung": "Kölner Straße" }, "geometry": null },
{ "type": "Feature", "properties": { "strassenschluessel": "05358000003206057", "bezeichnung": "Haus Merberich" }, "geometry": { "type": "Point", "coordinates": [ 6.344620401752897, 50.820053678984777 ] } },
{ "type": "Feature", "properties": { "strassenschluessel": "05358000003206058", "bezeichnung": "Exmouthplatz" }, "geometry": null },
{ "type": "Feature", "properties": { "strassenschluessel": "05358000003206059", "bezeichnung": "Am Töpferbrunnen" }, "geometry": null },
{ "type": "Feature", "properties": { "strassenschluessel": "05358000003206060", "bezeichnung": "Bürgerm.-Schoeller-Str." }, "geometry": { "type": "Point", "coordinates": [ 6.349531435423623, 50.820003079700008 ] } },
{ "type": "Feature", "properties": { "strassenschluessel": "05358000003206061", "bezeichnung": "Josef-Heinrichs-Str." }, "geometry": { "type": "Point", "coordinates": [ 6.349931100387337, 50.822779576445811 ] } },
{ "type": "Feature", "properties": { "strassenschluessel": "05358000003206062", "bezeichnung": "Seelebach" }, "geometry": { "type": "Point", "coordinates": [ 6.349529461324229, 50.821457390308268 ] } },
{ "type": "Feature", "properties": { "strassenschluessel": "05358000003206063", "bezeichnung": "Jakobusplatz" }, "geometry": null },
{ "type": "Feature", "properties": { "strassenschluessel": "05358000003206064", "bezeichnung": "Dr.-Burchard-Sielmann-Straße" }, "geometry": { "type": "Point", "coordinates": [ 6.353624881042828, 50.813658000445905 ] } },
{ "type": "Feature", "properties": { "strassenschluessel": "05358000003206065", "bezeichnung": "Christa-Schmitt-Straße" }, "geometry": { "type": "Point", "coordinates": [ 6.352508154387073, 50.813668249696953 ] } },
{ "type": "Feature", "properties": { "strassenschluessel": "05358000003206070", "bezeichnung": "Dürener Str." }, "geometry": { "type": "Point", "coordinates": [ 6.399770391150499, 50.809747373841084 ] } },
{ "type": "Feature", "properties": { "strassenschluessel": "05358000003206071", "bezeichnung": "Friedhofstr." }, "geometry": { "type": "Point", "coordinates": [ 6.401838164285085, 50.807998226849676 ] } },
{ "type": "Feature", "properties": { "strassenschluessel": "05358000003206072", "bezeichnung": "In der Klaus" }, "geometry": { "type": "Point", "coordinates": [ 6.396986648987456, 50.806056119859754 ] } },
{ "type": "Feature", "properties": { "strassenschluessel": "05358000003206073", "bezeichnung": "Schlicher Str." }, "geometry": { "type": "Point", "coordinates": [ 6.399691962448436, 50.80753813799663 ] } },
{ "type": "Feature", "properties": { "strassenschluessel": "05358000003206074", "bezeichnung": "Prälat-Dr.-Selung-Str." }, "geometry": { "type": "Point", "coordinates": [ 6.398965852777749, 50.806571610871977 ] } },
{ "type": "Feature", "properties": { "strassenschluessel": "05358000003206079", "bezeichnung": "Gansbecker Hof" }, "geometry": null },
{ "type": "Feature", "properties": { "strassenschluessel": "05358000003206080", "bezeichnung": "Bundesstr." }, "geometry": { "type": "Point", "coordinates": [ 6.397253215793337, 50.811882083806822 ] } },
{ "type": "Feature", "properties": { "strassenschluessel": "05358000003206081", "bezeichnung": "Eichenweg" }, "geometry": { "type": "Point", "coordinates": [ 6.39930864597883, 50.816757913935511 ] } },
{ "type": "Feature", "properties": { "strassenschluessel": "05358000003206082", "bezeichnung": "Herrengarten" }, "geometry": { "type": "Point", "coordinates": [ 6.396924957293217, 50.81868279953828 ] } },
{ "type": "Feature", "properties": { "strassenschluessel": "05358000003206083", "bezeichnung": "Echtzer Str." }, "geometry": { "type": "Point", "coordinates": [ 6.401060766135483, 50.817928848564868 ] } },
{ "type": "Feature", "properties": { "strassenschluessel": "05358000003206084", "bezeichnung": "Wasserfeld" }, "geometry": { "type": "Point", "coordinates": [ 6.397911403533652, 50.817038837432847 ] } },
{ "type": "Feature", "properties": { "strassenschluessel": "05358000003206085", "bezeichnung": "Auf dem Hahnen" }, "geometry": { "type": "Point", "coordinates": [ 6.394125760575815, 50.817290739690122 ] } },
{ "type": "Feature", "properties": { "strassenschluessel": "05358000003206088", "bezeichnung": "Falkenweg" }, "geometry": { "type": "Point", "coordinates": [ 6.317556560667109, 50.784390054963424 ] } },
{ "type": "Feature", "properties": { "strassenschluessel": "05358000003206089", "bezeichnung": "Meierskamp" }, "geometry": { "type": "Point", "coordinates": [ 6.316921104209706, 50.782261290411839 ] } },
{ "type": "Feature", "properties": { "strassenschluessel": "05358000003206090", "bezeichnung": "Am Daens" }, "geometry": { "type": "Point", "coordinates": [ 6.320079246072895, 50.782739903062762 ] } },
{ "type": "Feature", "properties": { "strassenschluessel": "05358000003206091", "bezeichnung": "Am Fasanenhang" }, "geometry": { "type": "Point", "coordinates": [ 6.319327169120125, 50.781407929137167 ] } },
{ "type": "Feature", "properties": { "strassenschluessel": "05358000003206092", "bezeichnung": "Am Pfuhl" }, "geometry": { "type": "Point", "coordinates": [ 6.318868257555926, 50.784397268379415 ] } },
{ "type": "Feature", "properties": { "strassenschluessel": "05358000003206093", "bezeichnung": "Auf'm Kutsch" }, "geometry": { "type": "Point", "coordinates": [ 6.321151763775273, 50.782409755752752 ] } },
{ "type": "Feature", "properties": { "strassenschluessel": "05358000003206094", "bezeichnung": "Römerweg" }, "geometry": { "type": "Point", "coordinates": [ 6.319111462168609, 50.784713938262378 ] } },
{ "type": "Feature", "properties": { "strassenschluessel": "05358000003206095", "bezeichnung": "Heisterner Str." }, "geometry": { "type": "Point", "coordinates": [ 6.319626000926713, 50.783437831754171 ] } },
{ "type": "Feature", "properties": { "strassenschluessel": "05358000003206096", "bezeichnung": "Klosterstr." }, "geometry": { "type": "Point", "coordinates": [ 6.321377328184351, 50.783665855444028 ] } },
{ "type": "Feature", "properties": { "strassenschluessel": "05358000003206097", "bezeichnung": "Gut Atzenau" }, "geometry": { "type": "Point", "coordinates": [ 6.312701028561889, 50.785408174348682 ] } },
{ "type": "Feature", "properties": { "strassenschluessel": "05358000003206098", "bezeichnung": "Hamicher Höfchen" }, "geometry": { "type": "Point", "coordinates": [ 6.315383224924076, 50.784244020628783 ] } },
{ "type": "Feature", "properties": { "strassenschluessel": "05358000003206099", "bezeichnung": "Kreuzfelder Straße" }, "geometry": { "type": "Point", "coordinates": [ 6.321023430370185, 50.784165740053112 ] } },
{ "type": "Feature", "properties": { "strassenschluessel": "05358000003206100", "bezeichnung": "Im Maarfeld" }, "geometry": null },
{ "type": "Feature", "properties": { "strassenschluessel": "05358000003206110", "bezeichnung": "Am Sandberg" }, "geometry": { "type": "Point", "coordinates": [ 6.336340571964125, 50.798403849118451 ] } },
{ "type": "Feature", "properties": { "strassenschluessel": "05358000003206111", "bezeichnung": "An der Kante" }, "geometry": { "type": "Point", "coordinates": [ 6.335428322464081, 50.794421500781134 ] } },
{ "type": "Feature", "properties": { "strassenschluessel": "05358000003206112", "bezeichnung": "Auf der Heide" }, "geometry": { "type": "Point", "coordinates": [ 6.335830051257223, 50.799048225518831 ] } },
{ "type": "Feature", "properties": { "strassenschluessel": "05358000003206113", "bezeichnung": "Steinweg" }, "geometry": { "type": "Point", "coordinates": [ 6.339166671206521, 50.799076134620606 ] } },
{ "type": "Feature", "properties": { "strassenschluessel": "05358000003206114", "bezeichnung": "Döllersfeldchen" }, "geometry": { "type": "Point", "coordinates": [ 6.338922546271006, 50.796705453741247 ] } },
{ "type": "Feature", "properties": { "strassenschluessel": "05358000003206115", "bezeichnung": "Hamicher Str." }, "geometry": { "type": "Point", "coordinates": [ 6.325146519590541, 50.78861391280671 ] } },
{ "type": "Feature", "properties": { "strassenschluessel": "05358000003206117", "bezeichnung": "Zum Knabbert" }, "geometry": { "type": "Point", "coordinates": [ 6.334068890972407, 50.796505549649737 ] } },
{ "type": "Feature", "properties": { "strassenschluessel": "05358000003206118", "bezeichnung": "Kupfergasse" }, "geometry": { "type": "Point", "coordinates": [ 6.33802579058716, 50.799406669065462 ] } },
{ "type": "Feature", "properties": { "strassenschluessel": "05358000003206119", "bezeichnung": "Nothberger Weg" }, "geometry": { "type": "Point", "coordinates": [ 6.334267724730887, 50.798130260638715 ] } },
{ "type": "Feature", "properties": { "strassenschluessel": "05358000003206120", "bezeichnung": "Pützgasse" }, "geometry": { "type": "Point", "coordinates": [ 6.338257156500111, 50.794914913355584 ] } },
{ "type": "Feature", "properties": { "strassenschluessel": "05358000003206122", "bezeichnung": "Waldstr." }, "geometry": { "type": "Point", "coordinates": [ 6.336485485699739, 50.796859053494764 ] } },
{ "type": "Feature", "properties": { "strassenschluessel": "05358000003206123", "bezeichnung": "Weisweilerstr." }, "geometry": { "type": "Point", "coordinates": [ 6.335450713062714, 50.799383434855457 ] } },
{ "type": "Feature", "properties": { "strassenschluessel": "05358000003206124", "bezeichnung": "Wenauer Str." }, "geometry": { "type": "Point", "coordinates": [ 6.336711338916474, 50.794737815123426 ] } },
{ "type": "Feature", "properties": { "strassenschluessel": "05358000003206125", "bezeichnung": "Wenauer Höfchen" }, "geometry": { "type": "Point", "coordinates": [ 6.332487205114012, 50.792689585906004 ] } },
{ "type": "Feature", "properties": { "strassenschluessel": "05358000003206126", "bezeichnung": "Zum Laufenburgblick" }, "geometry": { "type": "Point", "coordinates": [ 6.337961443990662, 50.797172997333718 ] } },
{ "type": "Feature", "properties": { "strassenschluessel": "05358000003206133", "bezeichnung": "Neuer Weg" }, "geometry": { "type": "Point", "coordinates": [ 6.3762058336952, 50.810433657805874 ] } },
{ "type": "Feature", "properties": { "strassenschluessel": "05358000003206134", "bezeichnung": "Der Fußhof" }, "geometry": { "type": "Point", "coordinates": [ 6.373973429176814, 50.809824162987915 ] } },
{ "type": "Feature", "properties": { "strassenschluessel": "05358000003206135", "bezeichnung": "Altdorfer Weg" }, "geometry": { "type": "Point", "coordinates": [ 6.372767066034886, 50.807637341356298 ] } },
{ "type": "Feature", "properties": { "strassenschluessel": "05358000003206136", "bezeichnung": "An der Erk" }, "geometry": { "type": "Point", "coordinates": [ 6.374751077099824, 50.808956903455652 ] } },
{ "type": "Feature", "properties": { "strassenschluessel": "05358000003206137", "bezeichnung": "Auf dem Berg" }, "geometry": null },
{ "type": "Feature", "properties": { "strassenschluessel": "05358000003206138", "bezeichnung": "Im Baumgarten" }, "geometry": { "type": "Point", "coordinates": [ 6.374273511701537, 50.808671676321396 ] } },
{ "type": "Feature", "properties": { "strassenschluessel": "05358000003206139", "bezeichnung": "Indener Weg" }, "geometry": { "type": "Point", "coordinates": [ 6.375115541301162, 50.80858357246332 ] } },
{ "type": "Feature", "properties": { "strassenschluessel": "05358000003206140", "bezeichnung": "Auf dem Feldchen" }, "geometry": { "type": "Point", "coordinates": [ 6.368525227347056, 50.813779728770314 ] } },
{ "type": "Feature", "properties": { "strassenschluessel": "05358000003206141", "bezeichnung": "Bachstr." }, "geometry": { "type": "Point", "coordinates": [ 6.37306244949068, 50.809809110209571 ] } },
{ "type": "Feature", "properties": { "strassenschluessel": "05358000003206142", "bezeichnung": "Forsthaus Jüngersdorf" }, "geometry": null },
{ "type": "Feature", "properties": { "strassenschluessel": "05358000003206143", "bezeichnung": "Gartenstr." }, "geometry": { "type": "Point", "coordinates": [ 6.376964774974006, 50.811227029804947 ] } },
{ "type": "Feature", "properties": { "strassenschluessel": "05358000003206144", "bezeichnung": "Kapellenstr." }, "geometry": { "type": "Point", "coordinates": [ 6.372847892575511, 50.811241052240007 ] } },
{ "type": "Feature", "properties": { "strassenschluessel": "05358000003206145", "bezeichnung": "Holzstr." }, "geometry": { "type": "Point", "coordinates": [ 6.3729583918737, 50.812594337818638 ] } },
{ "type": "Feature", "properties": { "strassenschluessel": "05358000003206146", "bezeichnung": "Laufenburg" }, "geometry": { "type": "Point", "coordinates": [ 6.357676523371254, 50.791354598457694 ] } },
{ "type": "Feature", "properties": { "strassenschluessel": "05358000003206147", "bezeichnung": "Am Weiherhof" }, "geometry": { "type": "Point", "coordinates": [ 6.375130073597081, 50.810396662778388 ] } },
{ "type": "Feature", "properties": { "strassenschluessel": "05358000003206148", "bezeichnung": "Oligsdriesch" }, "geometry": { "type": "Point", "coordinates": [ 6.366072740310795, 50.807899454685199 ] } },
{ "type": "Feature", "properties": { "strassenschluessel": "05358000003206149", "bezeichnung": "Laufenburgstr." }, "geometry": { "type": "Point", "coordinates": [ 6.373847856287515, 50.809022722794758 ] } },
{ "type": "Feature", "properties": { "strassenschluessel": "05358000003206150", "bezeichnung": "Lerchenweg" }, "geometry": { "type": "Point", "coordinates": [ 6.37247444705899, 50.809197020715565 ] } },
{ "type": "Feature", "properties": { "strassenschluessel": "05358000003206151", "bezeichnung": "Am Königsbusch" }, "geometry": { "type": "Point", "coordinates": [ 6.368952544261601, 50.813088001770758 ] } },
{ "type": "Feature", "properties": { "strassenschluessel": "05358000003206152", "bezeichnung": "An der Lochmühle" }, "geometry": { "type": "Point", "coordinates": [ 6.36732465571884, 50.814299486322383 ] } },
{ "type": "Feature", "properties": { "strassenschluessel": "05358000003206153", "bezeichnung": "Jüngersdorfer Straße" }, "geometry": { "type": "Point", "coordinates": [ 6.370224392236792, 50.814050326013358 ] } },
{ "type": "Feature", "properties": { "strassenschluessel": "05358000003206154", "bezeichnung": "Zur Kalkbahn" }, "geometry": { "type": "Point", "coordinates": [ 6.371010125791197, 50.812575384909593 ] } },
{ "type": "Feature", "properties": { "strassenschluessel": "05358000003206155", "bezeichnung": "Am Hofacker" }, "geometry": { "type": "Point", "coordinates": [ 6.373375813044664, 50.812096783343129 ] } },
{ "type": "Feature", "properties": { "strassenschluessel": "05358000003206156", "bezeichnung": "Arnold-Homberg-Straße" }, "geometry": { "type": "Point", "coordinates": [ 6.374249649648788, 50.81242749299939 ] } },
{ "type": "Feature", "properties": { "strassenschluessel": "05358000003206157", "bezeichnung": "Johannes-Hellwig-Straße" }, "geometry": { "type": "Point", "coordinates": [ 6.375449841194074, 50.812921609456019 ] } },
{ "type": "Feature", "properties": { "strassenschluessel": "05358000003206158", "bezeichnung": "Am Parir" }, "geometry": { "type": "Point", "coordinates": [ 6.379032108917018, 50.814596614522863 ] } },
{ "type": "Feature", "properties": { "strassenschluessel": "05358000003206159", "bezeichnung": "Talblick" }, "geometry": { "type": "Point", "coordinates": [ 6.366460675203786, 50.812870217809341 ] } },
{ "type": "Feature", "properties": { "strassenschluessel": "05358000003206160", "bezeichnung": "Adam-Lehnen-Str." }, "geometry": { "type": "Point", "coordinates": [ 6.368307687473893, 50.832844863225347 ] } },
{ "type": "Feature", "properties": { "strassenschluessel": "05358000003206161", "bezeichnung": "Blumenstr." }, "geometry": { "type": "Point", "coordinates": [ 6.366068934422448, 50.830076953715732 ] } },
{ "type": "Feature", "properties": { "strassenschluessel": "05358000003206162", "bezeichnung": "Driesch" }, "geometry": { "type": "Point", "coordinates": [ 6.372056685901637, 50.831067486369591 ] } },
{ "type": "Feature", "properties": { "strassenschluessel": "05358000003206163", "bezeichnung": "Dürener Weg" }, "geometry": { "type": "Point", "coordinates": [ 6.371716475481724, 50.834525824236778 ] } },
{ "type": "Feature", "properties": { "strassenschluessel": "05358000003206164", "bezeichnung": "Hahnweg" }, "geometry": { "type": "Point", "coordinates": [ 6.366471378504018, 50.830719313580126 ] } },
{ "type": "Feature", "properties": { "strassenschluessel": "05358000003206165", "bezeichnung": "Mittelstr." }, "geometry": { "type": "Point", "coordinates": [ 6.370291580462276, 50.834030556335847 ] } },
{ "type": "Feature", "properties": { "strassenschluessel": "05358000003206166", "bezeichnung": "Ölmühle" }, "geometry": { "type": "Point", "coordinates": [ 6.372475639577605, 50.823028654891324 ] } },
{ "type": "Feature", "properties": { "strassenschluessel": "05358000003206167", "bezeichnung": "Brückenstr." }, "geometry": { "type": "Point", "coordinates": [ 6.370554758696729, 50.832127597191217 ] } },
{ "type": "Feature", "properties": { "strassenschluessel": "05358000003206168", "bezeichnung": "Burgstr." }, "geometry": { "type": "Point", "coordinates": [ 6.369167938024511, 50.831403872058047 ] } },
{ "type": "Feature", "properties": { "strassenschluessel": "05358000003206169", "bezeichnung": "Lindenhof" }, "geometry": { "type": "Point", "coordinates": [ 6.368159857748832, 50.824649390037138 ] } },
{ "type": "Feature", "properties": { "strassenschluessel": "05358000003206170", "bezeichnung": "Lennestraße" }, "geometry": { "type": "Point", "coordinates": [ 6.37073414230782, 50.833630027884702 ] } },
{ "type": "Feature", "properties": { "strassenschluessel": "05358000003206180", "bezeichnung": "Auf dem Kamp" }, "geometry": { "type": "Point", "coordinates": [ 6.388559610212759, 50.796659394172437 ] } },
{ "type": "Feature", "properties": { "strassenschluessel": "05358000003206181", "bezeichnung": "Bundesstr." }, "geometry": { "type": "Point", "coordinates": [ 6.390813700005745, 50.812647240057515 ] } },
{ "type": "Feature", "properties": { "strassenschluessel": "05358000003206182", "bezeichnung": "D'horner Str." }, "geometry": { "type": "Point", "coordinates": [ 6.393436448622795, 50.801242089555942 ] } },
{ "type": "Feature", "properties": { "strassenschluessel": "05358000003206183", "bezeichnung": "Paradiesstr." }, "geometry": { "type": "Point", "coordinates": [ 6.392104747425861, 50.798082241411464 ] } },
{ "type": "Feature", "properties": { "strassenschluessel": "05358000003206184", "bezeichnung": "Schloßstr." }, "geometry": { "type": "Point", "coordinates": [ 6.387557764307189, 50.796600691058096 ] } },
{ "type": "Feature", "properties": { "strassenschluessel": "05358000003206185", "bezeichnung": "Schulstr." }, "geometry": { "type": "Point", "coordinates": [ 6.394898830381188, 50.800738998449226 ] } },
{ "type": "Feature", "properties": { "strassenschluessel": "05358000003206186", "bezeichnung": "Meroder Str." }, "geometry": { "type": "Point", "coordinates": [ 6.392171342987563, 50.799935609727207 ] } },
{ "type": "Feature", "properties": { "strassenschluessel": "05358000003206187", "bezeichnung": "Weberstr." }, "geometry": { "type": "Point", "coordinates": [ 6.389336357404886, 50.795913366531188 ] } },
{ "type": "Feature", "properties": { "strassenschluessel": "05358000003206188", "bezeichnung": "Zum Hahndorn" }, "geometry": { "type": "Point", "coordinates": [ 6.387764589649744, 50.797084544545285 ] } },
{ "type": "Feature", "properties": { "strassenschluessel": "05358000003206189", "bezeichnung": "Kreuzherrenstr." }, "geometry": { "type": "Point", "coordinates": [ 6.392276705167723, 50.800657981437674 ] } },
{ "type": "Feature", "properties": { "strassenschluessel": "05358000003206190", "bezeichnung": "Antoniusstr." }, "geometry": { "type": "Point", "coordinates": [ 6.395584970392693, 50.801233744093551 ] } },
{ "type": "Feature", "properties": { "strassenschluessel": "05358000003206191", "bezeichnung": "Gysemans-Weg" }, "geometry": { "type": "Point", "coordinates": [ 6.394046278142508, 50.799727005031485 ] } },
{ "type": "Feature", "properties": { "strassenschluessel": "05358000003206192", "bezeichnung": "Westerloer Allee" }, "geometry": { "type": "Point", "coordinates": [ 6.39312512988383, 50.80038191191916 ] } },
{ "type": "Feature", "properties": { "strassenschluessel": "05358000003206199", "bezeichnung": "Klosterhof" }, "geometry": { "type": "Point", "coordinates": [ 6.336265320978885, 50.790135642246156 ] } },
{ "type": "Feature", "properties": { "strassenschluessel": "05358000003206200", "bezeichnung": "Bernadettestr." }, "geometry": { "type": "Point", "coordinates": [ 6.38957920792087, 50.814656270296958 ] } },
{ "type": "Feature", "properties": { "strassenschluessel": "05358000003206201", "bezeichnung": "Bundesstr." }, "geometry": { "type": "Point", "coordinates": [ 6.396502701820735, 50.811563566100865 ] } },
{ "type": "Feature", "properties": { "strassenschluessel": "05358000003206202", "bezeichnung": "Beethovenstr." }, "geometry": { "type": "Point", "coordinates": [ 6.390037333814939, 50.815682014450701 ] } },
{ "type": "Feature", "properties": { "strassenschluessel": "05358000003206203", "bezeichnung": "Herrengarten" }, "geometry": { "type": "Point", "coordinates": [ 6.394636731724302, 50.818098157932582 ] } },
{ "type": "Feature", "properties": { "strassenschluessel": "05358000003206204", "bezeichnung": "Pützhecke" }, "geometry": { "type": "Point", "coordinates": [ 6.390582108699542, 50.813713537734429 ] } },
{ "type": "Feature", "properties": { "strassenschluessel": "05358000003206205", "bezeichnung": "In den Benden" }, "geometry": { "type": "Point", "coordinates": [ 6.393066991095797, 50.816370008677907 ] } },
{ "type": "Feature", "properties": { "strassenschluessel": "05358000003206206", "bezeichnung": "Kreuzstr." }, "geometry": { "type": "Point", "coordinates": [ 6.389517065471824, 50.815570490827682 ] } },
{ "type": "Feature", "properties": { "strassenschluessel": "05358000003206207", "bezeichnung": "Bongenhaus" }, "geometry": null },
{ "type": "Feature", "properties": { "strassenschluessel": "05358000003206208", "bezeichnung": "An den Obstwiesen" }, "geometry": { "type": "Point", "coordinates": [ 6.391003471949779, 50.814303365578745 ] } },
{ "type": "Feature", "properties": { "strassenschluessel": "05358000003206209", "bezeichnung": "Auf dem Hahnen" }, "geometry": { "type": "Point", "coordinates": [ 6.393718733674202, 50.817531379054813 ] } },
{ "type": "Feature", "properties": { "strassenschluessel": "05358000003206210", "bezeichnung": "Wilhelm-Pauly-Straße" }, "geometry": null },
{ "type": "Feature", "properties": { "strassenschluessel": "05358000003206217", "bezeichnung": "Am Niederbusch" }, "geometry": { "type": "Point", "coordinates": [ 6.407234304453167, 50.799327191765002 ] } },
{ "type": "Feature", "properties": { "strassenschluessel": "05358000003206218", "bezeichnung": "Am Brandweiher" }, "geometry": { "type": "Point", "coordinates": [ 6.395685257068495, 50.797617930583769 ] } },
{ "type": "Feature", "properties": { "strassenschluessel": "05358000003206219", "bezeichnung": "Zum Tannenwald" }, "geometry": { "type": "Point", "coordinates": [ 6.393559636664458, 50.795734073985592 ] } },
{ "type": "Feature", "properties": { "strassenschluessel": "05358000003206220", "bezeichnung": "Am Neuhaus" }, "geometry": { "type": "Point", "coordinates": [ 6.398271944695214, 50.797889568875611 ] } },
{ "type": "Feature", "properties": { "strassenschluessel": "05358000003206221", "bezeichnung": "Antoniusstr." }, "geometry": { "type": "Point", "coordinates": [ 6.396577321505599, 50.799442429018377 ] } },
{ "type": "Feature", "properties": { "strassenschluessel": "05358000003206222", "bezeichnung": "Bundesstr." }, "geometry": { "type": "Point", "coordinates": [ 6.413054281872656, 50.807317337436395 ] } },
{ "type": "Feature", "properties": { "strassenschluessel": "05358000003206223", "bezeichnung": "Derichsweilerstr." }, "geometry": { "type": "Point", "coordinates": [ 6.402963809357316, 50.797860833143162 ] } },
{ "type": "Feature", "properties": { "strassenschluessel": "05358000003206224", "bezeichnung": "Grabenstr." }, "geometry": { "type": "Point", "coordinates": [ 6.400098083252784, 50.801274983269714 ] } },
{ "type": "Feature", "properties": { "strassenschluessel": "05358000003206225", "bezeichnung": "Bongard" }, "geometry": { "type": "Point", "coordinates": [ 6.403767962500271, 50.796868318924211 ] } },
{ "type": "Feature", "properties": { "strassenschluessel": "05358000003206226", "bezeichnung": "Schmiedestr." }, "geometry": { "type": "Point", "coordinates": [ 6.396145286538462, 50.794322652942135 ] } },
{ "type": "Feature", "properties": { "strassenschluessel": "05358000003206227", "bezeichnung": "Kirchstr." }, "geometry": { "type": "Point", "coordinates": [ 6.402697660575746, 50.801699304369031 ] } },
{ "type": "Feature", "properties": { "strassenschluessel": "05358000003206228", "bezeichnung": "In der Au" }, "geometry": { "type": "Point", "coordinates": [ 6.402298342018621, 50.796516532503475 ] } },
{ "type": "Feature", "properties": { "strassenschluessel": "05358000003206232", "bezeichnung": "Mariahof" }, "geometry": { "type": "Point", "coordinates": [ 6.412665130770445, 50.802786213882982 ] } },
{ "type": "Feature", "properties": { "strassenschluessel": "05358000003206233", "bezeichnung": "Martinusstr." }, "geometry": { "type": "Point", "coordinates": [ 6.397946107076367, 50.796597533737277 ] } },
{ "type": "Feature", "properties": { "strassenschluessel": "05358000003206234", "bezeichnung": "Meroder Str." }, "geometry": { "type": "Point", "coordinates": [ 6.394926391737605, 50.798961726873664 ] } },
{ "type": "Feature", "properties": { "strassenschluessel": "05358000003206235", "bezeichnung": "Am Hinterbusch" }, "geometry": { "type": "Point", "coordinates": [ 6.400847622655729, 50.797137859375148 ] } },
{ "type": "Feature", "properties": { "strassenschluessel": "05358000003206236", "bezeichnung": "Paradiesstr." }, "geometry": { "type": "Point", "coordinates": [ 6.404691440793711, 50.803096518440633 ] } },
{ "type": "Feature", "properties": { "strassenschluessel": "05358000003206237", "bezeichnung": "Petershof" }, "geometry": { "type": "Point", "coordinates": [ 6.401775830150298, 50.792828199925168 ] } },
{ "type": "Feature", "properties": { "strassenschluessel": "05358000003206238", "bezeichnung": "Pfarrer-Ossemann-Str." }, "geometry": { "type": "Point", "coordinates": [ 6.401612427854513, 50.800704337877022 ] } },
{ "type": "Feature", "properties": { "strassenschluessel": "05358000003206239", "bezeichnung": "Ringstr." }, "geometry": { "type": "Point", "coordinates": [ 6.405900766297303, 50.801549727033454 ] } },
{ "type": "Feature", "properties": { "strassenschluessel": "05358000003206241", "bezeichnung": "Münsterstr." }, "geometry": { "type": "Point", "coordinates": [ 6.401364721697864, 50.79592864797673 ] } },
{ "type": "Feature", "properties": { "strassenschluessel": "05358000003206242", "bezeichnung": "Südstr." }, "geometry": { "type": "Point", "coordinates": [ 6.405001368890815, 50.800661898179285 ] } },
{ "type": "Feature", "properties": { "strassenschluessel": "05358000003206243", "bezeichnung": "Weberstr." }, "geometry": { "type": "Point", "coordinates": [ 6.396079036930522, 50.798390581190333 ] } },
{ "type": "Feature", "properties": { "strassenschluessel": "05358000003206244", "bezeichnung": "Weierstr." }, "geometry": { "type": "Point", "coordinates": [ 6.404710997015401, 50.801916153116046 ] } },
{ "type": "Feature", "properties": { "strassenschluessel": "05358000003206245", "bezeichnung": "Wiesenstr." }, "geometry": { "type": "Point", "coordinates": [ 6.40572983968553, 50.800978603732069 ] } },
{ "type": "Feature", "properties": { "strassenschluessel": "05358000003206246", "bezeichnung": "Am Rotbach" }, "geometry": { "type": "Point", "coordinates": [ 6.394608798947683, 50.795444357653182 ] } },
{ "type": "Feature", "properties": { "strassenschluessel": "05358000003206247", "bezeichnung": "Eifelstr." }, "geometry": { "type": "Point", "coordinates": [ 6.40079054325708, 50.799316525660188 ] } },
{ "type": "Feature", "properties": { "strassenschluessel": "05358000003206248", "bezeichnung": "Wilhelmshof" }, "geometry": null },
{ "type": "Feature", "properties": { "strassenschluessel": "05358000003206249", "bezeichnung": "Rektor-Niederau-Straße" }, "geometry": { "type": "Point", "coordinates": [ 6.397054628464231, 50.801364499138359 ] } },
{ "type": "Feature", "properties": { "strassenschluessel": "05358000003206250", "bezeichnung": "Schönthal" }, "geometry": { "type": "Point", "coordinates": [ 6.34863258838189, 50.802971986219845 ] } },
{ "type": "Feature", "properties": { "strassenschluessel": "05358000003206251", "bezeichnung": "Gut Schönthal" }, "geometry": { "type": "Point", "coordinates": [ 6.348226618468978, 50.804571542821485 ] } },
{ "type": "Feature", "properties": { "strassenschluessel": "05358000003206252", "bezeichnung": "Kleinschönthal" }, "geometry": null },
{ "type": "Feature", "properties": { "strassenschluessel": "05358000003206260", "bezeichnung": "Am Steinchen" }, "geometry": { "type": "Point", "coordinates": [ 6.373765214468859, 50.817864097408346 ] } },
{ "type": "Feature", "properties": { "strassenschluessel": "05358000003206261", "bezeichnung": "Am vorderen Steinchen" }, "geometry": { "type": "Point", "coordinates": [ 6.374348139361227, 50.81675480591813 ] } },
{ "type": "Feature", "properties": { "strassenschluessel": "05358000003206262", "bezeichnung": "Barbarastr." }, "geometry": { "type": "Point", "coordinates": [ 6.368682351777655, 50.819847945840579 ] } },
{ "type": "Feature", "properties": { "strassenschluessel": "05358000003206263", "bezeichnung": "Franz-Schain-Str." }, "geometry": { "type": "Point", "coordinates": [ 6.372589102159253, 50.817112188966448 ] } },
{ "type": "Feature", "properties": { "strassenschluessel": "05358000003206264", "bezeichnung": "Hauptstr." }, "geometry": { "type": "Point", "coordinates": [ 6.366108640474958, 50.816476002825823 ] } },
{ "type": "Feature", "properties": { "strassenschluessel": "05358000003206265", "bezeichnung": "Jakob-Schmitz-Str." }, "geometry": { "type": "Point", "coordinates": [ 6.37067235920059, 50.818470759032778 ] } },
{ "type": "Feature", "properties": { "strassenschluessel": "05358000003206266", "bezeichnung": "Marienstr." }, "geometry": { "type": "Point", "coordinates": [ 6.365347127246345, 50.816175456212015 ] } },
{ "type": "Feature", "properties": { "strassenschluessel": "05358000003206267", "bezeichnung": "Mettlermühle" }, "geometry": { "type": "Point", "coordinates": [ 6.37171981873013, 50.8207688601996 ] } },
{ "type": "Feature", "properties": { "strassenschluessel": "05358000003206268", "bezeichnung": "Pochmühle" }, "geometry": { "type": "Point", "coordinates": [ 6.368036966005626, 50.819165883858105 ] } },
{ "type": "Feature", "properties": { "strassenschluessel": "05358000003206269", "bezeichnung": "Heinz-Emonds-Str." }, "geometry": { "type": "Point", "coordinates": [ 6.3686520445029, 50.815107032686988 ] } },
{ "type": "Feature", "properties": { "strassenschluessel": "05358000003206270", "bezeichnung": "Stütgerhof" }, "geometry": { "type": "Point", "coordinates": [ 6.377015218949627, 50.821960805784933 ] } },
{ "type": "Feature", "properties": { "strassenschluessel": "05358000003206271", "bezeichnung": "Mühlenweg" }, "geometry": { "type": "Point", "coordinates": [ 6.37125095735178, 50.817839776387409 ] } },
{ "type": "Feature", "properties": { "strassenschluessel": "05358000003206272", "bezeichnung": "Im Gewerbegebiet" }, "geometry": { "type": "Point", "coordinates": [ 6.37338715279452, 50.814758504378389 ] } },
{ "type": "Feature", "properties": { "strassenschluessel": "05358000003206273", "bezeichnung": "Am Stadion" }, "geometry": { "type": "Point", "coordinates": [ 6.369000800608573, 50.817046710894246 ] } },
{ "type": "Feature", "properties": { "strassenschluessel": "05358000003206274", "bezeichnung": "Finkenweg" }, "geometry": { "type": "Point", "coordinates": [ 6.370251962302624, 50.815741113423151 ] } },
{ "type": "Feature", "properties": { "strassenschluessel": "05358000003206275", "bezeichnung": "Amselweg" }, "geometry": { "type": "Point", "coordinates": [ 6.370324170236021, 50.815362437444307 ] } },
{ "type": "Feature", "properties": { "strassenschluessel": "05358000003206276", "bezeichnung": "Drosselweg" }, "geometry": { "type": "Point", "coordinates": [ 6.371893540529826, 50.815062814336052 ] } },
{ "type": "Feature", "properties": { "strassenschluessel": "05358000003206277", "bezeichnung": "Knotstraße" }, "geometry": { "type": "Point", "coordinates": [ 6.375893029306678, 50.816655104991334 ] } },
{ "type": "Feature", "properties": { "strassenschluessel": "05358000003206278", "bezeichnung": "Dieter-Reinartz-Str." }, "geometry": { "type": "Point", "coordinates": [ 6.375820022479885, 50.818027840167112 ] } },
{ "type": "Feature", "properties": { "strassenschluessel": "05358000003206279", "bezeichnung": "Am Mühlenfeld" }, "geometry": null },
{ "type": "Feature", "properties": { "strassenschluessel": "05358000003206290", "bezeichnung": "Wenau" }, "geometry": { "type": "Point", "coordinates": [ 6.335199014362785, 50.79079810396864 ] } },
{ "type": "Feature", "properties": { "strassenschluessel": "05358000003206291", "bezeichnung": "Gut Eichenhof" }, "geometry": null },
{ "type": "Feature", "properties": { "strassenschluessel": "05358000003206292", "bezeichnung": "Forsthaus Wenau" }, "geometry": { "type": "Point", "coordinates": [ 6.324434401255159, 50.778543312066233 ] } },
{ "type": "Feature", "properties": { "strassenschluessel": "05358000003206293", "bezeichnung": "Forsthaus Bovenberg" }, "geometry": { "type": "Point", "coordinates": [ 6.314860733445663, 50.791756060399692 ] } },
{ "type": "Feature", "properties": { "strassenschluessel": "05358000003206294", "bezeichnung": "Krichelsmühle" }, "geometry": { "type": "Point", "coordinates": [ 6.331149749088339, 50.7838407782479 ] } },
{ "type": "Feature", "properties": { "strassenschluessel": "05358000003206295", "bezeichnung": "Gut Lamerdriesch" }, "geometry": { "type": "Point", "coordinates": [ 6.315231360682065, 50.79161662327791 ] } },
{ "type": "Feature", "properties": { "strassenschluessel": "05358000003206296", "bezeichnung": "Gut Tannenhof" }, "geometry": { "type": "Point", "coordinates": [ 6.307042637693202, 50.794226506561898 ] } },
{ "type": "Feature", "properties": { "strassenschluessel": "05358000003206297", "bezeichnung": "Haus Blumenthal" }, "geometry": { "type": "Point", "coordinates": [ 6.330651688191835, 50.802482453439445 ] } },
{ "type": "Feature", "properties": { "strassenschluessel": "05358000003206298", "bezeichnung": "Burg Holzheim" }, "geometry": { "type": "Point", "coordinates": [ 6.328840205584822, 50.798998017016643 ] } },
{ "type": "Feature", "properties": { "strassenschluessel": "05358000003206299", "bezeichnung": "Haus Kammerbusch" }, "geometry": { "type": "Point", "coordinates": [ 6.345941697182372, 50.809845972174223 ] } },
{ "type": "Feature", "properties": { "strassenschluessel": "05358000003206300", "bezeichnung": "Haus Wehetal" }, "geometry": null },
{ "type": "Feature", "properties": { "strassenschluessel": "05358000003206301", "bezeichnung": "Schönthaler Hof" }, "geometry": { "type": "Point", "coordinates": [ 6.343970648895284, 50.795247364040357 ] } },
{ "type": "Feature", "properties": { "strassenschluessel": "05358000003206302", "bezeichnung": "Gut Kammerbusch" }, "geometry": { "type": "Point", "coordinates": [ 6.345377349041695, 50.81111152763259 ] } },
{ "type": "Feature", "properties": { "strassenschluessel": "05358000003206303", "bezeichnung": "An der Dostel" }, "geometry": { "type": "Point", "coordinates": [ 6.324734377698939, 50.788075705311797 ] } },
{ "type": "Feature", "properties": { "strassenschluessel": "05358000003206400", "bezeichnung": "Altdorfer Weg" }, "geometry": { "type": "Point", "coordinates": [ 6.37468641597188, 50.806020316739769 ] } },
{ "type": "Feature", "properties": { "strassenschluessel": "05358000003206401", "bezeichnung": "Am Luschend" }, "geometry": { "type": "Point", "coordinates": [ 6.376401466915952, 50.805479034809153 ] } },
{ "type": "Feature", "properties": { "strassenschluessel": "05358000003206402", "bezeichnung": "Am Weiherhof" }, "geometry": { "type": "Point", "coordinates": [ 6.37866620720156, 50.808904009722774 ] } },
{ "type": "Feature", "properties": { "strassenschluessel": "05358000003206403", "bezeichnung": "An der Esch" }, "geometry": { "type": "Point", "coordinates": [ 6.377424019241859, 50.810011717540313 ] } },
{ "type": "Feature", "properties": { "strassenschluessel": "05358000003206404", "bezeichnung": "Auf dem Berg" }, "geometry": { "type": "Point", "coordinates": [ 6.374778840679961, 50.807640777420346 ] } },
{ "type": "Feature", "properties": { "strassenschluessel": "05358000003206405", "bezeichnung": "Bonsdorfer Str." }, "geometry": { "type": "Point", "coordinates": [ 6.380631566409569, 50.809100585904183 ] } },
{ "type": "Feature", "properties": { "strassenschluessel": "05358000003206406", "bezeichnung": "Franz-Engels-Str." }, "geometry": { "type": "Point", "coordinates": [ 6.376574709738964, 50.808317286702938 ] } },
{ "type": "Feature", "properties": { "strassenschluessel": "05358000003206407", "bezeichnung": "Gracht" }, "geometry": { "type": "Point", "coordinates": [ 6.379474847756982, 50.80486870412809 ] } },
{ "type": "Feature", "properties": { "strassenschluessel": "05358000003206408", "bezeichnung": "Grüntalstr." }, "geometry": { "type": "Point", "coordinates": [ 6.378350599181001, 50.811078448754664 ] } },
{ "type": "Feature", "properties": { "strassenschluessel": "05358000003206409", "bezeichnung": "Hüttenstr." }, "geometry": { "type": "Point", "coordinates": [ 6.378513966994174, 50.810577214349934 ] } },
{ "type": "Feature", "properties": { "strassenschluessel": "05358000003206410", "bezeichnung": "Jakobstr." }, "geometry": { "type": "Point", "coordinates": [ 6.381175345059311, 50.808522066283452 ] } },
{ "type": "Feature", "properties": { "strassenschluessel": "05358000003206411", "bezeichnung": "Pierer Str." }, "geometry": { "type": "Point", "coordinates": [ 6.375043744362666, 50.806763633708911 ] } },
{ "type": "Feature", "properties": { "strassenschluessel": "05358000003206412", "bezeichnung": "Pommenicher Str." }, "geometry": { "type": "Point", "coordinates": [ 6.377293636539495, 50.806766037171585 ] } },
{ "type": "Feature", "properties": { "strassenschluessel": "05358000003206413", "bezeichnung": "Prof.-von-Capitaine-Str." }, "geometry": { "type": "Point", "coordinates": [ 6.378851840310761, 50.807448750074059 ] } },
{ "type": "Feature", "properties": { "strassenschluessel": "05358000003206414", "bezeichnung": "Scheeresgasse" }, "geometry": { "type": "Point", "coordinates": [ 6.377172775730057, 50.808413340424423 ] } },
{ "type": "Feature", "properties": { "strassenschluessel": "05358000003206415", "bezeichnung": "Vilvenicher Str." }, "geometry": { "type": "Point", "coordinates": [ 6.379368716402141, 50.810480955530494 ] } },
{ "type": "Feature", "properties": { "strassenschluessel": "05358000003206416", "bezeichnung": "Zum Goldesacker" }, "geometry": { "type": "Point", "coordinates": [ 6.379668628320712, 50.80618041066618 ] } },
{ "type": "Feature", "properties": { "strassenschluessel": "05358000003206417", "bezeichnung": "Berensgasse" }, "geometry": { "type": "Point", "coordinates": [ 6.381764636047973, 50.80976167203 ] } },
{ "type": "Feature", "properties": { "strassenschluessel": "05358000003206418", "bezeichnung": "Zur Löv" }, "geometry": { "type": "Point", "coordinates": [ 6.380731557469454, 50.809916284434259 ] } },
{ "type": "Feature", "properties": { "strassenschluessel": "05358000003206499", "bezeichnung": "Pseudostr." }, "geometry": null },
{ "type": "Feature", "properties": { "strassenschluessel": "05358000003209999", "bezeichnung": "Pseudostraße" }, "geometry": { "type": "Point", "coordinates": [ 6.324773511530686, 50.781847797831205 ] } }
]
}
