{
"type": "FeatureCollection",
"features": [
{ "type": "Feature", "properties": { "strassenschluessel": "05378000001603001", "bezeichnung": "Am Gemeindeberg" }, "geometry": { "type": "Point", "coordinates": [ 7.02432383986636, 51.091777984742649 ] } },
{ "type": "Feature", "properties": { "strassenschluessel": "05378000001603002", "bezeichnung": "Alte Holzerstraße" }, "geometry": { "type": "Point", "coordinates": [ 7.01929767776143, 51.101054615524426 ] } },
{ "type": "Feature", "properties": { "strassenschluessel": "05378000001603003", "bezeichnung": "Altenbach" }, "geometry": { "type": "Point", "coordinates": [ 7.12299227827752, 51.113438870614779 ] } },
{ "type": "Feature", "properties": { "strassenschluessel": "05378000001603004", "bezeichnung": "Altenbacher Weg" }, "geometry": { "type": "Point", "coordinates": [ 7.12187661420595, 51.117259156745405 ] } },
{ "type": "Feature", "properties": { "strassenschluessel": "05378000001603005", "bezeichnung": "Altenhof" }, "geometry": { "type": "Point", "coordinates": [ 7.029044129677378, 51.126292924053132 ] } },
{ "type": "Feature", "properties": { "strassenschluessel": "05378000001603006", "bezeichnung": "Alter Mühlenweg" }, "geometry": { "type": "Point", "coordinates": [ 7.000138623065095, 51.094039698196433 ] } },
{ "type": "Feature", "properties": { "strassenschluessel": "05378000001603007", "bezeichnung": "Am Adler" }, "geometry": { "type": "Point", "coordinates": [ 6.998239333406396, 51.111231243392972 ] } },
{ "type": "Feature", "properties": { "strassenschluessel": "05378000001603008", "bezeichnung": "Am Beckers Busch" }, "geometry": { "type": "Point", "coordinates": [ 6.999865582923065, 51.101645030948518 ] } },
{ "type": "Feature", "properties": { "strassenschluessel": "05378000001603009", "bezeichnung": "Am Block" }, "geometry": { "type": "Point", "coordinates": [ 6.989673067293792, 51.107445201107637 ] } },
{ "type": "Feature", "properties": { "strassenschluessel": "05378000001603010", "bezeichnung": "Am Büscherhof" }, "geometry": { "type": "Point", "coordinates": [ 7.020078557180917, 51.103812347935708 ] } },
{ "type": "Feature", "properties": { "strassenschluessel": "05378000001603011", "bezeichnung": "Am Förstchens Busch" }, "geometry": { "type": "Point", "coordinates": [ 6.993127398777902, 51.094977524502973 ] } },
{ "type": "Feature", "properties": { "strassenschluessel": "05378000001603012", "bezeichnung": "Am Goldberg" }, "geometry": { "type": "Point", "coordinates": [ 7.012264418963913, 51.101595654135963 ] } },
{ "type": "Feature", "properties": { "strassenschluessel": "05378000001603013", "bezeichnung": "Am Hammer" }, "geometry": { "type": "Point", "coordinates": [ 7.010690855393194, 51.110415894352613 ] } },
{ "type": "Feature", "properties": { "strassenschluessel": "05378000001603014", "bezeichnung": "Am Hang" }, "geometry": { "type": "Point", "coordinates": [ 7.021853115392059, 51.106013965403726 ] } },
{ "type": "Feature", "properties": { "strassenschluessel": "05378000001603015", "bezeichnung": "Am Heidchen" }, "geometry": { "type": "Point", "coordinates": [ 7.00618788941565, 51.094858411610723 ] } },
{ "type": "Feature", "properties": { "strassenschluessel": "05378000001603016", "bezeichnung": "Am Hüpplingsgraben" }, "geometry": { "type": "Point", "coordinates": [ 7.013205239249469, 51.109433025021573 ] } },
{ "type": "Feature", "properties": { "strassenschluessel": "05378000001603017", "bezeichnung": "Am Kellerhansberg" }, "geometry": { "type": "Point", "coordinates": [ 6.999083092170683, 51.109071298488288 ] } },
{ "type": "Feature", "properties": { "strassenschluessel": "05378000001603018", "bezeichnung": "Am Kloster" }, "geometry": { "type": "Point", "coordinates": [ 7.021370586122772, 51.107921910068086 ] } },
{ "type": "Feature", "properties": { "strassenschluessel": "05378000001603019", "bezeichnung": "Am Markt" }, "geometry": { "type": "Point", "coordinates": [ 7.110307013312052, 51.115736557463315 ] } },
{ "type": "Feature", "properties": { "strassenschluessel": "05378000001603020", "bezeichnung": "Am Neulandkreuz" }, "geometry": { "type": "Point", "coordinates": [ 7.028940518220251, 51.106420927272993 ] } },
{ "type": "Feature", "properties": { "strassenschluessel": "05378000001603021", "bezeichnung": "Am Riedbach" }, "geometry": { "type": "Point", "coordinates": [ 6.997460278203786, 51.104103417743588 ] } },
{ "type": "Feature", "properties": { "strassenschluessel": "05378000001603022", "bezeichnung": "Am Rombergsweiher" }, "geometry": { "type": "Point", "coordinates": [ 6.994937368984352, 51.091193324595046 ] } },
{ "type": "Feature", "properties": { "strassenschluessel": "05378000001603023", "bezeichnung": "Am Sandberg" }, "geometry": { "type": "Point", "coordinates": [ 6.997425595032263, 51.097319645920081 ] } },
{ "type": "Feature", "properties": { "strassenschluessel": "05378000001603024", "bezeichnung": "Am Schraffenberg" }, "geometry": { "type": "Point", "coordinates": [ 7.01125067070673, 51.101622891491459 ] } },
{ "type": "Feature", "properties": { "strassenschluessel": "05378000001603025", "bezeichnung": "Am Schulbusch" }, "geometry": { "type": "Point", "coordinates": [ 7.021484450163549, 51.102324378494565 ] } },
{ "type": "Feature", "properties": { "strassenschluessel": "05378000001603026", "bezeichnung": "Amselstraße" }, "geometry": { "type": "Point", "coordinates": [ 7.024924648183965, 51.103076064869718 ] } },
{ "type": "Feature", "properties": { "strassenschluessel": "05378000001603027", "bezeichnung": "Am Staderhof" }, "geometry": { "type": "Point", "coordinates": [ 7.008785102351067, 51.107431885389872 ] } },
{ "type": "Feature", "properties": { "strassenschluessel": "05378000001603028", "bezeichnung": "Am Stadtpark" }, "geometry": { "type": "Point", "coordinates": [ 7.015203210045245, 51.10637851977507 ] } },
{ "type": "Feature", "properties": { "strassenschluessel": "05378000001603029", "bezeichnung": "Am Stoß" }, "geometry": { "type": "Point", "coordinates": [ 7.00735005833485, 51.09991779002047 ] } },
{ "type": "Feature", "properties": { "strassenschluessel": "05378000001603030", "bezeichnung": "Am Treppchen" }, "geometry": { "type": "Point", "coordinates": [ 7.020350645113304, 51.10946254247667 ] } },
{ "type": "Feature", "properties": { "strassenschluessel": "05378000001603031", "bezeichnung": "Am Wallgraben" }, "geometry": { "type": "Point", "coordinates": [ 7.013497324149202, 51.100446733475266 ] } },
{ "type": "Feature", "properties": { "strassenschluessel": "05378000001603032", "bezeichnung": "Am Weißen Stein" }, "geometry": { "type": "Point", "coordinates": [ 6.998915753232685, 51.091214086944404 ] } },
{ "type": "Feature", "properties": { "strassenschluessel": "05378000001603033", "bezeichnung": "Am Ziegelfeld" }, "geometry": { "type": "Point", "coordinates": [ 7.022456664502732, 51.108218340405315 ] } },
{ "type": "Feature", "properties": { "strassenschluessel": "05378000001603034", "bezeichnung": "An den Zweieichen" }, "geometry": { "type": "Point", "coordinates": [ 7.004589475974556, 51.099506484020068 ] } },
{ "type": "Feature", "properties": { "strassenschluessel": "05378000001603035", "bezeichnung": "An der Ziegelei" }, "geometry": { "type": "Point", "coordinates": [ 7.022069969361488, 51.107755505275954 ] } },
{ "type": "Feature", "properties": { "strassenschluessel": "05378000001603036", "bezeichnung": "Auf dem Hügel" }, "geometry": { "type": "Point", "coordinates": [ 7.10845002407325, 51.120899088185276 ] } },
{ "type": "Feature", "properties": { "strassenschluessel": "05378000001603037", "bezeichnung": "Auf dem Katzensterz" }, "geometry": { "type": "Point", "coordinates": [ 7.055851148834559, 51.10751519346163 ] } },
{ "type": "Feature", "properties": { "strassenschluessel": "05378000001603038", "bezeichnung": "Bahnhofstraße" }, "geometry": { "type": "Point", "coordinates": [ 7.006425513053534, 51.106872444661384 ] } },
{ "type": "Feature", "properties": { "strassenschluessel": "05378000001603039", "bezeichnung": "Balken" }, "geometry": { "type": "Point", "coordinates": [ 7.022323553033724, 51.091508785808145 ] } },
{ "type": "Feature", "properties": { "strassenschluessel": "05378000001603040", "bezeichnung": "Balkerberg" }, "geometry": { "type": "Point", "coordinates": [ 7.046397845249329, 51.108235574202958 ] } },
{ "type": "Feature", "properties": { "strassenschluessel": "05378000001603041", "bezeichnung": "Bechhauser Weg" }, "geometry": { "type": "Point", "coordinates": [ 7.106728371387317, 51.118743274661213 ] } },
{ "type": "Feature", "properties": { "strassenschluessel": "05378000001603042", "bezeichnung": "Bechlenberg" }, "geometry": { "type": "Point", "coordinates": [ 7.020281969131275, 51.111833162041641 ] } },
{ "type": "Feature", "properties": { "strassenschluessel": "05378000001603044", "bezeichnung": "Bergerhof" }, "geometry": { "type": "Point", "coordinates": [ 7.030008874905226, 51.116733721202642 ] } },
{ "type": "Feature", "properties": { "strassenschluessel": "05378000001603045", "bezeichnung": "Bern" }, "geometry": { "type": "Point", "coordinates": [ 7.129084177187942, 51.114549563909783 ] } },
{ "type": "Feature", "properties": { "strassenschluessel": "05378000001603046", "bezeichnung": "Bertenrath" }, "geometry": { "type": "Point", "coordinates": [ 7.026727144995731, 51.121206083198395 ] } },
{ "type": "Feature", "properties": { "strassenschluessel": "05378000001603047", "bezeichnung": "Birkenstraße" }, "geometry": { "type": "Point", "coordinates": [ 7.004547147571701, 51.11782632145141 ] } },
{ "type": "Feature", "properties": { "strassenschluessel": "05378000001603048", "bezeichnung": "Bismarckstraße" }, "geometry": { "type": "Point", "coordinates": [ 7.006398675815374, 51.104636224739778 ] } },
{ "type": "Feature", "properties": { "strassenschluessel": "05378000001603049", "bezeichnung": "Bockstiege" }, "geometry": { "type": "Point", "coordinates": [ 7.001068605102183, 51.108938251778881 ] } },
{ "type": "Feature", "properties": { "strassenschluessel": "05378000001603050", "bezeichnung": "Böttnerstraße" }, "geometry": { "type": "Point", "coordinates": [ 6.997736024034516, 51.106431916861936 ] } },
{ "type": "Feature", "properties": { "strassenschluessel": "05378000001603051", "bezeichnung": "Brachhausen" }, "geometry": { "type": "Point", "coordinates": [ 7.127348725373206, 51.119869733643007 ] } },
{ "type": "Feature", "properties": { "strassenschluessel": "05378000001603052", "bezeichnung": "Bremersheide" }, "geometry": { "type": "Point", "coordinates": [ 7.0694483236575, 51.102998389683457 ] } },
{ "type": "Feature", "properties": { "strassenschluessel": "05378000001603053", "bezeichnung": "Bremsen" }, "geometry": { "type": "Point", "coordinates": [ 7.005094331686591, 51.099415849723762 ] } },
{ "type": "Feature", "properties": { "strassenschluessel": "05378000001603054", "bezeichnung": "Bröden" }, "geometry": { "type": "Point", "coordinates": [ 7.048434852928483, 51.117922812112631 ] } },
{ "type": "Feature", "properties": { "strassenschluessel": "05378000001603055", "bezeichnung": "Brucher Weg" }, "geometry": { "type": "Point", "coordinates": [ 6.996772610080945, 51.099814774967172 ] } },
{ "type": "Feature", "properties": { "strassenschluessel": "05378000001603056", "bezeichnung": "Brückenstraße" }, "geometry": { "type": "Point", "coordinates": [ 7.013554850910993, 51.105560756229657 ] } },
{ "type": "Feature", "properties": { "strassenschluessel": "05378000001603057", "bezeichnung": "Brunnenstraße" }, "geometry": { "type": "Point", "coordinates": [ 7.014150482701647, 51.109878957503938 ] } },
{ "type": "Feature", "properties": { "strassenschluessel": "05378000001603058", "bezeichnung": "Buchenstraße" }, "geometry": { "type": "Point", "coordinates": [ 7.003735052665848, 51.118049937623042 ] } },
{ "type": "Feature", "properties": { "strassenschluessel": "05378000001603059", "bezeichnung": "Buchenweg" }, "geometry": { "type": "Point", "coordinates": [ 7.117690347742123, 51.118907261156473 ] } },
{ "type": "Feature", "properties": { "strassenschluessel": "05378000001603060", "bezeichnung": "Büscherhöfen" }, "geometry": { "type": "Point", "coordinates": [ 7.018286918995742, 51.099850775387054 ] } },
{ "type": "Feature", "properties": { "strassenschluessel": "05378000001603061", "bezeichnung": "Bungenstraße" }, "geometry": { "type": "Point", "coordinates": [ 7.001849682958838, 51.121215857901767 ] } },
{ "type": "Feature", "properties": { "strassenschluessel": "05378000001603062", "bezeichnung": "Buntenbach" }, "geometry": { "type": "Point", "coordinates": [ 7.034860091974212, 51.116813593992198 ] } },
{ "type": "Feature", "properties": { "strassenschluessel": "05378000001603063", "bezeichnung": "Burgweg" }, "geometry": { "type": "Point", "coordinates": [ 7.004010390904957, 51.094211755442807 ] } },
{ "type": "Feature", "properties": { "strassenschluessel": "05378000001603064", "bezeichnung": "Burscheider Straße" }, "geometry": { "type": "Point", "coordinates": [ 7.110532943455529, 51.114235819043742 ] } },
{ "type": "Feature", "properties": { "strassenschluessel": "05378000001603065", "bezeichnung": "Bussardstraße" }, "geometry": { "type": "Point", "coordinates": [ 7.026176138723116, 51.099153299909176 ] } },
{ "type": "Feature", "properties": { "strassenschluessel": "05378000001603066", "bezeichnung": "Claasholz" }, "geometry": { "type": "Point", "coordinates": [ 7.085278169655036, 51.120337363405525 ] } },
{ "type": "Feature", "properties": { "strassenschluessel": "05378000001603067", "bezeichnung": "Diepental" }, "geometry": { "type": "Point", "coordinates": [ 7.060974963188359, 51.098671889356488 ] } },
{ "type": "Feature", "properties": { "strassenschluessel": "05378000001603068", "bezeichnung": "Dierath" }, "geometry": { "type": "Point", "coordinates": [ 7.037812024346911, 51.120031404801964 ] } },
{ "type": "Feature", "properties": { "strassenschluessel": "05378000001603069", "bezeichnung": "Eichen" }, "geometry": { "type": "Point", "coordinates": [ 7.094056147322842, 51.103404019537898 ] } },
{ "type": "Feature", "properties": { "strassenschluessel": "05378000001603070", "bezeichnung": "Eichendorffstraße" }, "geometry": { "type": "Point", "coordinates": [ 7.02188467754906, 51.104655181969243 ] } },
{ "type": "Feature", "properties": { "strassenschluessel": "05378000001603071", "bezeichnung": "Eichenstraße" }, "geometry": { "type": "Point", "coordinates": [ 7.005873069970479, 51.118245496626457 ] } },
{ "type": "Feature", "properties": { "strassenschluessel": "05378000001603072", "bezeichnung": "Eichenweg" }, "geometry": { "type": "Point", "coordinates": [ 7.118535572086051, 51.119017132127901 ] } },
{ "type": "Feature", "properties": { "strassenschluessel": "05378000001603073", "bezeichnung": "Eicherhof" }, "geometry": { "type": "Point", "coordinates": [ 7.011877012965464, 51.112438633011699 ] } },
{ "type": "Feature", "properties": { "strassenschluessel": "05378000001603074", "bezeichnung": "Eickerfeld" }, "geometry": { "type": "Point", "coordinates": [ 7.120480928588577, 51.117659997174279 ] } },
{ "type": "Feature", "properties": { "strassenschluessel": "05378000001603075", "bezeichnung": "Ellenbogen" }, "geometry": { "type": "Point", "coordinates": [ 7.033309581221535, 51.118565413010764 ] } },
{ "type": "Feature", "properties": { "strassenschluessel": "05378000001603076", "bezeichnung": "Ermlandweg" }, "geometry": { "type": "Point", "coordinates": [ 7.003915977010728, 51.094977324737137 ] } },
{ "type": "Feature", "properties": { "strassenschluessel": "05378000001603077", "bezeichnung": "Ernst-Klein-Straße" }, "geometry": { "type": "Point", "coordinates": [ 7.017154532793295, 51.108570969788417 ] } },
{ "type": "Feature", "properties": { "strassenschluessel": "05378000001603078", "bezeichnung": "Eulenweg" }, "geometry": { "type": "Point", "coordinates": [ 7.021846731966315, 51.100848898752062 ] } },
{ "type": "Feature", "properties": { "strassenschluessel": "05378000001603079", "bezeichnung": "Fähr" }, "geometry": { "type": "Point", "coordinates": [ 7.065649025390258, 51.126712609701862 ] } },
{ "type": "Feature", "properties": { "strassenschluessel": "05378000001603080", "bezeichnung": "Fasanenstraße" }, "geometry": { "type": "Point", "coordinates": [ 7.023863281467929, 51.101263595634833 ] } },
{ "type": "Feature", "properties": { "strassenschluessel": "05378000001603081", "bezeichnung": "Felder Weg" }, "geometry": { "type": "Point", "coordinates": [ 7.112228137563234, 51.114137965180298 ] } },
{ "type": "Feature", "properties": { "strassenschluessel": "05378000001603082", "bezeichnung": "Feldstraße" }, "geometry": { "type": "Point", "coordinates": [ 7.020833456283195, 51.110074215631244 ] } },
{ "type": "Feature", "properties": { "strassenschluessel": "05378000001603083", "bezeichnung": "Fichtenweg" }, "geometry": { "type": "Point", "coordinates": [ 7.121209263659557, 51.119544288677659 ] } },
{ "type": "Feature", "properties": { "strassenschluessel": "05378000001603084", "bezeichnung": "Finkenweg" }, "geometry": { "type": "Point", "coordinates": [ 7.024461913563925, 51.103543351706655 ] } },
{ "type": "Feature", "properties": { "strassenschluessel": "05378000001603085", "bezeichnung": "Flamerscheid" }, "geometry": { "type": "Point", "coordinates": [ 7.10973839840995, 51.122698568356199 ] } },
{ "type": "Feature", "properties": { "strassenschluessel": "05378000001603086", "bezeichnung": "Flandrianstraße" }, "geometry": { "type": "Point", "coordinates": [ 6.998201489594721, 51.110084402366063 ] } },
{ "type": "Feature", "properties": { "strassenschluessel": "05378000001603087", "bezeichnung": "Förstchen" }, "geometry": { "type": "Point", "coordinates": [ 6.998959605829441, 51.097819832013641 ] } },
{ "type": "Feature", "properties": { "strassenschluessel": "05378000001603088", "bezeichnung": "Förster-Sons-Straße" }, "geometry": { "type": "Point", "coordinates": [ 6.996362311511667, 51.108366341622229 ] } },
{ "type": "Feature", "properties": { "strassenschluessel": "05378000001603089", "bezeichnung": "Freienhalle" }, "geometry": { "type": "Point", "coordinates": [ 7.08019529232072, 51.102052363066996 ] } },
{ "type": "Feature", "properties": { "strassenschluessel": "05378000001603090", "bezeichnung": "Friedensstraße" }, "geometry": { "type": "Point", "coordinates": [ 7.009518258103827, 51.097759315623456 ] } },
{ "type": "Feature", "properties": { "strassenschluessel": "05378000001603091", "bezeichnung": "Friedhofsweg" }, "geometry": { "type": "Point", "coordinates": [ 7.112493181911322, 51.117859610696563 ] } },
{ "type": "Feature", "properties": { "strassenschluessel": "05378000001603092", "bezeichnung": "Friedrichshöhe" }, "geometry": { "type": "Point", "coordinates": [ 7.078830360587183, 51.104596160057888 ] } },
{ "type": "Feature", "properties": { "strassenschluessel": "05378000001603093", "bezeichnung": "Further Weg" }, "geometry": { "type": "Point", "coordinates": [ 6.992301341682679, 51.102754936667736 ] } },
{ "type": "Feature", "properties": { "strassenschluessel": "05378000001603094", "bezeichnung": "Gartenstraße" }, "geometry": { "type": "Point", "coordinates": [ 7.014361469150726, 51.107140414365361 ] } },
{ "type": "Feature", "properties": { "strassenschluessel": "05378000001603095", "bezeichnung": "Gerhart-Hauptmann-Straße" }, "geometry": { "type": "Point", "coordinates": [ 7.023352460403108, 51.105935176684149 ] } },
{ "type": "Feature", "properties": { "strassenschluessel": "05378000001603096", "bezeichnung": "Goethestraße" }, "geometry": { "type": "Point", "coordinates": [ 7.018925100158663, 51.106046135952937 ] } },
{ "type": "Feature", "properties": { "strassenschluessel": "05378000001603097", "bezeichnung": "Gravenberger Weg" }, "geometry": { "type": "Point", "coordinates": [ 7.001709299218636, 51.120823069766239 ] } },
{ "type": "Feature", "properties": { "strassenschluessel": "05378000001603098", "bezeichnung": "Grünscheid" }, "geometry": { "type": "Point", "coordinates": [ 7.056250419942485, 51.116014004576996 ] } },
{ "type": "Feature", "properties": { "strassenschluessel": "05378000001603099", "bezeichnung": "Grünscheider Mühle" }, "geometry": { "type": "Point", "coordinates": [ 7.077745627186958, 51.09873639678991 ] } },
{ "type": "Feature", "properties": { "strassenschluessel": "05378000001603100", "bezeichnung": "Grünstraße" }, "geometry": { "type": "Point", "coordinates": [ 7.021098176170919, 51.109256596142544 ] } },
{ "type": "Feature", "properties": { "strassenschluessel": "05378000001603101", "bezeichnung": "Hasensprung" }, "geometry": { "type": "Point", "coordinates": [ 7.023662933771325, 51.098333957067467 ] } },
{ "type": "Feature", "properties": { "strassenschluessel": "05378000001603102", "bezeichnung": "Haswinkel" }, "geometry": { "type": "Point", "coordinates": [ 7.056856677196521, 51.099302466225851 ] } },
{ "type": "Feature", "properties": { "strassenschluessel": "05378000001603103", "bezeichnung": "Hauptstraße" }, "geometry": { "type": "Point", "coordinates": [ 7.112979875200209, 51.11709812286594 ] } },
{ "type": "Feature", "properties": { "strassenschluessel": "05378000001603104", "bezeichnung": "Haus Vorst" }, "geometry": { "type": "Point", "coordinates": [ 7.019823346446553, 51.089396510482899 ] } },
{ "type": "Feature", "properties": { "strassenschluessel": "05378000001603105", "bezeichnung": "Heide" }, "geometry": { "type": "Point", "coordinates": [ 7.140970196648185, 51.109358841012153 ] } },
{ "type": "Feature", "properties": { "strassenschluessel": "05378000001603106", "bezeichnung": "Heinestraße" }, "geometry": { "type": "Point", "coordinates": [ 7.01949446981572, 51.105038892990905 ] } },
{ "type": "Feature", "properties": { "strassenschluessel": "05378000001603107", "bezeichnung": "Heinrich-Gier-Straße" }, "geometry": { "type": "Point", "coordinates": [ 7.018339772061555, 51.108499156269623 ] } },
{ "type": "Feature", "properties": { "strassenschluessel": "05378000001603108", "bezeichnung": "Herscheid" }, "geometry": { "type": "Point", "coordinates": [ 7.092755610532527, 51.122407746602356 ] } },
{ "type": "Feature", "properties": { "strassenschluessel": "05378000001603109", "bezeichnung": "Hesselmannstraße" }, "geometry": { "type": "Point", "coordinates": [ 6.998040800367359, 51.105931325224347 ] } },
{ "type": "Feature", "properties": { "strassenschluessel": "05378000001603110", "bezeichnung": "Höhscheid" }, "geometry": { "type": "Point", "coordinates": [ 7.130639861388792, 51.109939933285737 ] } },
{ "type": "Feature", "properties": { "strassenschluessel": "05378000001603111", "bezeichnung": "Hölverscheid" }, "geometry": { "type": "Point", "coordinates": [ 7.141559179077508, 51.114390726614175 ] } },
{ "type": "Feature", "properties": { "strassenschluessel": "05378000001603112", "bezeichnung": "Hochstraße" }, "geometry": { "type": "Point", "coordinates": [ 7.001840462806951, 51.107457468917247 ] } },
{ "type": "Feature", "properties": { "strassenschluessel": "05378000001603113", "bezeichnung": "Hohlenweg" }, "geometry": { "type": "Point", "coordinates": [ 7.041296819691064, 51.122031183775469 ] } },
{ "type": "Feature", "properties": { "strassenschluessel": "05378000001603114", "bezeichnung": "Holzerhof" }, "geometry": { "type": "Point", "coordinates": [ 7.086918868065147, 51.114474119898169 ] } },
{ "type": "Feature", "properties": { "strassenschluessel": "05378000001603115", "bezeichnung": "Hülserhof" }, "geometry": { "type": "Point", "coordinates": [ 7.007993991944708, 51.087778945460947 ] } },
{ "type": "Feature", "properties": { "strassenschluessel": "05378000001603116", "bezeichnung": "Hülserweg" }, "geometry": { "type": "Point", "coordinates": [ 7.000638351276496, 51.08954897487434 ] } },
{ "type": "Feature", "properties": { "strassenschluessel": "05378000001603117", "bezeichnung": "Hülstrung" }, "geometry": { "type": "Point", "coordinates": [ 7.019732306783598, 51.118636133650426 ] } },
{ "type": "Feature", "properties": { "strassenschluessel": "05378000001603118", "bezeichnung": "Hüschelrath" }, "geometry": { "type": "Point", "coordinates": [ 7.026549923052503, 51.102665651999196 ] } },
{ "type": "Feature", "properties": { "strassenschluessel": "05378000001603119", "bezeichnung": "Hüttchen" }, "geometry": { "type": "Point", "coordinates": [ 7.000726462018134, 51.111047272216823 ] } },
{ "type": "Feature", "properties": { "strassenschluessel": "05378000001603120", "bezeichnung": "Im Dorffeld" }, "geometry": { "type": "Point", "coordinates": [ 7.02048005546416, 51.107003969267033 ] } },
{ "type": "Feature", "properties": { "strassenschluessel": "05378000001603121", "bezeichnung": "Im Honnefeld" }, "geometry": { "type": "Point", "coordinates": [ 7.112091482785873, 51.113382384981456 ] } },
{ "type": "Feature", "properties": { "strassenschluessel": "05378000001603122", "bezeichnung": "Immigrather Straße" }, "geometry": { "type": "Point", "coordinates": [ 6.994991588370407, 51.104832810643913 ] } },
{ "type": "Feature", "properties": { "strassenschluessel": "05378000001603123", "bezeichnung": "Im Rottfeld" }, "geometry": { "type": "Point", "coordinates": [ 7.000732734350019, 51.097227573472338 ] } },
{ "type": "Feature", "properties": { "strassenschluessel": "05378000001603124", "bezeichnung": "Im Tiergarten" }, "geometry": { "type": "Point", "coordinates": [ 7.005144648405426, 51.10568434367439 ] } },
{ "type": "Feature", "properties": { "strassenschluessel": "05378000001603125", "bezeichnung": "In den Birken" }, "geometry": { "type": "Point", "coordinates": [ 7.125408849728219, 51.117404130066767 ] } },
{ "type": "Feature", "properties": { "strassenschluessel": "05378000001603126", "bezeichnung": "In der Meie" }, "geometry": { "type": "Point", "coordinates": [ 7.117417141536883, 51.118244908919799 ] } },
{ "type": "Feature", "properties": { "strassenschluessel": "05378000001603127", "bezeichnung": "Johannisberg" }, "geometry": { "type": "Point", "coordinates": [ 7.027216525625144, 51.104462089337154 ] } },
{ "type": "Feature", "properties": { "strassenschluessel": "05378000001603128", "bezeichnung": "Julius-Kronenberg-Straße" }, "geometry": { "type": "Point", "coordinates": [ 7.000906236262714, 51.108693352336665 ] } },
{ "type": "Feature", "properties": { "strassenschluessel": "05378000001603129", "bezeichnung": "Junkersholz" }, "geometry": { "type": "Point", "coordinates": [ 7.044453768080079, 51.100643502378567 ] } },
{ "type": "Feature", "properties": { "strassenschluessel": "05378000001603130", "bezeichnung": "Kaltenberg" }, "geometry": { "type": "Point", "coordinates": [ 7.007281861763462, 51.102125932047485 ] } },
{ "type": "Feature", "properties": { "strassenschluessel": "05378000001603131", "bezeichnung": "Karl-Huschens-Straße" }, "geometry": { "type": "Point", "coordinates": [ 7.02664203141205, 51.108487937106091 ] } },
{ "type": "Feature", "properties": { "strassenschluessel": "05378000001603132", "bezeichnung": "Kempen" }, "geometry": { "type": "Point", "coordinates": [ 7.046940493827835, 51.121082262944967 ] } },
{ "type": "Feature", "properties": { "strassenschluessel": "05378000001603133", "bezeichnung": "Am Murbach" }, "geometry": { "type": "Point", "coordinates": [ 7.0231506793797, 51.093023386674915 ] } },
{ "type": "Feature", "properties": { "strassenschluessel": "05378000001603134", "bezeichnung": "Kiefernweg" }, "geometry": { "type": "Point", "coordinates": [ 7.11292211077061, 51.120110735083507 ] } },
{ "type": "Feature", "properties": { "strassenschluessel": "05378000001603135", "bezeichnung": "Kirchstraße" }, "geometry": { "type": "Point", "coordinates": [ 7.018668629841452, 51.107997796289794 ] } },
{ "type": "Feature", "properties": { "strassenschluessel": "05378000001603136", "bezeichnung": "Kirchweg" }, "geometry": { "type": "Point", "coordinates": [ 7.111457311736697, 51.115210356058647 ] } },
{ "type": "Feature", "properties": { "strassenschluessel": "05378000001603137", "bezeichnung": "Kleiststraße" }, "geometry": { "type": "Point", "coordinates": [ 7.020533972262292, 51.1044258884653 ] } },
{ "type": "Feature", "properties": { "strassenschluessel": "05378000001603138", "bezeichnung": "Kölsch Päddche" }, "geometry": { "type": "Point", "coordinates": [ 6.996945457318861, 51.092495240886194 ] } },
{ "type": "Feature", "properties": { "strassenschluessel": "05378000001603139", "bezeichnung": "Koltershäuschen" }, "geometry": { "type": "Point", "coordinates": [ 7.075254213449857, 51.103217824200286 ] } },
{ "type": "Feature", "properties": { "strassenschluessel": "05378000001603140", "bezeichnung": "Krähwinkel" }, "geometry": { "type": "Point", "coordinates": [ 7.099006466322426, 51.112989408820141 ] } },
{ "type": "Feature", "properties": { "strassenschluessel": "05378000001603141", "bezeichnung": "Krabbenhäuschen" }, "geometry": { "type": "Point", "coordinates": [ 7.088387156359601, 51.108997480722628 ] } },
{ "type": "Feature", "properties": { "strassenschluessel": "05378000001603142", "bezeichnung": "Kradenpuhl" }, "geometry": { "type": "Point", "coordinates": [ 7.018232901241224, 51.124618015205556 ] } },
{ "type": "Feature", "properties": { "strassenschluessel": "05378000001603143", "bezeichnung": "Neuenkamper Weg" }, "geometry": { "type": "Point", "coordinates": [ 7.025644288613765, 51.09130898454184 ] } },
{ "type": "Feature", "properties": { "strassenschluessel": "05378000001603144", "bezeichnung": "Kuhle" }, "geometry": { "type": "Point", "coordinates": [ 7.136924536768403, 51.117189026961682 ] } },
{ "type": "Feature", "properties": { "strassenschluessel": "05378000001603145", "bezeichnung": "Kurlandweg" }, "geometry": { "type": "Point", "coordinates": [ 7.002346012665106, 51.09505639995443 ] } },
{ "type": "Feature", "properties": { "strassenschluessel": "05378000001603146", "bezeichnung": "Kurze Straße" }, "geometry": { "type": "Point", "coordinates": [ 7.017426821456416, 51.110683737858317 ] } },
{ "type": "Feature", "properties": { "strassenschluessel": "05378000001603147", "bezeichnung": "Lärchenweg" }, "geometry": { "type": "Point", "coordinates": [ 7.11426624402959, 51.120257126169008 ] } },
{ "type": "Feature", "properties": { "strassenschluessel": "05378000001603148", "bezeichnung": "Blütenweg" }, "geometry": { "type": "Point", "coordinates": [ 7.13601409214436, 51.113799192443828 ] } },
{ "type": "Feature", "properties": { "strassenschluessel": "05378000001603149", "bezeichnung": "Landrat-Trimborn-Straße" }, "geometry": { "type": "Point", "coordinates": [ 7.028121283702588, 51.112068309597113 ] } },
{ "type": "Feature", "properties": { "strassenschluessel": "05378000001603150", "bezeichnung": "Landwehrstraße" }, "geometry": null },
{ "type": "Feature", "properties": { "strassenschluessel": "05378000001603151", "bezeichnung": "Leichlinger Straße" }, "geometry": { "type": "Point", "coordinates": [ 7.109375840414258, 51.115119800889474 ] } },
{ "type": "Feature", "properties": { "strassenschluessel": "05378000001603152", "bezeichnung": "Lessingstraße" }, "geometry": { "type": "Point", "coordinates": [ 7.018046474189072, 51.104896615840183 ] } },
{ "type": "Feature", "properties": { "strassenschluessel": "05378000001603153", "bezeichnung": "Leysiefen" }, "geometry": { "type": "Point", "coordinates": [ 7.042141985715889, 51.128247093835107 ] } },
{ "type": "Feature", "properties": { "strassenschluessel": "05378000001603154", "bezeichnung": "Lingemannstraße" }, "geometry": { "type": "Point", "coordinates": [ 7.016654411316996, 51.106790159828613 ] } },
{ "type": "Feature", "properties": { "strassenschluessel": "05378000001603155", "bezeichnung": "Ludger-Kühler-Straße" }, "geometry": { "type": "Point", "coordinates": [ 7.019328376666174, 51.107001853085436 ] } },
{ "type": "Feature", "properties": { "strassenschluessel": "05378000001603156", "bezeichnung": "Märzgäßchen" }, "geometry": { "type": "Point", "coordinates": [ 7.016003680700108, 51.10745690042674 ] } },
{ "type": "Feature", "properties": { "strassenschluessel": "05378000001603157", "bezeichnung": "Marktstraße" }, "geometry": { "type": "Point", "coordinates": [ 7.013185175480562, 51.107663488058627 ] } },
{ "type": "Feature", "properties": { "strassenschluessel": "05378000001603158", "bezeichnung": "Masurenweg" }, "geometry": { "type": "Point", "coordinates": [ 7.004271821116587, 51.095440235378575 ] } },
{ "type": "Feature", "properties": { "strassenschluessel": "05378000001603159", "bezeichnung": "Meisenweg" }, "geometry": { "type": "Point", "coordinates": [ 7.025918021561681, 51.101531400627074 ] } },
{ "type": "Feature", "properties": { "strassenschluessel": "05378000001603160", "bezeichnung": "Merlenforst" }, "geometry": { "type": "Point", "coordinates": [ 7.00368381899414, 51.110416038930246 ] } },
{ "type": "Feature", "properties": { "strassenschluessel": "05378000001603161", "bezeichnung": "Metzholz" }, "geometry": { "type": "Point", "coordinates": [ 7.086790761387419, 51.108598865952956 ] } },
{ "type": "Feature", "properties": { "strassenschluessel": "05378000001603162", "bezeichnung": "Mittelstraße" }, "geometry": { "type": "Point", "coordinates": [ 7.017652598740172, 51.109695956523865 ] } },
{ "type": "Feature", "properties": { "strassenschluessel": "05378000001603163", "bezeichnung": "Mörikestraße" }, "geometry": { "type": "Point", "coordinates": [ 7.021212392383248, 51.105645441166025 ] } },
{ "type": "Feature", "properties": { "strassenschluessel": "05378000001603164", "bezeichnung": "Moltkestraße" }, "geometry": { "type": "Point", "coordinates": [ 7.001063994652938, 51.104865354597642 ] } },
{ "type": "Feature", "properties": { "strassenschluessel": "05378000001603165", "bezeichnung": "Montanusstraße" }, "geometry": { "type": "Point", "coordinates": [ 7.018966486945208, 51.105825283271457 ] } },
{ "type": "Feature", "properties": { "strassenschluessel": "05378000001603166", "bezeichnung": "Müllerhof" }, "geometry": { "type": "Point", "coordinates": [ 7.00781881665284, 51.121651311095938 ] } },
{ "type": "Feature", "properties": { "strassenschluessel": "05378000001603167", "bezeichnung": "Nesselrath" }, "geometry": { "type": "Point", "coordinates": [ 7.020779711900902, 51.127569001197578 ] } },
{ "type": "Feature", "properties": { "strassenschluessel": "05378000001603168", "bezeichnung": "Neuenhof" }, "geometry": { "type": "Point", "coordinates": [ 7.13101700360276, 51.116709230208841 ] } },
{ "type": "Feature", "properties": { "strassenschluessel": "05378000001603169", "bezeichnung": "Neuenkamp" }, "geometry": { "type": "Point", "coordinates": [ 7.026271860711359, 51.091668333619019 ] } },
{ "type": "Feature", "properties": { "strassenschluessel": "05378000001603170", "bezeichnung": "Neukirchener Straße" }, "geometry": { "type": "Point", "coordinates": [ 7.015555542130842, 51.103882202600097 ] } },
{ "type": "Feature", "properties": { "strassenschluessel": "05378000001603171", "bezeichnung": "Neuland" }, "geometry": { "type": "Point", "coordinates": [ 7.030193953533895, 51.108262431151395 ] } },
{ "type": "Feature", "properties": { "strassenschluessel": "05378000001603172", "bezeichnung": "Neustraße" }, "geometry": { "type": "Point", "coordinates": [ 7.001167126875017, 51.110617068597321 ] } },
{ "type": "Feature", "properties": { "strassenschluessel": "05378000001603173", "bezeichnung": "Neuwinkel" }, "geometry": { "type": "Point", "coordinates": [ 7.060724252186239, 51.105279751871542 ] } },
{ "type": "Feature", "properties": { "strassenschluessel": "05378000001603174", "bezeichnung": "Oberbüscherhof" }, "geometry": { "type": "Point", "coordinates": [ 7.085177098590499, 51.120202570021526 ] } },
{ "type": "Feature", "properties": { "strassenschluessel": "05378000001603175", "bezeichnung": "Oberschmitte" }, "geometry": { "type": "Point", "coordinates": [ 7.033812129552644, 51.119798349802302 ] } },
{ "type": "Feature", "properties": { "strassenschluessel": "05378000001603176", "bezeichnung": "Opladener Straße" }, "geometry": { "type": "Point", "coordinates": [ 7.001143629940125, 51.095180386253759 ] } },
{ "type": "Feature", "properties": { "strassenschluessel": "05378000001603177", "bezeichnung": "Ordel" }, "geometry": { "type": "Point", "coordinates": [ 7.022825198587666, 51.097507057329523 ] } },
{ "type": "Feature", "properties": { "strassenschluessel": "05378000001603178", "bezeichnung": "Orth" }, "geometry": { "type": "Point", "coordinates": [ 7.084668403012341, 51.125477042495689 ] } },
{ "type": "Feature", "properties": { "strassenschluessel": "05378000001603179", "bezeichnung": "Oskar-Erbslöh-Straße" }, "geometry": { "type": "Point", "coordinates": [ 7.018342381759769, 51.095812401530893 ] } },
{ "type": "Feature", "properties": { "strassenschluessel": "05378000001603180", "bezeichnung": "Ostlandweg" }, "geometry": { "type": "Point", "coordinates": [ 7.006414956431107, 51.096658349423052 ] } },
{ "type": "Feature", "properties": { "strassenschluessel": "05378000001603181", "bezeichnung": "Parkweg" }, "geometry": { "type": "Point", "coordinates": [ 7.111898042525781, 51.115554968878591 ] } },
{ "type": "Feature", "properties": { "strassenschluessel": "05378000001603182", "bezeichnung": "Pastorat" }, "geometry": { "type": "Point", "coordinates": [ 7.010810079530772, 51.107640009852268 ] } },
{ "type": "Feature", "properties": { "strassenschluessel": "05378000001603183", "bezeichnung": "Peter-Bremer-Straße" }, "geometry": { "type": "Point", "coordinates": [ 7.011958177040587, 51.100840676943776 ] } },
{ "type": "Feature", "properties": { "strassenschluessel": "05378000001603184", "bezeichnung": "Planenhof" }, "geometry": { "type": "Point", "coordinates": [ 7.068537408110741, 51.098796346290804 ] } },
{ "type": "Feature", "properties": { "strassenschluessel": "05378000001603185", "bezeichnung": "Pohligshof" }, "geometry": { "type": "Point", "coordinates": [ 7.038759797123623, 51.116979848359364 ] } },
{ "type": "Feature", "properties": { "strassenschluessel": "05378000001603186", "bezeichnung": "Poststraße" }, "geometry": { "type": "Point", "coordinates": [ 7.010169939096306, 51.105262579208635 ] } },
{ "type": "Feature", "properties": { "strassenschluessel": "05378000001603187", "bezeichnung": "Raderhof" }, "geometry": { "type": "Point", "coordinates": [ 7.106880666174805, 51.129813968564044 ] } },
{ "type": "Feature", "properties": { "strassenschluessel": "05378000001603188", "bezeichnung": "Rat-Deycks-Straße" }, "geometry": { "type": "Point", "coordinates": [ 6.997327189770542, 51.109391838789278 ] } },
{ "type": "Feature", "properties": { "strassenschluessel": "05378000001603189", "bezeichnung": "Rehborn" }, "geometry": { "type": "Point", "coordinates": [ 7.006919948818222, 51.091976078684695 ] } },
{ "type": "Feature", "properties": { "strassenschluessel": "05378000001603190", "bezeichnung": "Reusrather Straße" }, "geometry": { "type": "Point", "coordinates": [ 6.992178291891964, 51.094547584819701 ] } },
{ "type": "Feature", "properties": { "strassenschluessel": "05378000001603191", "bezeichnung": "Roderbirken" }, "geometry": { "type": "Point", "coordinates": [ 7.041514538871776, 51.105819114285048 ] } },
{ "type": "Feature", "properties": { "strassenschluessel": "05378000001603192", "bezeichnung": "Roderhof" }, "geometry": { "type": "Point", "coordinates": [ 7.04266868355598, 51.114570471018595 ] } },
{ "type": "Feature", "properties": { "strassenschluessel": "05378000001603193", "bezeichnung": "Rödel" }, "geometry": { "type": "Point", "coordinates": [ 7.061647415537489, 51.125375977962321 ] } },
{ "type": "Feature", "properties": { "strassenschluessel": "05378000001603194", "bezeichnung": "Rominterweg" }, "geometry": { "type": "Point", "coordinates": [ 7.005908248215902, 51.096082152778884 ] } },
{ "type": "Feature", "properties": { "strassenschluessel": "05378000001603195", "bezeichnung": "Roßlenbruch" }, "geometry": { "type": "Point", "coordinates": [ 6.999378765529171, 51.104754519500752 ] } },
{ "type": "Feature", "properties": { "strassenschluessel": "05378000001603196", "bezeichnung": "Rothenberg" }, "geometry": { "type": "Point", "coordinates": [ 6.998229226648911, 51.093669493413351 ] } },
{ "type": "Feature", "properties": { "strassenschluessel": "05378000001603197", "bezeichnung": "Samlandweg" }, "geometry": { "type": "Point", "coordinates": [ 7.006831384489214, 51.095456518831675 ] } },
{ "type": "Feature", "properties": { "strassenschluessel": "05378000001603198", "bezeichnung": "Scharweg" }, "geometry": { "type": "Point", "coordinates": [ 7.107855823754973, 51.122977484917541 ] } },
{ "type": "Feature", "properties": { "strassenschluessel": "05378000001603199", "bezeichnung": "Scheidt" }, "geometry": { "type": "Point", "coordinates": [ 7.024502645553359, 51.122110611830486 ] } },
{ "type": "Feature", "properties": { "strassenschluessel": "05378000001603200", "bezeichnung": "Scheuerhof" }, "geometry": { "type": "Point", "coordinates": [ 7.081326916168061, 51.105480414681537 ] } },
{ "type": "Feature", "properties": { "strassenschluessel": "05378000001603201", "bezeichnung": "Schillerstraße" }, "geometry": { "type": "Point", "coordinates": [ 7.016603578754009, 51.106229687524284 ] } },
{ "type": "Feature", "properties": { "strassenschluessel": "05378000001603202", "bezeichnung": "Schmerbach" }, "geometry": { "type": "Point", "coordinates": [ 7.03256518249962, 51.113948794358436 ] } },
{ "type": "Feature", "properties": { "strassenschluessel": "05378000001603203", "bezeichnung": "Schnugsheide" }, "geometry": { "type": "Point", "coordinates": [ 7.003639165023577, 51.09380913437144 ] } },
{ "type": "Feature", "properties": { "strassenschluessel": "05378000001603204", "bezeichnung": "Schüddig" }, "geometry": { "type": "Point", "coordinates": [ 7.086842275170308, 51.113144058194152 ] } },
{ "type": "Feature", "properties": { "strassenschluessel": "05378000001603205", "bezeichnung": "Schützenstraße" }, "geometry": { "type": "Point", "coordinates": [ 7.019258641921656, 51.109372455279789 ] } },
{ "type": "Feature", "properties": { "strassenschluessel": "05378000001603206", "bezeichnung": "Schulstraße" }, "geometry": { "type": "Point", "coordinates": [ 7.008935995539564, 51.105968986210534 ] } },
{ "type": "Feature", "properties": { "strassenschluessel": "05378000001603207", "bezeichnung": "Farnweg" }, "geometry": { "type": "Point", "coordinates": [ 7.140154381240181, 51.110326838397597 ] } },
{ "type": "Feature", "properties": { "strassenschluessel": "05378000001603208", "bezeichnung": "Schwalbenweg" }, "geometry": { "type": "Point", "coordinates": [ 7.026127511745077, 51.099708383097273 ] } },
{ "type": "Feature", "properties": { "strassenschluessel": "05378000001603209", "bezeichnung": "Sieferhof" }, "geometry": { "type": "Point", "coordinates": [ 7.092072158339532, 51.116739774628549 ] } },
{ "type": "Feature", "properties": { "strassenschluessel": "05378000001603210", "bezeichnung": "Solinger Straße" }, "geometry": { "type": "Point", "coordinates": [ 7.110601951452477, 51.117655505814767 ] } },
{ "type": "Feature", "properties": { "strassenschluessel": "05378000001603211", "bezeichnung": "Ginsterweg" }, "geometry": { "type": "Point", "coordinates": [ 7.137648098428109, 51.11055352542742 ] } },
{ "type": "Feature", "properties": { "strassenschluessel": "05378000001603212", "bezeichnung": "Sonne" }, "geometry": { "type": "Point", "coordinates": [ 7.030182120641628, 51.095723771702495 ] } },
{ "type": "Feature", "properties": { "strassenschluessel": "05378000001603213", "bezeichnung": "Sperberstraße" }, "geometry": { "type": "Point", "coordinates": [ 7.022609530561989, 51.102096186999844 ] } },
{ "type": "Feature", "properties": { "strassenschluessel": "05378000001603214", "bezeichnung": "Sperlingsweg" }, "geometry": { "type": "Point", "coordinates": [ 7.023148256945181, 51.101664484750856 ] } },
{ "type": "Feature", "properties": { "strassenschluessel": "05378000001603215", "bezeichnung": "Staderhof" }, "geometry": { "type": "Point", "coordinates": [ 7.008337528556579, 51.109497778380117 ] } },
{ "type": "Feature", "properties": { "strassenschluessel": "05378000001603216", "bezeichnung": "Stegerhäuschen" }, "geometry": { "type": "Point", "coordinates": [ 7.022805560950871, 51.098876161678184 ] } },
{ "type": "Feature", "properties": { "strassenschluessel": "05378000001603217", "bezeichnung": "Stieglitzweg" }, "geometry": { "type": "Point", "coordinates": [ 7.027283112206934, 51.10121646463417 ] } },
{ "type": "Feature", "properties": { "strassenschluessel": "05378000001603218", "bezeichnung": "Stockberg" }, "geometry": { "type": "Point", "coordinates": [ 6.998453694467488, 51.11249593565271 ] } },
{ "type": "Feature", "properties": { "strassenschluessel": "05378000001603219", "bezeichnung": "Stöcken" }, "geometry": { "type": "Point", "coordinates": [ 7.053220209911863, 51.100633302386953 ] } },
{ "type": "Feature", "properties": { "strassenschluessel": "05378000001603220", "bezeichnung": "Stormstraße" }, "geometry": { "type": "Point", "coordinates": [ 7.023550655881109, 51.104753890931391 ] } },
{ "type": "Feature", "properties": { "strassenschluessel": "05378000001603221", "bezeichnung": "Tannenstraße" }, "geometry": { "type": "Point", "coordinates": [ 7.004189849183742, 51.119132800647385 ] } },
{ "type": "Feature", "properties": { "strassenschluessel": "05378000001603222", "bezeichnung": "Tannenweg" }, "geometry": { "type": "Point", "coordinates": [ 7.119397884079722, 51.119119420662265 ] } },
{ "type": "Feature", "properties": { "strassenschluessel": "05378000001603223", "bezeichnung": "Tirol" }, "geometry": { "type": "Point", "coordinates": [ 7.099351270225601, 51.104982089199169 ] } },
{ "type": "Feature", "properties": { "strassenschluessel": "05378000001603224", "bezeichnung": "Trompete" }, "geometry": { "type": "Point", "coordinates": [ 6.999251407858662, 51.095988794541185 ] } },
{ "type": "Feature", "properties": { "strassenschluessel": "05378000001603225", "bezeichnung": "Ufer" }, "geometry": { "type": "Point", "coordinates": [ 7.087081893709871, 51.113862198057433 ] } },
{ "type": "Feature", "properties": { "strassenschluessel": "05378000001603226", "bezeichnung": "Uferstraße" }, "geometry": { "type": "Point", "coordinates": [ 7.009824008489534, 51.106149697321669 ] } },
{ "type": "Feature", "properties": { "strassenschluessel": "05378000001603227", "bezeichnung": "Unterberg" }, "geometry": { "type": "Point", "coordinates": [ 7.015073650798245, 51.117009177870663 ] } },
{ "type": "Feature", "properties": { "strassenschluessel": "05378000001603228", "bezeichnung": "Unterbüscherhof" }, "geometry": { "type": "Point", "coordinates": [ 7.082640356430194, 51.113050733071134 ] } },
{ "type": "Feature", "properties": { "strassenschluessel": "05378000001603229", "bezeichnung": "Unter Nüsenhöfen" }, "geometry": { "type": "Point", "coordinates": [ 7.117281968320444, 51.11691878594506 ] } },
{ "type": "Feature", "properties": { "strassenschluessel": "05378000001603230", "bezeichnung": "Unterschmitte" }, "geometry": { "type": "Point", "coordinates": [ 6.999320253270706, 51.106596995087195 ] } },
{ "type": "Feature", "properties": { "strassenschluessel": "05378000001603231", "bezeichnung": "Vogelwarte" }, "geometry": { "type": "Point", "coordinates": [ 7.028226637394168, 51.101078713978751 ] } },
{ "type": "Feature", "properties": { "strassenschluessel": "05378000001603232", "bezeichnung": "Von-Berlepsch-Straße" }, "geometry": { "type": "Point", "coordinates": [ 6.998095171486731, 51.109578532520644 ] } },
{ "type": "Feature", "properties": { "strassenschluessel": "05378000001603233", "bezeichnung": "Von-Hauer-Straße" }, "geometry": { "type": "Point", "coordinates": [ 6.998588933215504, 51.107875373992854 ] } },
{ "type": "Feature", "properties": { "strassenschluessel": "05378000001603234", "bezeichnung": "Von-Mirbach-Harff-Straße" }, "geometry": { "type": "Point", "coordinates": [ 7.00824625159902, 51.097301452717041 ] } },
{ "type": "Feature", "properties": { "strassenschluessel": "05378000001603235", "bezeichnung": "Wachholder" }, "geometry": { "type": "Point", "coordinates": [ 7.028741158971881, 51.112148167132773 ] } },
{ "type": "Feature", "properties": { "strassenschluessel": "05378000001603236", "bezeichnung": "Waldstraße" }, "geometry": { "type": "Point", "coordinates": [ 7.120089615457803, 51.118693658942448 ] } },
{ "type": "Feature", "properties": { "strassenschluessel": "05378000001603237", "bezeichnung": "Waltenrath" }, "geometry": { "type": "Point", "coordinates": [ 7.032557525465265, 51.116103305233068 ] } },
{ "type": "Feature", "properties": { "strassenschluessel": "05378000001603238", "bezeichnung": "Weide" }, "geometry": { "type": "Point", "coordinates": [ 7.031615503850857, 51.116562156447884 ] } },
{ "type": "Feature", "properties": { "strassenschluessel": "05378000001603239", "bezeichnung": "Weltersbach" }, "geometry": { "type": "Point", "coordinates": [ 7.079470497874899, 51.108837130015438 ] } },
{ "type": "Feature", "properties": { "strassenschluessel": "05378000001603240", "bezeichnung": "Wersbach" }, "geometry": { "type": "Point", "coordinates": [ 7.112958222707493, 51.107427802552756 ] } },
{ "type": "Feature", "properties": { "strassenschluessel": "05378000001603241", "bezeichnung": "Wersbachtal" }, "geometry": { "type": "Point", "coordinates": [ 7.112064810535374, 51.104093844268128 ] } },
{ "type": "Feature", "properties": { "strassenschluessel": "05378000001603242", "bezeichnung": "Weyermannstraße" }, "geometry": { "type": "Point", "coordinates": [ 7.007501915044924, 51.107847452828764 ] } },
{ "type": "Feature", "properties": { "strassenschluessel": "05378000001603243", "bezeichnung": "Wietsche" }, "geometry": { "type": "Point", "coordinates": [ 7.033575231735393, 51.094052372830006 ] } },
{ "type": "Feature", "properties": { "strassenschluessel": "05378000001603244", "bezeichnung": "Wilhelmstal" }, "geometry": { "type": "Point", "coordinates": [ 7.097906547846398, 51.111348428787927 ] } },
{ "type": "Feature", "properties": { "strassenschluessel": "05378000001603245", "bezeichnung": "Windfoche" }, "geometry": { "type": "Point", "coordinates": [ 7.098038060610481, 51.107072860248117 ] } },
{ "type": "Feature", "properties": { "strassenschluessel": "05378000001603246", "bezeichnung": "Wolfstall" }, "geometry": { "type": "Point", "coordinates": [ 7.096379700594359, 51.127060406096561 ] } },
{ "type": "Feature", "properties": { "strassenschluessel": "05378000001603247", "bezeichnung": "Wupperhof" }, "geometry": { "type": "Point", "coordinates": [ 7.08367089719146, 51.137282559654352 ] } },
{ "type": "Feature", "properties": { "strassenschluessel": "05378000001603248", "bezeichnung": "Zeisigweg" }, "geometry": { "type": "Point", "coordinates": [ 7.025467733192577, 51.102216723393944 ] } },
{ "type": "Feature", "properties": { "strassenschluessel": "05378000001603249", "bezeichnung": "Zeit" }, "geometry": { "type": "Point", "coordinates": [ 7.046731625173508, 51.098063930701194 ] } },
{ "type": "Feature", "properties": { "strassenschluessel": "05378000001603250", "bezeichnung": "Ziegwebersberg" }, "geometry": { "type": "Point", "coordinates": [ 7.002696927369168, 51.117092351006292 ] } },
{ "type": "Feature", "properties": { "strassenschluessel": "05378000001603251", "bezeichnung": "Am Sonnenhang" }, "geometry": { "type": "Point", "coordinates": [ 7.109526569313114, 51.118725326495927 ] } },
{ "type": "Feature", "properties": { "strassenschluessel": "05378000001603252", "bezeichnung": "Am Schneeberg" }, "geometry": { "type": "Point", "coordinates": [ 7.107977599868985, 51.11567510078185 ] } },
{ "type": "Feature", "properties": { "strassenschluessel": "05378000001603253", "bezeichnung": "Talweg" }, "geometry": { "type": "Point", "coordinates": [ 7.113533323005781, 51.11403904572115 ] } },
{ "type": "Feature", "properties": { "strassenschluessel": "05378000001603254", "bezeichnung": "Wiedenbacher Weg" }, "geometry": { "type": "Point", "coordinates": [ 7.087329628120046, 51.108385628697469 ] } },
{ "type": "Feature", "properties": { "strassenschluessel": "05378000001603255", "bezeichnung": "Auf dem Kamp" }, "geometry": { "type": "Point", "coordinates": [ 7.109889304580658, 51.121188786180724 ] } },
{ "type": "Feature", "properties": { "strassenschluessel": "05378000001603256", "bezeichnung": "Am Weiher" }, "geometry": { "type": "Point", "coordinates": [ 7.109870266444011, 51.119156017663812 ] } },
{ "type": "Feature", "properties": { "strassenschluessel": "05378000001603257", "bezeichnung": "Am Wiesenberg" }, "geometry": { "type": "Point", "coordinates": [ 7.020512205232013, 51.124736709582173 ] } },
{ "type": "Feature", "properties": { "strassenschluessel": "05378000001603258", "bezeichnung": "In der Meffert" }, "geometry": { "type": "Point", "coordinates": [ 7.01501726399892, 51.110061570090487 ] } },
{ "type": "Feature", "properties": { "strassenschluessel": "05378000001603259", "bezeichnung": "Kiefernstraße" }, "geometry": { "type": "Point", "coordinates": [ 7.006158471600575, 51.115801623085368 ] } },
{ "type": "Feature", "properties": { "strassenschluessel": "05378000001603260", "bezeichnung": "Lärchenstraße" }, "geometry": { "type": "Point", "coordinates": [ 7.005035805850537, 51.116519618695229 ] } },
{ "type": "Feature", "properties": { "strassenschluessel": "05378000001603261", "bezeichnung": "Ahornstraße" }, "geometry": { "type": "Point", "coordinates": [ 7.005513609750261, 51.116615503296714 ] } },
{ "type": "Feature", "properties": { "strassenschluessel": "05378000001603262", "bezeichnung": "Schulweg" }, "geometry": { "type": "Point", "coordinates": [ 7.115327977719658, 51.119324928441571 ] } },
{ "type": "Feature", "properties": { "strassenschluessel": "05378000001603263", "bezeichnung": "Zum Buschtor" }, "geometry": { "type": "Point", "coordinates": [ 7.094184090352583, 51.130030231574992 ] } },
{ "type": "Feature", "properties": { "strassenschluessel": "05378000001603264", "bezeichnung": "Asternweg" }, "geometry": { "type": "Point", "coordinates": [ 7.093993561625982, 51.111468229051681 ] } },
{ "type": "Feature", "properties": { "strassenschluessel": "05378000001603265", "bezeichnung": "Tulpenweg" }, "geometry": { "type": "Point", "coordinates": [ 7.09366448851608, 51.112767154472067 ] } },
{ "type": "Feature", "properties": { "strassenschluessel": "05378000001603266", "bezeichnung": "Rosenweg" }, "geometry": { "type": "Point", "coordinates": [ 7.09368693082077, 51.110691345282447 ] } },
{ "type": "Feature", "properties": { "strassenschluessel": "05378000001603267", "bezeichnung": "Dahlienweg" }, "geometry": { "type": "Point", "coordinates": [ 7.096410916224754, 51.112052842831488 ] } },
{ "type": "Feature", "properties": { "strassenschluessel": "05378000001603268", "bezeichnung": "Lilienweg" }, "geometry": { "type": "Point", "coordinates": [ 7.093028171568314, 51.111459795792392 ] } },
{ "type": "Feature", "properties": { "strassenschluessel": "05378000001603269", "bezeichnung": "Nelkenweg" }, "geometry": { "type": "Point", "coordinates": [ 7.096167879259762, 51.111618255097099 ] } },
{ "type": "Feature", "properties": { "strassenschluessel": "05378000001603270", "bezeichnung": "Turmweg" }, "geometry": { "type": "Point", "coordinates": [ 7.103542360657412, 51.114697286030179 ] } },
{ "type": "Feature", "properties": { "strassenschluessel": "05378000001603271", "bezeichnung": "Krähwinkeler Weg" }, "geometry": { "type": "Point", "coordinates": [ 7.094172300421035, 51.113771882648571 ] } },
{ "type": "Feature", "properties": { "strassenschluessel": "05378000001603272", "bezeichnung": "Am Berg" }, "geometry": { "type": "Point", "coordinates": [ 7.110669993261387, 51.122874869277759 ] } },
{ "type": "Feature", "properties": { "strassenschluessel": "05378000001603273", "bezeichnung": "Am Sportplatz" }, "geometry": { "type": "Point", "coordinates": [ 7.11169890632857, 51.126590975328405 ] } },
{ "type": "Feature", "properties": { "strassenschluessel": "05378000001603274", "bezeichnung": "Glüderstraße" }, "geometry": { "type": "Point", "coordinates": [ 7.110971317209276, 51.121933548885735 ] } },
{ "type": "Feature", "properties": { "strassenschluessel": "05378000001603275", "bezeichnung": "Heider Weg" }, "geometry": { "type": "Point", "coordinates": [ 7.138865718641269, 51.109477107360014 ] } },
{ "type": "Feature", "properties": { "strassenschluessel": "05378000001603276", "bezeichnung": "Höhscheider Weg" }, "geometry": { "type": "Point", "coordinates": [ 7.133961053330363, 51.113881166215016 ] } },
{ "type": "Feature", "properties": { "strassenschluessel": "05378000001603277", "bezeichnung": "Kuhlenweg" }, "geometry": { "type": "Point", "coordinates": [ 7.13202176385476, 51.11302973190228 ] } },
{ "type": "Feature", "properties": { "strassenschluessel": "05378000001603278", "bezeichnung": "Schneppendahler Weg" }, "geometry": { "type": "Point", "coordinates": [ 7.140998838678348, 51.108550436423897 ] } },
{ "type": "Feature", "properties": { "strassenschluessel": "05378000001603279", "bezeichnung": "Turnplatz" }, "geometry": { "type": "Point", "coordinates": [ 7.008725165526841, 51.10192395682288 ] } },
{ "type": "Feature", "properties": { "strassenschluessel": "05378000001603280", "bezeichnung": "In den Weiden" }, "geometry": { "type": "Point", "coordinates": [ 6.999588276668827, 51.093942593202193 ] } },
{ "type": "Feature", "properties": { "strassenschluessel": "05378000001603281", "bezeichnung": "An der Wupper" }, "geometry": { "type": "Point", "coordinates": [ 7.014361294485102, 51.100657121314505 ] } },
{ "type": "Feature", "properties": { "strassenschluessel": "05378000001603282", "bezeichnung": "Im Brückerfeld" }, "geometry": { "type": "Point", "coordinates": [ 7.013958378811756, 51.103322274816826 ] } },
{ "type": "Feature", "properties": { "strassenschluessel": "05378000001603283", "bezeichnung": "St. Heribert" }, "geometry": { "type": "Point", "coordinates": [ 7.065762794124077, 51.115528542414133 ] } },
{ "type": "Feature", "properties": { "strassenschluessel": "05378000001603284", "bezeichnung": "Hinterberg" }, "geometry": { "type": "Point", "coordinates": [ 7.072214072341898, 51.116804961376793 ] } },
{ "type": "Feature", "properties": { "strassenschluessel": "05378000001603285", "bezeichnung": "Auf dem Wiedenhof" }, "geometry": { "type": "Point", "coordinates": [ 7.11485103262006, 51.118500534756862 ] } },
{ "type": "Feature", "properties": { "strassenschluessel": "05378000001603286", "bezeichnung": "Gladbacher Weg" }, "geometry": { "type": "Point", "coordinates": [ 6.995940843346006, 51.110903500803303 ] } },
{ "type": "Feature", "properties": { "strassenschluessel": "05378000001603287", "bezeichnung": "An der Roßmüllen" }, "geometry": { "type": "Point", "coordinates": [ 6.997608786031419, 51.11066404346213 ] } },
{ "type": "Feature", "properties": { "strassenschluessel": "05378000001603288", "bezeichnung": "Am Fuchshang" }, "geometry": { "type": "Point", "coordinates": [ 7.024344432199892, 51.108823640586458 ] } },
{ "type": "Feature", "properties": { "strassenschluessel": "05378000001603289", "bezeichnung": "Fritz-Hinrichs-Weg" }, "geometry": { "type": "Point", "coordinates": [ 7.109409214290174, 51.114325705678247 ] } },
{ "type": "Feature", "properties": { "strassenschluessel": "05378000001603290", "bezeichnung": "Am Hohlloch" }, "geometry": { "type": "Point", "coordinates": [ 7.020866012633094, 51.112154027906065 ] } },
{ "type": "Feature", "properties": { "strassenschluessel": "05378000001603291", "bezeichnung": "Am Bahnhof" }, "geometry": { "type": "Point", "coordinates": [ 7.005387217963793, 51.10876724043014 ] } },
{ "type": "Feature", "properties": { "strassenschluessel": "05378000001603292", "bezeichnung": "Paulinenhof" }, "geometry": { "type": "Point", "coordinates": [ 7.080567744886614, 51.119897117932389 ] } },
{ "type": "Feature", "properties": { "strassenschluessel": "05378000001603293", "bezeichnung": "Am Hühnerbusch" }, "geometry": { "type": "Point", "coordinates": [ 7.01488284624434, 51.111562509526934 ] } },
{ "type": "Feature", "properties": { "strassenschluessel": "05378000001603294", "bezeichnung": "Im Erlengrund" }, "geometry": { "type": "Point", "coordinates": [ 7.0016172455596, 51.093700788570253 ] } },
{ "type": "Feature", "properties": { "strassenschluessel": "05378000001603295", "bezeichnung": "Hardter Straße" }, "geometry": null },
{ "type": "Feature", "properties": { "strassenschluessel": "05378000001603296", "bezeichnung": "Mittelheide" }, "geometry": null },
{ "type": "Feature", "properties": { "strassenschluessel": "05378000001603297", "bezeichnung": "Germaniabad" }, "geometry": { "type": "Point", "coordinates": [ 7.017774140028226, 51.097290656593088 ] } },
{ "type": "Feature", "properties": { "strassenschluessel": "05378000001603298", "bezeichnung": "Roderweg" }, "geometry": { "type": "Point", "coordinates": [ 7.036243766638596, 51.109407311679057 ] } },
{ "type": "Feature", "properties": { "strassenschluessel": "05378000001603299", "bezeichnung": "Schneppenpohl" }, "geometry": { "type": "Point", "coordinates": [ 7.087817969765188, 51.109297975350778 ] } },
{ "type": "Feature", "properties": { "strassenschluessel": "05378000001603300", "bezeichnung": "Weißdornweg" }, "geometry": { "type": "Point", "coordinates": [ 7.003299940115972, 51.100676243737304 ] } },
{ "type": "Feature", "properties": { "strassenschluessel": "05378000001603301", "bezeichnung": "Holunderstraße" }, "geometry": { "type": "Point", "coordinates": [ 7.001200806843506, 51.10019265089214 ] } },
{ "type": "Feature", "properties": { "strassenschluessel": "05378000001603302", "bezeichnung": "Schlehenweg" }, "geometry": { "type": "Point", "coordinates": [ 7.000122857329505, 51.100123677292487 ] } },
{ "type": "Feature", "properties": { "strassenschluessel": "05378000001603303", "bezeichnung": "Fliederweg" }, "geometry": { "type": "Point", "coordinates": [ 6.9999162756149, 51.101202330113715 ] } },
{ "type": "Feature", "properties": { "strassenschluessel": "05378000001603304", "bezeichnung": "Rotdornweg" }, "geometry": { "type": "Point", "coordinates": [ 7.003049499942233, 51.100013713256509 ] } },
{ "type": "Feature", "properties": { "strassenschluessel": "05378000001603305", "bezeichnung": "Heinrich-Hansmeyer-Straße" }, "geometry": { "type": "Point", "coordinates": [ 7.022207303300861, 51.109998289288257 ] } },
{ "type": "Feature", "properties": { "strassenschluessel": "05378000001603306", "bezeichnung": "Am Rauenbusch" }, "geometry": { "type": "Point", "coordinates": [ 7.020979570116991, 51.110859624247347 ] } },
{ "type": "Feature", "properties": { "strassenschluessel": "05378000001603307", "bezeichnung": "Sternstraße" }, "geometry": { "type": "Point", "coordinates": [ 7.000330481757098, 51.088841467105262 ] } },
{ "type": "Feature", "properties": { "strassenschluessel": "05378000001603308", "bezeichnung": "Gertraud-Theis-Straße" }, "geometry": { "type": "Point", "coordinates": [ 7.009532311133089, 51.104371881372664 ] } },
{ "type": "Feature", "properties": { "strassenschluessel": "05378000001603310", "bezeichnung": "Elisabeth-Lindner-Straße" }, "geometry": { "type": "Point", "coordinates": [ 7.008736081272479, 51.100128754795271 ] } },
{ "type": "Feature", "properties": { "strassenschluessel": "05378000001603311", "bezeichnung": "Otto-Schell-Straße" }, "geometry": { "type": "Point", "coordinates": [ 7.00866757762777, 51.099736532792377 ] } },
{ "type": "Feature", "properties": { "strassenschluessel": "05378000001603312", "bezeichnung": "Walter-Frese-Straße" }, "geometry": { "type": "Point", "coordinates": [ 7.00440668886464, 51.103719413501913 ] } },
{ "type": "Feature", "properties": { "strassenschluessel": "05378000001603313", "bezeichnung": "Am Wiesental" }, "geometry": { "type": "Point", "coordinates": [ 7.121859247407974, 51.119275957469455 ] } },
{ "type": "Feature", "properties": { "strassenschluessel": "05378000001603314", "bezeichnung": "Am Wasserturm" }, "geometry": { "type": "Point", "coordinates": [ 7.113784648099521, 51.118892198092659 ] } },
{ "type": "Feature", "properties": { "strassenschluessel": "05378000001603315", "bezeichnung": "Lindenstraße" }, "geometry": { "type": "Point", "coordinates": [ 7.004190182066291, 51.098604714740254 ] } },
{ "type": "Feature", "properties": { "strassenschluessel": "05378000001603316", "bezeichnung": "Am Krähwinkeler Bach" }, "geometry": { "type": "Point", "coordinates": [ 7.096981465745234, 51.113714988447462 ] } },
{ "type": "Feature", "properties": { "strassenschluessel": "05378000001603317", "bezeichnung": "Gottlieb-Claasen-Weg" }, "geometry": { "type": "Point", "coordinates": [ 7.113794763140252, 51.116628807758012 ] } },
{ "type": "Feature", "properties": { "strassenschluessel": "05378000001603318", "bezeichnung": "Wilhelm-Gödderts-Weg" }, "geometry": null },
{ "type": "Feature", "properties": { "strassenschluessel": "05378000001603319", "bezeichnung": "Kämpchenstraße" }, "geometry": { "type": "Point", "coordinates": [ 7.000936356024509, 51.118729637528361 ] } },
{ "type": "Feature", "properties": { "strassenschluessel": "05378000001603320", "bezeichnung": "Rupelrather Weg" }, "geometry": { "type": "Point", "coordinates": [ 7.001504315361652, 51.11931315028739 ] } },
{ "type": "Feature", "properties": { "strassenschluessel": "05378000001603321", "bezeichnung": "Am Mühlenberg" }, "geometry": { "type": "Point", "coordinates": [ 7.001872328087848, 51.118630424428936 ] } },
{ "type": "Feature", "properties": { "strassenschluessel": "05378000001603322", "bezeichnung": "An der Glashütte" }, "geometry": { "type": "Point", "coordinates": [ 6.999182293431001, 51.118532763264653 ] } },
{ "type": "Feature", "properties": { "strassenschluessel": "05378000001603323", "bezeichnung": "Anemonenweg" }, "geometry": { "type": "Point", "coordinates": [ 7.096364444339595, 51.112695139255834 ] } },
{ "type": "Feature", "properties": { "strassenschluessel": "05378000001603324", "bezeichnung": "In den Gärten" }, "geometry": { "type": "Point", "coordinates": [ 6.999231858817303, 51.095646643708207 ] } },
{ "type": "Feature", "properties": { "strassenschluessel": "05378000001603325", "bezeichnung": "Erdbeerweg" }, "geometry": { "type": "Point", "coordinates": [ 7.000275585347902, 51.095657626130759 ] } },
{ "type": "Feature", "properties": { "strassenschluessel": "05378000001603326", "bezeichnung": "Im Eicherhofsfeld" }, "geometry": { "type": "Point", "coordinates": [ 7.013372174161715, 51.11672083078227 ] } },
{ "type": "Feature", "properties": { "strassenschluessel": "05378000001603327", "bezeichnung": "Rothenberger Grund" }, "geometry": { "type": "Point", "coordinates": [ 6.995982629517591, 51.09405526231842 ] } },
{ "type": "Feature", "properties": { "strassenschluessel": "05378000001603328", "bezeichnung": "Am Further Weiher" }, "geometry": { "type": "Point", "coordinates": [ 6.991083211395867, 51.101022623011936 ] } },
{ "type": "Feature", "properties": { "strassenschluessel": "05378000001603329", "bezeichnung": "Unterberger Wiesen" }, "geometry": { "type": "Point", "coordinates": [ 7.013374778225717, 51.117981758188314 ] } },
{ "type": "Feature", "properties": { "strassenschluessel": "05378000001603330", "bezeichnung": "Alter Wupperweg" }, "geometry": { "type": "Point", "coordinates": [ 7.012462345743902, 51.119751980537195 ] } },
{ "type": "Feature", "properties": { "strassenschluessel": "05378000001603331", "bezeichnung": "Auenweg" }, "geometry": { "type": "Point", "coordinates": [ 7.013014639494759, 51.120218686711311 ] } },
{ "type": "Feature", "properties": { "strassenschluessel": "05378000001603332", "bezeichnung": "Im Steingraben" }, "geometry": { "type": "Point", "coordinates": [ 7.016153137856523, 51.118693558540762 ] } },
{ "type": "Feature", "properties": { "strassenschluessel": "05378000001603333", "bezeichnung": "Pötzwiese" }, "geometry": { "type": "Point", "coordinates": [ 7.012979197228045, 51.117338657528677 ] } },
{ "type": "Feature", "properties": { "strassenschluessel": "05378000001603334", "bezeichnung": "Carl-Hesselmann-Weg" }, "geometry": null },
{ "type": "Feature", "properties": { "strassenschluessel": "05378000001603335", "bezeichnung": "August-Gehrke-Weg" }, "geometry": { "type": "Point", "coordinates": [ 7.028147336439608, 51.102013389037396 ] } },
{ "type": "Feature", "properties": { "strassenschluessel": "05378000001603336", "bezeichnung": "Wupperbogen" }, "geometry": { "type": "Point", "coordinates": [ 7.016034319616961, 51.099838965987168 ] } },
{ "type": "Feature", "properties": { "strassenschluessel": "05378000001603337", "bezeichnung": "Bergstraße" }, "geometry": { "type": "Point", "coordinates": [ 7.03136976880508, 51.119075542789197 ] } },
{ "type": "Feature", "properties": { "strassenschluessel": "05378000001603338", "bezeichnung": "Benrod" }, "geometry": { "type": "Point", "coordinates": [ 7.032688231922015, 51.119170549602913 ] } },
{ "type": "Feature", "properties": { "strassenschluessel": "05378000001603339", "bezeichnung": "Bennerter Obstweg" }, "geometry": { "type": "Point", "coordinates": [ 7.0294517902623, 51.120984524202122 ] } },
{ "type": "Feature", "properties": { "strassenschluessel": "05378000001603340", "bezeichnung": "Johann-Wilhelm-Wilms-Weg" }, "geometry": { "type": "Point", "coordinates": [ 7.092975325873351, 51.127053712592861 ] } },
{ "type": "Feature", "properties": { "strassenschluessel": "05378000001603341", "bezeichnung": "Friedrich-Überweg-Platz" }, "geometry": null },
{ "type": "Feature", "properties": { "strassenschluessel": "05378000001603342", "bezeichnung": "Hanskarl-Rodenkirchen-Weg" }, "geometry": null },
{ "type": "Feature", "properties": { "strassenschluessel": "05378000001603343", "bezeichnung": "Henley-Weg" }, "geometry": null },
{ "type": "Feature", "properties": { "strassenschluessel": "05378000001603344", "bezeichnung": "An der Obstwiese" }, "geometry": { "type": "Point", "coordinates": [ 7.03395967653332, 51.118448659496508 ] } },
{ "type": "Feature", "properties": { "strassenschluessel": "05378000001603345", "bezeichnung": "Gut Nesselrath" }, "geometry": { "type": "Point", "coordinates": [ 7.030744264916914, 51.129629419874277 ] } },
{ "type": "Feature", "properties": { "strassenschluessel": "05378000001603346", "bezeichnung": "Weyersbacher Feld" }, "geometry": { "type": "Point", "coordinates": [ 7.112394589660656, 51.112587779482553 ] } },
{ "type": "Feature", "properties": { "strassenschluessel": "05378000001603347", "bezeichnung": "Anna-Käsler-Straße" }, "geometry": { "type": "Point", "coordinates": [ 7.008504192106689, 51.099174425883504 ] } }
]
}
