{
"type": "FeatureCollection",
"features": [
{ "type": "Feature", "properties": { "strassenschluessel": "057620000024M0010", "bezeichnung": "Am Anger" }, "geometry": { "type": "Point", "coordinates": [ 9.246879067350537, 51.79198432691858 ] } },
{ "type": "Feature", "properties": { "strassenschluessel": "057620000024M0020", "bezeichnung": "Birkenkamp" }, "geometry": { "type": "Point", "coordinates": [ 9.243532510955569, 51.792184168954002 ] } },
{ "type": "Feature", "properties": { "strassenschluessel": "057620000024M0030", "bezeichnung": "Drosteweg" }, "geometry": { "type": "Point", "coordinates": [ 9.244663743135243, 51.79316125150735 ] } },
{ "type": "Feature", "properties": { "strassenschluessel": "057620000024M0040", "bezeichnung": "Hinterm Turm" }, "geometry": { "type": "Point", "coordinates": [ 9.248360763534057, 51.793950453428373 ] } },
{ "type": "Feature", "properties": { "strassenschluessel": "057620000024M0050", "bezeichnung": "Im Grund" }, "geometry": { "type": "Point", "coordinates": [ 9.240802817365845, 51.794291254171725 ] } },
{ "type": "Feature", "properties": { "strassenschluessel": "057620000024M0055", "bezeichnung": "Im Steinbruch" }, "geometry": { "type": "Point", "coordinates": [ 9.227305644841493, 51.789937291368126 ] } },
{ "type": "Feature", "properties": { "strassenschluessel": "057620000024M0060", "bezeichnung": "Lange Straße" }, "geometry": { "type": "Point", "coordinates": [ 9.247128853308395, 51.792303397879678 ] } },
{ "type": "Feature", "properties": { "strassenschluessel": "057620000024M0071", "bezeichnung": "Martinsweg" }, "geometry": { "type": "Point", "coordinates": [ 9.244267508571332, 51.793634028371123 ] } },
{ "type": "Feature", "properties": { "strassenschluessel": "057620000024M0080", "bezeichnung": "Natinger Weg" }, "geometry": { "type": "Point", "coordinates": [ 9.236397133505687, 51.798954759358587 ] } },
{ "type": "Feature", "properties": { "strassenschluessel": "057620000024M0090", "bezeichnung": "Unterm Berg" }, "geometry": { "type": "Point", "coordinates": [ 9.250412146104273, 51.792541599302531 ] } },
{ "type": "Feature", "properties": { "strassenschluessel": "057620000024M0100", "bezeichnung": "Schützenstraße" }, "geometry": { "type": "Point", "coordinates": [ 9.242873933639215, 51.793556380006287 ] } },
{ "type": "Feature", "properties": { "strassenschluessel": "057620000024M0110", "bezeichnung": "Sternenweg" }, "geometry": { "type": "Point", "coordinates": [ 9.245451010803741, 51.791593281920399 ] } },
{ "type": "Feature", "properties": { "strassenschluessel": "057620000024M0200", "bezeichnung": "Born" }, "geometry": { "type": "Point", "coordinates": [ 9.199300952651479, 51.850336475477278 ] } },
{ "type": "Feature", "properties": { "strassenschluessel": "057620000024M0300", "bezeichnung": "Bornfeldweg" }, "geometry": { "type": "Point", "coordinates": [ 9.181316849098355, 51.813229927616035 ] } },
{ "type": "Feature", "properties": { "strassenschluessel": "057620000024M0310", "bezeichnung": "Bornholz" }, "geometry": { "type": "Point", "coordinates": [ 9.161531364400387, 51.809597149566535 ] } },
{ "type": "Feature", "properties": { "strassenschluessel": "057620000024M0320", "bezeichnung": "Burgstraße" }, "geometry": { "type": "Point", "coordinates": [ 9.1827692918213, 51.811251454880797 ] } },
{ "type": "Feature", "properties": { "strassenschluessel": "057620000024M0331", "bezeichnung": "Dahlweg" }, "geometry": { "type": "Point", "coordinates": [ 9.176805133147454, 51.810446881527824 ] } },
{ "type": "Feature", "properties": { "strassenschluessel": "057620000024M0335", "bezeichnung": "Eggering" }, "geometry": { "type": "Point", "coordinates": [ 9.184635328280702, 51.80818546891846 ] } },
{ "type": "Feature", "properties": { "strassenschluessel": "057620000024M0340", "bezeichnung": "Grünetal" }, "geometry": { "type": "Point", "coordinates": [ 9.181274792730946, 51.813970440321299 ] } },
{ "type": "Feature", "properties": { "strassenschluessel": "057620000024M0350", "bezeichnung": "Gartenstraße" }, "geometry": { "type": "Point", "coordinates": [ 9.185297388797366, 51.806242583945163 ] } },
{ "type": "Feature", "properties": { "strassenschluessel": "057620000024M0360", "bezeichnung": "Heideweg" }, "geometry": { "type": "Point", "coordinates": [ 9.186799455089197, 51.809843241150219 ] } },
{ "type": "Feature", "properties": { "strassenschluessel": "057620000024M0370", "bezeichnung": "Höxterstraße" }, "geometry": { "type": "Point", "coordinates": [ 9.18763206450914, 51.810073413721064 ] } },
{ "type": "Feature", "properties": { "strassenschluessel": "057620000024M0380", "bezeichnung": "Im Weißen Loch" }, "geometry": { "type": "Point", "coordinates": [ 9.187817226575842, 51.808252351413657 ] } },
{ "type": "Feature", "properties": { "strassenschluessel": "057620000024M0390", "bezeichnung": "Im Ort" }, "geometry": { "type": "Point", "coordinates": [ 9.184008912376742, 51.810453453679507 ] } },
{ "type": "Feature", "properties": { "strassenschluessel": "057620000024M0395", "bezeichnung": "Kirchweg" }, "geometry": { "type": "Point", "coordinates": [ 9.187695532891702, 51.813766364121562 ] } },
{ "type": "Feature", "properties": { "strassenschluessel": "057620000024M0400", "bezeichnung": "Josefstraße" }, "geometry": { "type": "Point", "coordinates": [ 9.181485534892989, 51.812299944500602 ] } },
{ "type": "Feature", "properties": { "strassenschluessel": "057620000024M0410", "bezeichnung": "Klingelbach" }, "geometry": { "type": "Point", "coordinates": [ 9.182336928901893, 51.811073208947768 ] } },
{ "type": "Feature", "properties": { "strassenschluessel": "057620000024M0415", "bezeichnung": "Kohlhof" }, "geometry": { "type": "Point", "coordinates": [ 9.179607957897575, 51.812570244889059 ] } },
{ "type": "Feature", "properties": { "strassenschluessel": "057620000024M0420", "bezeichnung": "Kolpingstraße" }, "geometry": { "type": "Point", "coordinates": [ 9.189668405184985, 51.808471851265125 ] } },
{ "type": "Feature", "properties": { "strassenschluessel": "057620000024M0430", "bezeichnung": "Liboristraße" }, "geometry": { "type": "Point", "coordinates": [ 9.186136142616544, 51.810461596913726 ] } },
{ "type": "Feature", "properties": { "strassenschluessel": "057620000024M0440", "bezeichnung": "Königstraße" }, "geometry": { "type": "Point", "coordinates": [ 9.184725525165716, 51.809578127886475 ] } },
{ "type": "Feature", "properties": { "strassenschluessel": "057620000024M0450", "bezeichnung": "Marienstraße" }, "geometry": { "type": "Point", "coordinates": [ 9.18876051617154, 51.808552983591774 ] } },
{ "type": "Feature", "properties": { "strassenschluessel": "057620000024M0460", "bezeichnung": "Nieheimer Straße" }, "geometry": { "type": "Point", "coordinates": [ 9.181189251398592, 51.811283606916206 ] } },
{ "type": "Feature", "properties": { "strassenschluessel": "057620000024M0470", "bezeichnung": "Pascheburg" }, "geometry": { "type": "Point", "coordinates": [ 9.183787166919075, 51.796439510293006 ] } },
{ "type": "Feature", "properties": { "strassenschluessel": "057620000024M0480", "bezeichnung": "Sommerseller Straße" }, "geometry": { "type": "Point", "coordinates": [ 9.184208815736358, 51.816777248416471 ] } },
{ "type": "Feature", "properties": { "strassenschluessel": "057620000024M0485", "bezeichnung": "Steffenskamp" }, "geometry": { "type": "Point", "coordinates": [ 9.181929038276367, 51.807997840056771 ] } },
{ "type": "Feature", "properties": { "strassenschluessel": "057620000024M0491", "bezeichnung": "Steinbreite" }, "geometry": { "type": "Point", "coordinates": [ 9.183295998081624, 51.808303128757643 ] } },
{ "type": "Feature", "properties": { "strassenschluessel": "057620000024M0500", "bezeichnung": "Sundern" }, "geometry": { "type": "Point", "coordinates": [ 9.170933097394578, 51.813217542183523 ] } },
{ "type": "Feature", "properties": { "strassenschluessel": "057620000024M0510", "bezeichnung": "Südring" }, "geometry": { "type": "Point", "coordinates": [ 9.18936951182981, 51.806164454750231 ] } },
{ "type": "Feature", "properties": { "strassenschluessel": "057620000024M0515", "bezeichnung": "Vördener Weg" }, "geometry": { "type": "Point", "coordinates": [ 9.1976522466228, 51.810519025087238 ] } },
{ "type": "Feature", "properties": { "strassenschluessel": "057620000024M0517", "bezeichnung": "Zum Bollkasten" }, "geometry": { "type": "Point", "coordinates": [ 9.196497389872421, 51.806667169263775 ] } },
{ "type": "Feature", "properties": { "strassenschluessel": "057620000024M0520", "bezeichnung": "Zum Fahrenberg" }, "geometry": { "type": "Point", "coordinates": [ 9.190761118254258, 51.808643543338945 ] } },
{ "type": "Feature", "properties": { "strassenschluessel": "057620000024M0600", "bezeichnung": "Bremerberg" }, "geometry": { "type": "Point", "coordinates": [ 9.27526880581874, 51.810337520051448 ] } },
{ "type": "Feature", "properties": { "strassenschluessel": "057620000024M0700", "bezeichnung": "Eilversen" }, "geometry": { "type": "Point", "coordinates": [ 9.251892947849285, 51.815157935188253 ] } },
{ "type": "Feature", "properties": { "strassenschluessel": "057620000024M0801", "bezeichnung": "Großenbreden" }, "geometry": { "type": "Point", "coordinates": [ 9.252674984788564, 51.833268436775725 ] } },
{ "type": "Feature", "properties": { "strassenschluessel": "057620000024M0900", "bezeichnung": "Hohehaus" }, "geometry": { "type": "Point", "coordinates": [ 9.273533349999409, 51.826523295651306 ] } },
{ "type": "Feature", "properties": { "strassenschluessel": "057620000024M1000", "bezeichnung": "Kleinenbreden" }, "geometry": { "type": "Point", "coordinates": [ 9.242112700677453, 51.838773584011179 ] } },
{ "type": "Feature", "properties": { "strassenschluessel": "057620000024M1100", "bezeichnung": "Am Brink" }, "geometry": { "type": "Point", "coordinates": [ 9.241450310694937, 51.855290328048525 ] } },
{ "type": "Feature", "properties": { "strassenschluessel": "057620000024M1105", "bezeichnung": "Am Hellberg" }, "geometry": { "type": "Point", "coordinates": [ 9.249126849707554, 51.849826462045407 ] } },
{ "type": "Feature", "properties": { "strassenschluessel": "057620000024M1108", "bezeichnung": "Am Westerberg" }, "geometry": { "type": "Point", "coordinates": [ 9.243950372049794, 51.858356860499327 ] } },
{ "type": "Feature", "properties": { "strassenschluessel": "057620000024M1110", "bezeichnung": "Brinkstraße" }, "geometry": { "type": "Point", "coordinates": [ 9.240997268886316, 51.855206919494918 ] } },
{ "type": "Feature", "properties": { "strassenschluessel": "057620000024M1120", "bezeichnung": "Düsternsiek" }, "geometry": { "type": "Point", "coordinates": [ 9.244276808348294, 51.856342128088947 ] } },
{ "type": "Feature", "properties": { "strassenschluessel": "057620000024M1130", "bezeichnung": "Hauptstraße" }, "geometry": { "type": "Point", "coordinates": [ 9.238806961158899, 51.856136364371892 ] } },
{ "type": "Feature", "properties": { "strassenschluessel": "057620000024M1141", "bezeichnung": "Im Felde" }, "geometry": { "type": "Point", "coordinates": [ 9.237523108110164, 51.85481185340177 ] } },
{ "type": "Feature", "properties": { "strassenschluessel": "057620000024M1150", "bezeichnung": "Im Kuhkamp" }, "geometry": { "type": "Point", "coordinates": [ 9.230409118278187, 51.856569636786368 ] } },
{ "type": "Feature", "properties": { "strassenschluessel": "057620000024M1160", "bezeichnung": "Langenkamp" }, "geometry": { "type": "Point", "coordinates": [ 9.273830979075445, 51.859562149994133 ] } },
{ "type": "Feature", "properties": { "strassenschluessel": "057620000024M1170", "bezeichnung": "Mühlenweg" }, "geometry": { "type": "Point", "coordinates": [ 9.23787966900214, 51.857017941669589 ] } },
{ "type": "Feature", "properties": { "strassenschluessel": "057620000024M1180", "bezeichnung": "Neue Straße" }, "geometry": { "type": "Point", "coordinates": [ 9.239222845218988, 51.855586103299693 ] } },
{ "type": "Feature", "properties": { "strassenschluessel": "057620000024M1190", "bezeichnung": "Nieseweg" }, "geometry": { "type": "Point", "coordinates": [ 9.241049481820136, 51.85608462329553 ] } },
{ "type": "Feature", "properties": { "strassenschluessel": "057620000024M1200", "bezeichnung": "Oldenburger Straße" }, "geometry": { "type": "Point", "coordinates": [ 9.23951148025774, 51.853722566306416 ] } },
{ "type": "Feature", "properties": { "strassenschluessel": "057620000024M1205", "bezeichnung": "Pater-Theo-Neumann-Straße" }, "geometry": { "type": "Point", "coordinates": [ 9.238698065778122, 51.85525917923799 ] } },
{ "type": "Feature", "properties": { "strassenschluessel": "057620000024M1210", "bezeichnung": "Pyrmonter Straße" }, "geometry": { "type": "Point", "coordinates": [ 9.241539575719647, 51.8558647633714 ] } },
{ "type": "Feature", "properties": { "strassenschluessel": "057620000024M1220", "bezeichnung": "Schweizerburg Weg" }, "geometry": { "type": "Point", "coordinates": [ 9.23751751238337, 51.857411390823835 ] } },
{ "type": "Feature", "properties": { "strassenschluessel": "057620000024M1230", "bezeichnung": "Über den Höfen" }, "geometry": { "type": "Point", "coordinates": [ 9.244318276731027, 51.852170115384922 ] } },
{ "type": "Feature", "properties": { "strassenschluessel": "057620000024M1240", "bezeichnung": "Vor dem Riepenberg" }, "geometry": { "type": "Point", "coordinates": [ 9.236024583528625, 51.857690344086024 ] } },
{ "type": "Feature", "properties": { "strassenschluessel": "057620000024M1250", "bezeichnung": "Zur Friedenseiche" }, "geometry": { "type": "Point", "coordinates": [ 9.236677961860313, 51.854656462400882 ] } },
{ "type": "Feature", "properties": { "strassenschluessel": "057620000024M1300", "bezeichnung": "Löwendorf" }, "geometry": { "type": "Point", "coordinates": [ 9.277359839343474, 51.841916640112203 ] } },
{ "type": "Feature", "properties": { "strassenschluessel": "057620000024M1351", "bezeichnung": "Saumer" }, "geometry": { "type": "Point", "coordinates": [ 9.298937485878369, 51.838878858189723 ] } },
{ "type": "Feature", "properties": { "strassenschluessel": "057620000024M1401", "bezeichnung": "Münsterbrock" }, "geometry": { "type": "Point", "coordinates": [ 9.19468865249285, 51.835737579362515 ] } },
{ "type": "Feature", "properties": { "strassenschluessel": "057620000024M1440", "bezeichnung": "Abtei" }, "geometry": { "type": "Point", "coordinates": [ 9.211851870237087, 51.832589708685617 ] } },
{ "type": "Feature", "properties": { "strassenschluessel": "057620000024M1460", "bezeichnung": "Oldenburg" }, "geometry": { "type": "Point", "coordinates": [ 9.227192606444708, 51.841103228904529 ] } },
{ "type": "Feature", "properties": { "strassenschluessel": "057620000024M1500", "bezeichnung": "Papenhöfen" }, "geometry": null },
{ "type": "Feature", "properties": { "strassenschluessel": "057620000024M1510", "bezeichnung": "Am Oldenburger Weg" }, "geometry": { "type": "Point", "coordinates": [ 9.2548017626264, 51.842144683524374 ] } },
{ "type": "Feature", "properties": { "strassenschluessel": "057620000024M1520", "bezeichnung": "Antoniusstraße" }, "geometry": { "type": "Point", "coordinates": [ 9.256816973937912, 51.844588835391292 ] } },
{ "type": "Feature", "properties": { "strassenschluessel": "057620000024M1550", "bezeichnung": "Bönekenberg" }, "geometry": { "type": "Point", "coordinates": [ 9.283935055617349, 51.854666684210926 ] } },
{ "type": "Feature", "properties": { "strassenschluessel": "057620000024M1560", "bezeichnung": "Hellbergweg" }, "geometry": { "type": "Point", "coordinates": [ 9.256892098622426, 51.842339958166768 ] } },
{ "type": "Feature", "properties": { "strassenschluessel": "057620000024M1570", "bezeichnung": "Kapellenweg" }, "geometry": { "type": "Point", "coordinates": [ 9.259730078594028, 51.839010506664096 ] } },
{ "type": "Feature", "properties": { "strassenschluessel": "057620000024M1580", "bezeichnung": "Kleine Trift" }, "geometry": { "type": "Point", "coordinates": [ 9.258248820552547, 51.843489985821243 ] } },
{ "type": "Feature", "properties": { "strassenschluessel": "057620000024M1590", "bezeichnung": "Lindenweg" }, "geometry": { "type": "Point", "coordinates": [ 9.258663308915075, 51.843646790164257 ] } },
{ "type": "Feature", "properties": { "strassenschluessel": "057620000024M1600", "bezeichnung": "Am Friedhof" }, "geometry": { "type": "Point", "coordinates": [ 9.225748383153562, 51.820581285938168 ] } },
{ "type": "Feature", "properties": { "strassenschluessel": "057620000024M1605", "bezeichnung": "Am Hungerberg" }, "geometry": { "type": "Point", "coordinates": [ 9.228958208577737, 51.826579642410891 ] } },
{ "type": "Feature", "properties": { "strassenschluessel": "057620000024M1611", "bezeichnung": "Amtsstraße" }, "geometry": { "type": "Point", "coordinates": [ 9.241882779210728, 51.822259940486774 ] } },
{ "type": "Feature", "properties": { "strassenschluessel": "057620000024M1620", "bezeichnung": "Am Wiehenbrink" }, "geometry": { "type": "Point", "coordinates": [ 9.238699245316905, 51.820743389488669 ] } },
{ "type": "Feature", "properties": { "strassenschluessel": "057620000024M1630", "bezeichnung": "Angerberg" }, "geometry": { "type": "Point", "coordinates": [ 9.22744679903626, 51.821285831942475 ] } },
{ "type": "Feature", "properties": { "strassenschluessel": "057620000024M1640", "bezeichnung": "Annetteweg" }, "geometry": { "type": "Point", "coordinates": [ 9.237661939735364, 51.81891368406702 ] } },
{ "type": "Feature", "properties": { "strassenschluessel": "057620000024M1650", "bezeichnung": "Auf der Trift" }, "geometry": { "type": "Point", "coordinates": [ 9.229989615241728, 51.816890925543674 ] } },
{ "type": "Feature", "properties": { "strassenschluessel": "057620000024M1660", "bezeichnung": "Bergstraße" }, "geometry": { "type": "Point", "coordinates": [ 9.227119039335159, 51.817106593669038 ] } },
{ "type": "Feature", "properties": { "strassenschluessel": "057620000024M1670", "bezeichnung": "Berliner Straße" }, "geometry": { "type": "Point", "coordinates": [ 9.23294155509403, 51.8193602556982 ] } },
{ "type": "Feature", "properties": { "strassenschluessel": "057620000024M1680", "bezeichnung": "Bredenborner Weg" }, "geometry": { "type": "Point", "coordinates": [ 9.218835188421183, 51.813999320566602 ] } },
{ "type": "Feature", "properties": { "strassenschluessel": "057620000024M1690", "bezeichnung": "Breiter Anger" }, "geometry": { "type": "Point", "coordinates": [ 9.224865928345087, 51.817072872089931 ] } },
{ "type": "Feature", "properties": { "strassenschluessel": "057620000024M1695", "bezeichnung": "Brüder-Grimm-Straße" }, "geometry": { "type": "Point", "coordinates": [ 9.236746437330076, 51.821737507046144 ] } },
{ "type": "Feature", "properties": { "strassenschluessel": "057620000024M1700", "bezeichnung": "Christoph-Völker-Straße" }, "geometry": { "type": "Point", "coordinates": [ 9.236148173601212, 51.821379554253753 ] } },
{ "type": "Feature", "properties": { "strassenschluessel": "057620000024M1705", "bezeichnung": "Eichhagen" }, "geometry": { "type": "Point", "coordinates": [ 9.238594402222619, 51.821723315961663 ] } },
{ "type": "Feature", "properties": { "strassenschluessel": "057620000024M1710", "bezeichnung": "Friedrich-Wilhelm-Weber-Straße" }, "geometry": { "type": "Point", "coordinates": [ 9.23609905522919, 51.821864191355672 ] } },
{ "type": "Feature", "properties": { "strassenschluessel": "057620000024M1720", "bezeichnung": "Dunkler Ort" }, "geometry": { "type": "Point", "coordinates": [ 9.228694953442542, 51.819695745466348 ] } },
{ "type": "Feature", "properties": { "strassenschluessel": "057620000024M1725", "bezeichnung": "Gewerbegebiet" }, "geometry": { "type": "Point", "coordinates": [ 9.241115414954002, 51.82467276214981 ] } },
{ "type": "Feature", "properties": { "strassenschluessel": "057620000024M1726", "bezeichnung": "Hohehäuser Feld" }, "geometry": { "type": "Point", "coordinates": [ 9.246725315492901, 51.825287997919794 ] } },
{ "type": "Feature", "properties": { "strassenschluessel": "057620000024M1730", "bezeichnung": "Im Birkenfeld" }, "geometry": { "type": "Point", "coordinates": [ 9.232537235208691, 51.820999621594673 ] } },
{ "type": "Feature", "properties": { "strassenschluessel": "057620000024M1740", "bezeichnung": "Im Hogge" }, "geometry": { "type": "Point", "coordinates": [ 9.229646051452622, 51.821731228796018 ] } },
{ "type": "Feature", "properties": { "strassenschluessel": "057620000024M1750", "bezeichnung": "Jahnstraße" }, "geometry": { "type": "Point", "coordinates": [ 9.234103378607381, 51.818977564888101 ] } },
{ "type": "Feature", "properties": { "strassenschluessel": "057620000024M1760", "bezeichnung": "Kiliansweg" }, "geometry": { "type": "Point", "coordinates": [ 9.236748825465602, 51.819153721986737 ] } },
{ "type": "Feature", "properties": { "strassenschluessel": "057620000024M1771", "bezeichnung": "Marktstraße" }, "geometry": { "type": "Point", "coordinates": [ 9.228442786591899, 51.818617572862614 ] } },
{ "type": "Feature", "properties": { "strassenschluessel": "057620000024M1780", "bezeichnung": "Niedernstraße" }, "geometry": { "type": "Point", "coordinates": [ 9.227185819540807, 51.817456080684181 ] } },
{ "type": "Feature", "properties": { "strassenschluessel": "057620000024M1790", "bezeichnung": "Pohlstraße" }, "geometry": { "type": "Point", "coordinates": [ 9.226942265402428, 51.818674704059617 ] } },
{ "type": "Feature", "properties": { "strassenschluessel": "057620000024M1800", "bezeichnung": "Schulenburg" }, "geometry": { "type": "Point", "coordinates": [ 9.213606739360182, 51.826624375097303 ] } },
{ "type": "Feature", "properties": { "strassenschluessel": "057620000024M1810", "bezeichnung": "Schulstraße" }, "geometry": { "type": "Point", "coordinates": [ 9.236695616496112, 51.818296719708201 ] } },
{ "type": "Feature", "properties": { "strassenschluessel": "057620000024M1821", "bezeichnung": "Talstraße" }, "geometry": { "type": "Point", "coordinates": [ 9.226064856813046, 51.816110379393756 ] } },
{ "type": "Feature", "properties": { "strassenschluessel": "057620000024M1830", "bezeichnung": "Umspannwerk" }, "geometry": { "type": "Point", "coordinates": [ 9.226886836471701, 51.812736876151448 ] } },
{ "type": "Feature", "properties": { "strassenschluessel": "057620000024M1832", "bezeichnung": "Unterm Steinbrink" }, "geometry": { "type": "Point", "coordinates": [ 9.229824210165642, 51.816091314684073 ] } },
{ "type": "Feature", "properties": { "strassenschluessel": "057620000024M1835", "bezeichnung": "Waldesser Weg" }, "geometry": { "type": "Point", "coordinates": [ 9.235729996285482, 51.822941480869467 ] } },
{ "type": "Feature", "properties": { "strassenschluessel": "057620000024M1840", "bezeichnung": "Wenderweg" }, "geometry": { "type": "Point", "coordinates": [ 9.228249016377802, 51.822125912736404 ] } },
{ "type": "Feature", "properties": { "strassenschluessel": "057620000024M1850", "bezeichnung": "Windmühlenweg" }, "geometry": { "type": "Point", "coordinates": [ 9.230068569302883, 51.820546552099799 ] } },
{ "type": "Feature", "properties": { "strassenschluessel": "057620000024M1870", "bezeichnung": "Zum See" }, "geometry": { "type": "Point", "coordinates": [ 9.233897971586185, 51.823227733310503 ] } },
{ "type": "Feature", "properties": { "strassenschluessel": "057620000024U9238", "bezeichnung": "An der Steinbrinker Trift" }, "geometry": null },
{ "type": "Feature", "properties": { "strassenschluessel": "057620000024U9239", "bezeichnung": "Alter Eilverser Weg" }, "geometry": null },
{ "type": "Feature", "properties": { "strassenschluessel": "057620000024U9240", "bezeichnung": "Am Bredenborner Wege" }, "geometry": { "type": "Point", "coordinates": [ 9.216128924283343, 51.812964629657429 ] } },
{ "type": "Feature", "properties": { "strassenschluessel": "057620000024U9241", "bezeichnung": "Am hohen Ufer" }, "geometry": null },
{ "type": "Feature", "properties": { "strassenschluessel": "057620000024U9242", "bezeichnung": "Am Walsterteich" }, "geometry": null },
{ "type": "Feature", "properties": { "strassenschluessel": "057620000024U9243", "bezeichnung": "Am Wender Wege" }, "geometry": null },
{ "type": "Feature", "properties": { "strassenschluessel": "057620000024U9246", "bezeichnung": "Beerenbusch" }, "geometry": null },
{ "type": "Feature", "properties": { "strassenschluessel": "057620000024U9247", "bezeichnung": "Bestinghausen" }, "geometry": null },
{ "type": "Feature", "properties": { "strassenschluessel": "057620000024U9248", "bezeichnung": "Birkenfeld" }, "geometry": { "type": "Point", "coordinates": [ 9.231853409686881, 51.822090908915605 ] } },
{ "type": "Feature", "properties": { "strassenschluessel": "057620000024U9250", "bezeichnung": "L 755" }, "geometry": null },
{ "type": "Feature", "properties": { "strassenschluessel": "057620000024U9253", "bezeichnung": "Brucht" }, "geometry": null },
{ "type": "Feature", "properties": { "strassenschluessel": "057620000024U9256", "bezeichnung": "Dorfstelle Wenden" }, "geometry": null },
{ "type": "Feature", "properties": { "strassenschluessel": "057620000024U9257", "bezeichnung": "Eichhagen" }, "geometry": null },
{ "type": "Feature", "properties": { "strassenschluessel": "057620000024U9259", "bezeichnung": "Ellernkamp" }, "geometry": null },
{ "type": "Feature", "properties": { "strassenschluessel": "057620000024U9260", "bezeichnung": "Gänsebrede" }, "geometry": null },
{ "type": "Feature", "properties": { "strassenschluessel": "057620000024U9261", "bezeichnung": "Heide" }, "geometry": { "type": "Point", "coordinates": [ 9.21491524068778, 51.817125193554091 ] } },
{ "type": "Feature", "properties": { "strassenschluessel": "057620000024U9262", "bezeichnung": "Heideweg" }, "geometry": null },
{ "type": "Feature", "properties": { "strassenschluessel": "057620000024U9263", "bezeichnung": "Herrenkamp" }, "geometry": null },
{ "type": "Feature", "properties": { "strassenschluessel": "057620000024U9264", "bezeichnung": "Hökenbrede" }, "geometry": null },
{ "type": "Feature", "properties": { "strassenschluessel": "057620000024U9265", "bezeichnung": "Hogge" }, "geometry": { "type": "Point", "coordinates": [ 9.231310483651038, 51.82466996627921 ] } },
{ "type": "Feature", "properties": { "strassenschluessel": "057620000024U9266", "bezeichnung": "Hohenufersche Trift" }, "geometry": null },
{ "type": "Feature", "properties": { "strassenschluessel": "057620000024U9267", "bezeichnung": "Hungerberg" }, "geometry": { "type": "Point", "coordinates": [ 9.224263851653117, 51.82920532611378 ] } },
{ "type": "Feature", "properties": { "strassenschluessel": "057620000024U9269", "bezeichnung": "Im niederen Holze" }, "geometry": null },
{ "type": "Feature", "properties": { "strassenschluessel": "057620000024U9270", "bezeichnung": "Kälberkamp" }, "geometry": { "type": "Point", "coordinates": [ 9.224788393697272, 51.820351474037835 ] } },
{ "type": "Feature", "properties": { "strassenschluessel": "057620000024U9271", "bezeichnung": "Krähenberg" }, "geometry": null },
{ "type": "Feature", "properties": { "strassenschluessel": "057620000024U9272", "bezeichnung": "Kleiner Hungerberg" }, "geometry": { "type": "Point", "coordinates": [ 9.224957584049577, 51.829167613838472 ] } },
{ "type": "Feature", "properties": { "strassenschluessel": "057620000024U9274", "bezeichnung": "Märsch" }, "geometry": null },
{ "type": "Feature", "properties": { "strassenschluessel": "057620000024U9276", "bezeichnung": "Möncheteich" }, "geometry": { "type": "Point", "coordinates": [ 9.228017528527147, 51.821399787890542 ] } },
{ "type": "Feature", "properties": { "strassenschluessel": "057620000024U9278", "bezeichnung": "Mühlbreite" }, "geometry": { "type": "Point", "coordinates": [ 9.228142988696765, 51.811966196541555 ] } },
{ "type": "Feature", "properties": { "strassenschluessel": "057620000024U9279", "bezeichnung": "Mühlenkamp" }, "geometry": null },
{ "type": "Feature", "properties": { "strassenschluessel": "057620000024U9280", "bezeichnung": "Niedere Feld" }, "geometry": { "type": "Point", "coordinates": [ 9.22048150176766, 51.809798638530005 ] } },
{ "type": "Feature", "properties": { "strassenschluessel": "057620000024U9281", "bezeichnung": "Niedernhölzer Weg" }, "geometry": null },
{ "type": "Feature", "properties": { "strassenschluessel": "057620000024U9282", "bezeichnung": "Paschenberg" }, "geometry": null },
{ "type": "Feature", "properties": { "strassenschluessel": "057620000024U9284", "bezeichnung": "Pollskämpe" }, "geometry": null },
{ "type": "Feature", "properties": { "strassenschluessel": "057620000024U9285", "bezeichnung": "Prozessionsweg" }, "geometry": null },
{ "type": "Feature", "properties": { "strassenschluessel": "057620000024U9286", "bezeichnung": "Rote Berg" }, "geometry": { "type": "Point", "coordinates": [ 9.222536648776517, 51.820056203590902 ] } },
{ "type": "Feature", "properties": { "strassenschluessel": "057620000024U9287", "bezeichnung": "Saure Brede" }, "geometry": null },
{ "type": "Feature", "properties": { "strassenschluessel": "057620000024U9288", "bezeichnung": "Schloepe" }, "geometry": null },
{ "type": "Feature", "properties": { "strassenschluessel": "057620000024U9290", "bezeichnung": "Schnatfeld" }, "geometry": { "type": "Point", "coordinates": [ 9.223428360760721, 51.822973342117024 ] } },
{ "type": "Feature", "properties": { "strassenschluessel": "057620000024U9291", "bezeichnung": "Schnatfelder Weg" }, "geometry": null },
{ "type": "Feature", "properties": { "strassenschluessel": "057620000024U9293", "bezeichnung": "Schulenburg" }, "geometry": { "type": "Point", "coordinates": [ 9.213648911850029, 51.82744125146769 ] } },
{ "type": "Feature", "properties": { "strassenschluessel": "057620000024U9295", "bezeichnung": "Steinbrink" }, "geometry": null },
{ "type": "Feature", "properties": { "strassenschluessel": "057620000024U9296", "bezeichnung": "Stoppelkamp" }, "geometry": { "type": "Point", "coordinates": [ 9.220642265459825, 51.819931413593643 ] } },
{ "type": "Feature", "properties": { "strassenschluessel": "057620000024U9297", "bezeichnung": "Unter dem Hungerberge" }, "geometry": { "type": "Point", "coordinates": [ 9.229243172515721, 51.82410525451926 ] } },
{ "type": "Feature", "properties": { "strassenschluessel": "057620000024U9299", "bezeichnung": "Wiggenbrink" }, "geometry": { "type": "Point", "coordinates": [ 9.235811442181404, 51.818031653307024 ] } },
{ "type": "Feature", "properties": { "strassenschluessel": "057620000024U9302", "bezeichnung": "Radweg Bredenborn-Vörden" }, "geometry": null },
{ "type": "Feature", "properties": { "strassenschluessel": "057620000024U9303", "bezeichnung": "Radweg Vörden-Marienmünster" }, "geometry": null },
{ "type": "Feature", "properties": { "strassenschluessel": "057620000024U9343", "bezeichnung": "Am Hellberg" }, "geometry": null },
{ "type": "Feature", "properties": { "strassenschluessel": "057620000024U9344", "bezeichnung": "Am Mittelwege" }, "geometry": { "type": "Point", "coordinates": [ 9.246584966049721, 51.860397413368872 ] } },
{ "type": "Feature", "properties": { "strassenschluessel": "057620000024U9345", "bezeichnung": "An der hohen Sonne" }, "geometry": { "type": "Point", "coordinates": [ 9.271670506503, 51.862513393587037 ] } },
{ "type": "Feature", "properties": { "strassenschluessel": "057620000024U9346", "bezeichnung": "An der Niese" }, "geometry": { "type": "Point", "coordinates": [ 9.252867146837811, 51.857546583664735 ] } },
{ "type": "Feature", "properties": { "strassenschluessel": "057620000024U9347", "bezeichnung": "Auf dem Mühlenkamp" }, "geometry": null },
{ "type": "Feature", "properties": { "strassenschluessel": "057620000024U9348", "bezeichnung": "Auf dem Westerberge" }, "geometry": null },
{ "type": "Feature", "properties": { "strassenschluessel": "057620000024U9349", "bezeichnung": "Auf der unteren Trift" }, "geometry": { "type": "Point", "coordinates": [ 9.228115194993078, 51.859763831589426 ] } },
{ "type": "Feature", "properties": { "strassenschluessel": "057620000024U9350", "bezeichnung": "Bönekenbach" }, "geometry": null },
{ "type": "Feature", "properties": { "strassenschluessel": "057620000024U9351", "bezeichnung": "Breite Kamp" }, "geometry": null },
{ "type": "Feature", "properties": { "strassenschluessel": "057620000024U9352", "bezeichnung": "Brümmersfeld" }, "geometry": null },
{ "type": "Feature", "properties": { "strassenschluessel": "057620000024U9353", "bezeichnung": "Buchenbusch" }, "geometry": null },
{ "type": "Feature", "properties": { "strassenschluessel": "057620000024U9354", "bezeichnung": "Buschkamp" }, "geometry": null },
{ "type": "Feature", "properties": { "strassenschluessel": "057620000024U9355", "bezeichnung": "Das Brinkfeld" }, "geometry": null },
{ "type": "Feature", "properties": { "strassenschluessel": "057620000024U9356", "bezeichnung": "Der Brink" }, "geometry": null },
{ "type": "Feature", "properties": { "strassenschluessel": "057620000024U9357", "bezeichnung": "Der Rehberg" }, "geometry": { "type": "Point", "coordinates": [ 9.244467937978978, 51.854648957895478 ] } },
{ "type": "Feature", "properties": { "strassenschluessel": "057620000024U9358", "bezeichnung": "Die Helle" }, "geometry": null },
{ "type": "Feature", "properties": { "strassenschluessel": "057620000024U9359", "bezeichnung": "Die hohe Fahr" }, "geometry": { "type": "Point", "coordinates": [ 9.237282928260099, 51.853600683850686 ] } },
{ "type": "Feature", "properties": { "strassenschluessel": "057620000024U9360", "bezeichnung": "Die roten Kämpe" }, "geometry": { "type": "Point", "coordinates": [ 9.256156322204296, 51.849095396025 ] } },
{ "type": "Feature", "properties": { "strassenschluessel": "057620000024U9361", "bezeichnung": "Engelkenkamp" }, "geometry": { "type": "Point", "coordinates": [ 9.249951747896883, 51.849548340516407 ] } },
{ "type": "Feature", "properties": { "strassenschluessel": "057620000024U9362", "bezeichnung": "Friedhofsweg" }, "geometry": null },
{ "type": "Feature", "properties": { "strassenschluessel": "057620000024U9363", "bezeichnung": "Gerstkamp" }, "geometry": { "type": "Point", "coordinates": [ 9.245218080677498, 51.851809925786796 ] } },
{ "type": "Feature", "properties": { "strassenschluessel": "057620000024U9364", "bezeichnung": "Hahnenkamp" }, "geometry": null },
{ "type": "Feature", "properties": { "strassenschluessel": "057620000024U9365", "bezeichnung": "Hohe Sonne" }, "geometry": null },
{ "type": "Feature", "properties": { "strassenschluessel": "057620000024U9366", "bezeichnung": "Hollmersfeld" }, "geometry": null },
{ "type": "Feature", "properties": { "strassenschluessel": "057620000024U9367", "bezeichnung": "Hopfenhof" }, "geometry": null },
{ "type": "Feature", "properties": { "strassenschluessel": "057620000024U9368", "bezeichnung": "Im Mittelorte" }, "geometry": null },
{ "type": "Feature", "properties": { "strassenschluessel": "057620000024U9369", "bezeichnung": "In den Schüren" }, "geometry": { "type": "Point", "coordinates": [ 9.256303604628325, 51.85417627644388 ] } },
{ "type": "Feature", "properties": { "strassenschluessel": "057620000024U9370", "bezeichnung": "Jürgensberg" }, "geometry": null },
{ "type": "Feature", "properties": { "strassenschluessel": "057620000024U9371", "bezeichnung": "Kohlstedt" }, "geometry": null },
{ "type": "Feature", "properties": { "strassenschluessel": "057620000024U9372", "bezeichnung": "Kollerbach" }, "geometry": null },
{ "type": "Feature", "properties": { "strassenschluessel": "057620000024U9373", "bezeichnung": "Kollerbeck" }, "geometry": null },
{ "type": "Feature", "properties": { "strassenschluessel": "057620000024U9375", "bezeichnung": "K 65" }, "geometry": null },
{ "type": "Feature", "properties": { "strassenschluessel": "057620000024U9376", "bezeichnung": "Lange Wiese" }, "geometry": { "type": "Point", "coordinates": [ 9.235963544463734, 51.859970354446126 ] } },
{ "type": "Feature", "properties": { "strassenschluessel": "057620000024U9377", "bezeichnung": "Langenkamp" }, "geometry": null },
{ "type": "Feature", "properties": { "strassenschluessel": "057620000024U9378", "bezeichnung": "Leutnantsfeld" }, "geometry": null },
{ "type": "Feature", "properties": { "strassenschluessel": "057620000024U9379", "bezeichnung": "Minnenfeld" }, "geometry": null },
{ "type": "Feature", "properties": { "strassenschluessel": "057620000024U9380", "bezeichnung": "Mühlengraben" }, "geometry": null },
{ "type": "Feature", "properties": { "strassenschluessel": "057620000024U9381", "bezeichnung": "Mühlenteich" }, "geometry": null },
{ "type": "Feature", "properties": { "strassenschluessel": "057620000024U9382", "bezeichnung": "Niese" }, "geometry": null },
{ "type": "Feature", "properties": { "strassenschluessel": "057620000024U9383", "bezeichnung": "Oldenburger Köpfe" }, "geometry": null },
{ "type": "Feature", "properties": { "strassenschluessel": "057620000024U9385", "bezeichnung": "Remmenkamp" }, "geometry": null },
{ "type": "Feature", "properties": { "strassenschluessel": "057620000024U9387", "bezeichnung": "Riepenberg" }, "geometry": null },
{ "type": "Feature", "properties": { "strassenschluessel": "057620000024U9388", "bezeichnung": "Rote Kämpe" }, "geometry": null },
{ "type": "Feature", "properties": { "strassenschluessel": "057620000024U9389", "bezeichnung": "Sandersfeld" }, "geometry": { "type": "Point", "coordinates": [ 9.241210547778859, 51.861740059973698 ] } },
{ "type": "Feature", "properties": { "strassenschluessel": "057620000024U9390", "bezeichnung": "Siekbach" }, "geometry": null },
{ "type": "Feature", "properties": { "strassenschluessel": "057620000024U9391", "bezeichnung": "Siekfeld" }, "geometry": { "type": "Point", "coordinates": [ 9.277469628023406, 51.858921166038662 ] } },
{ "type": "Feature", "properties": { "strassenschluessel": "057620000024U9392", "bezeichnung": "Speddeln" }, "geometry": null },
{ "type": "Feature", "properties": { "strassenschluessel": "057620000024U9393", "bezeichnung": "Teichwiesen" }, "geometry": null },
{ "type": "Feature", "properties": { "strassenschluessel": "057620000024U9394", "bezeichnung": "Über dem Kuhkampe" }, "geometry": { "type": "Point", "coordinates": [ 9.236199039837093, 51.855126351908119 ] } },
{ "type": "Feature", "properties": { "strassenschluessel": "057620000024U9395", "bezeichnung": "Über den Höfen" }, "geometry": null },
{ "type": "Feature", "properties": { "strassenschluessel": "057620000024U9397", "bezeichnung": "Vor dem Riepenberge" }, "geometry": { "type": "Point", "coordinates": [ 9.235436032978145, 51.859409039136978 ] } },
{ "type": "Feature", "properties": { "strassenschluessel": "057620000024U9398", "bezeichnung": "Vor dem runden Berge" }, "geometry": null },
{ "type": "Feature", "properties": { "strassenschluessel": "057620000024U9399", "bezeichnung": "Vor dem Westerberge" }, "geometry": { "type": "Point", "coordinates": [ 9.232781394927885, 51.861960140878715 ] } },
{ "type": "Feature", "properties": { "strassenschluessel": "057620000024U9400", "bezeichnung": "Westerberg" }, "geometry": null },
{ "type": "Feature", "properties": { "strassenschluessel": "057620000024U9401", "bezeichnung": "K 70" }, "geometry": null },
{ "type": "Feature", "properties": { "strassenschluessel": "057620000024U9425", "bezeichnung": "Am alten Vördenschen Wege" }, "geometry": null },
{ "type": "Feature", "properties": { "strassenschluessel": "057620000024U9426", "bezeichnung": "Am Bollkastentriftwege" }, "geometry": null },
{ "type": "Feature", "properties": { "strassenschluessel": "057620000024U9428", "bezeichnung": "Am Bangernwege" }, "geometry": null },
{ "type": "Feature", "properties": { "strassenschluessel": "057620000024U9429", "bezeichnung": "Am Brockschen Pfade" }, "geometry": null },
{ "type": "Feature", "properties": { "strassenschluessel": "057620000024U9430", "bezeichnung": "Am Dahlwege" }, "geometry": { "type": "Point", "coordinates": [ 9.170546800955657, 51.807849898784248 ] } },
{ "type": "Feature", "properties": { "strassenschluessel": "057620000024U9431", "bezeichnung": "Am Kirchwege" }, "geometry": null },
{ "type": "Feature", "properties": { "strassenschluessel": "057620000024U9432", "bezeichnung": "Am neuen Kirchhofe" }, "geometry": null },
{ "type": "Feature", "properties": { "strassenschluessel": "057620000024U9433", "bezeichnung": "Am Nieheimer Wege" }, "geometry": { "type": "Point", "coordinates": [ 9.172706794778831, 51.810903658374066 ] } },
{ "type": "Feature", "properties": { "strassenschluessel": "057620000024U9434", "bezeichnung": "Am schiefen Wege" }, "geometry": { "type": "Point", "coordinates": [ 9.179486788424297, 51.808973134785738 ] } },
{ "type": "Feature", "properties": { "strassenschluessel": "057620000024U9435", "bezeichnung": "An der Brucht" }, "geometry": null },
{ "type": "Feature", "properties": { "strassenschluessel": "057620000024U9437", "bezeichnung": "An der Heide" }, "geometry": { "type": "Point", "coordinates": [ 9.183943704302923, 51.798096880096246 ] } },
{ "type": "Feature", "properties": { "strassenschluessel": "057620000024U9438", "bezeichnung": "Auf dem Pfade" }, "geometry": null },
{ "type": "Feature", "properties": { "strassenschluessel": "057620000024U9439", "bezeichnung": "Auf der Heide" }, "geometry": null },
{ "type": "Feature", "properties": { "strassenschluessel": "057620000024U9440", "bezeichnung": "Auf der Steinkuhle" }, "geometry": { "type": "Point", "coordinates": [ 9.188705286188434, 51.814642699414364 ] } },
{ "type": "Feature", "properties": { "strassenschluessel": "057620000024U9441", "bezeichnung": "Bangern" }, "geometry": { "type": "Point", "coordinates": [ 9.179035283388709, 51.81071287675308 ] } },
{ "type": "Feature", "properties": { "strassenschluessel": "057620000024U9442", "bezeichnung": "Bangerngraben" }, "geometry": null },
{ "type": "Feature", "properties": { "strassenschluessel": "057620000024U9443", "bezeichnung": "Bangernweg" }, "geometry": null },
{ "type": "Feature", "properties": { "strassenschluessel": "057620000024U9445", "bezeichnung": "Beber" }, "geometry": null },
{ "type": "Feature", "properties": { "strassenschluessel": "057620000024U9446", "bezeichnung": "Bei der Liborikapelle" }, "geometry": { "type": "Point", "coordinates": [ 9.187610310191211, 51.812544246615033 ] } },
{ "type": "Feature", "properties": { "strassenschluessel": "057620000024U9447", "bezeichnung": "Beim großen Gott" }, "geometry": null },
{ "type": "Feature", "properties": { "strassenschluessel": "057620000024U9451", "bezeichnung": "Bornfeld" }, "geometry": { "type": "Point", "coordinates": [ 9.180253026929098, 51.813850143311399 ] } },
{ "type": "Feature", "properties": { "strassenschluessel": "057620000024U9452", "bezeichnung": "Bornholz" }, "geometry": { "type": "Point", "coordinates": [ 9.166748999109801, 51.80806332195133 ] } },
{ "type": "Feature", "properties": { "strassenschluessel": "057620000024U9453", "bezeichnung": "Bornteich" }, "geometry": null },
{ "type": "Feature", "properties": { "strassenschluessel": "057620000024U9454", "bezeichnung": "Marienmünster-Bredenborn" }, "geometry": null },
{ "type": "Feature", "properties": { "strassenschluessel": "057620000024U9455", "bezeichnung": "Brosterbach" }, "geometry": null },
{ "type": "Feature", "properties": { "strassenschluessel": "057620000024U9457", "bezeichnung": "Bünnigsholz" }, "geometry": { "type": "Point", "coordinates": [ 9.184751252699099, 51.816562225965093 ] } },
{ "type": "Feature", "properties": { "strassenschluessel": "057620000024U9458", "bezeichnung": "Der alte Kohlhof" }, "geometry": null },
{ "type": "Feature", "properties": { "strassenschluessel": "057620000024U9459", "bezeichnung": "Der Bollkasten" }, "geometry": null },
{ "type": "Feature", "properties": { "strassenschluessel": "057620000024U9460", "bezeichnung": "Der Brosterberg" }, "geometry": null },
{ "type": "Feature", "properties": { "strassenschluessel": "057620000024U9463", "bezeichnung": "Der schiefe Weg" }, "geometry": null },
{ "type": "Feature", "properties": { "strassenschluessel": "057620000024U9464", "bezeichnung": "Die Hopperpöhle" }, "geometry": { "type": "Point", "coordinates": [ 9.183076383612116, 51.820715061254944 ] } },
{ "type": "Feature", "properties": { "strassenschluessel": "057620000024U9465", "bezeichnung": "Die kleine Twete" }, "geometry": null },
{ "type": "Feature", "properties": { "strassenschluessel": "057620000024U9466", "bezeichnung": "Die Steinbreite" }, "geometry": { "type": "Point", "coordinates": [ 9.177784220730933, 51.801315502188686 ] } },
{ "type": "Feature", "properties": { "strassenschluessel": "057620000024U9467", "bezeichnung": "Fahrenberg" }, "geometry": { "type": "Point", "coordinates": [ 9.19190457815937, 51.809003230713195 ] } },
{ "type": "Feature", "properties": { "strassenschluessel": "057620000024U9468", "bezeichnung": "Finkenkamp" }, "geometry": null },
{ "type": "Feature", "properties": { "strassenschluessel": "057620000024U9469", "bezeichnung": "Franzosenteich" }, "geometry": null },
{ "type": "Feature", "properties": { "strassenschluessel": "057620000024U9471", "bezeichnung": "Große Täschen" }, "geometry": null },
{ "type": "Feature", "properties": { "strassenschluessel": "057620000024U9472", "bezeichnung": "Hinter den Fahren" }, "geometry": { "type": "Point", "coordinates": [ 9.191075935976199, 51.801454539009939 ] } },
{ "type": "Feature", "properties": { "strassenschluessel": "057620000024U9473", "bezeichnung": "Hinter dem Fahrenberg" }, "geometry": null },
{ "type": "Feature", "properties": { "strassenschluessel": "057620000024U9474", "bezeichnung": "Hobrechtsen" }, "geometry": { "type": "Point", "coordinates": [ 9.180411404846685, 51.820816797249307 ] } },
{ "type": "Feature", "properties": { "strassenschluessel": "057620000024U9475", "bezeichnung": "K 5" }, "geometry": null },
{ "type": "Feature", "properties": { "strassenschluessel": "057620000024U9476", "bezeichnung": "Im Buchen Busch" }, "geometry": { "type": "Point", "coordinates": [ 9.197627305690236, 51.81639764121104 ] } },
{ "type": "Feature", "properties": { "strassenschluessel": "057620000024U9477", "bezeichnung": "Im Grießen Siek" }, "geometry": null },
{ "type": "Feature", "properties": { "strassenschluessel": "057620000024U9478", "bezeichnung": "Im Ohrental" }, "geometry": null },
{ "type": "Feature", "properties": { "strassenschluessel": "057620000024U9480", "bezeichnung": "In der hölzernen Klinke" }, "geometry": null },
{ "type": "Feature", "properties": { "strassenschluessel": "057620000024U9481", "bezeichnung": "Kerspohl" }, "geometry": null },
{ "type": "Feature", "properties": { "strassenschluessel": "057620000024U9484", "bezeichnung": "Lüttke Täschen" }, "geometry": { "type": "Point", "coordinates": [ 9.179544367144915, 51.794458811606098 ] } },
{ "type": "Feature", "properties": { "strassenschluessel": "057620000024U9485", "bezeichnung": "Masterholz" }, "geometry": { "type": "Point", "coordinates": [ 9.16961375713892, 51.784068670765464 ] } },
{ "type": "Feature", "properties": { "strassenschluessel": "057620000024U9486", "bezeichnung": "Mönchsland" }, "geometry": null },
{ "type": "Feature", "properties": { "strassenschluessel": "057620000024U9487", "bezeichnung": "Mühlenbach" }, "geometry": null },
{ "type": "Feature", "properties": { "strassenschluessel": "057620000024U9488", "bezeichnung": "Mühlenbrede" }, "geometry": null },
{ "type": "Feature", "properties": { "strassenschluessel": "057620000024U9489", "bezeichnung": "Nasse Brede" }, "geometry": null },
{ "type": "Feature", "properties": { "strassenschluessel": "057620000024U9491", "bezeichnung": "Oranien" }, "geometry": null },
{ "type": "Feature", "properties": { "strassenschluessel": "057620000024U9492", "bezeichnung": "Pansterland" }, "geometry": null },
{ "type": "Feature", "properties": { "strassenschluessel": "057620000024U9493", "bezeichnung": "Robbeshagen" }, "geometry": null },
{ "type": "Feature", "properties": { "strassenschluessel": "057620000024U9494", "bezeichnung": "Steffenskamp" }, "geometry": null },
{ "type": "Feature", "properties": { "strassenschluessel": "057620000024U9495", "bezeichnung": "Sundern" }, "geometry": { "type": "Point", "coordinates": [ 9.173817482775794, 51.81470876693362 ] } },
{ "type": "Feature", "properties": { "strassenschluessel": "057620000024U9497", "bezeichnung": "Unterm Brosterberge" }, "geometry": { "type": "Point", "coordinates": [ 9.175049954336291, 51.825414747354728 ] } },
{ "type": "Feature", "properties": { "strassenschluessel": "057620000024U9498", "bezeichnung": "Vor dem Bollkasten" }, "geometry": null },
{ "type": "Feature", "properties": { "strassenschluessel": "057620000024U9499", "bezeichnung": "Vor'm Bornholz" }, "geometry": null },
{ "type": "Feature", "properties": { "strassenschluessel": "057620000024U9500", "bezeichnung": "Zum Hellersen" }, "geometry": { "type": "Point", "coordinates": [ 9.20036650973306, 51.7968376896347 ] } },
{ "type": "Feature", "properties": { "strassenschluessel": "057620000024U9502", "bezeichnung": "Sundernkamp" }, "geometry": { "type": "Point", "coordinates": [ 9.160779360669768, 51.809510901902087 ] } },
{ "type": "Feature", "properties": { "strassenschluessel": "057620000024U9536", "bezeichnung": "Am Grasweg" }, "geometry": null },
{ "type": "Feature", "properties": { "strassenschluessel": "057620000024U9537", "bezeichnung": "Am neuen Weg" }, "geometry": { "type": "Point", "coordinates": [ 9.254370639975344, 51.782302426092429 ] } },
{ "type": "Feature", "properties": { "strassenschluessel": "057620000024U9538", "bezeichnung": "Am Voßberg" }, "geometry": { "type": "Point", "coordinates": [ 9.225914957401841, 51.783037195389305 ] } },
{ "type": "Feature", "properties": { "strassenschluessel": "057620000024U9539", "bezeichnung": "An der großen Kuhle" }, "geometry": null },
{ "type": "Feature", "properties": { "strassenschluessel": "057620000024U9540", "bezeichnung": "An der langen Grund" }, "geometry": null },
{ "type": "Feature", "properties": { "strassenschluessel": "057620000024U9541", "bezeichnung": "Auf dem Hellerschen Berge" }, "geometry": null },
{ "type": "Feature", "properties": { "strassenschluessel": "057620000024U9542", "bezeichnung": "Auf dem Larkesborn" }, "geometry": { "type": "Point", "coordinates": [ 9.250236055352781, 51.792280911849488 ] } },
{ "type": "Feature", "properties": { "strassenschluessel": "057620000024U9543", "bezeichnung": "Auf dem Röhen" }, "geometry": { "type": "Point", "coordinates": [ 9.264089195407696, 51.786096219377526 ] } },
{ "type": "Feature", "properties": { "strassenschluessel": "057620000024U9544", "bezeichnung": "Auf der Natinge" }, "geometry": { "type": "Point", "coordinates": [ 9.239492698554644, 51.798375759626133 ] } },
{ "type": "Feature", "properties": { "strassenschluessel": "057620000024U9545", "bezeichnung": "Auf'm Quicksterte" }, "geometry": null },
{ "type": "Feature", "properties": { "strassenschluessel": "057620000024U9546", "bezeichnung": "Bei der Gantengosse" }, "geometry": null },
{ "type": "Feature", "properties": { "strassenschluessel": "057620000024U9547", "bezeichnung": "Bessings Feld" }, "geometry": { "type": "Point", "coordinates": [ 9.240853639524264, 51.795423387566714 ] } },
{ "type": "Feature", "properties": { "strassenschluessel": "057620000024U9548", "bezeichnung": "Birkenkamp" }, "geometry": { "type": "Point", "coordinates": [ 9.244393202219419, 51.789716168831134 ] } },
{ "type": "Feature", "properties": { "strassenschluessel": "057620000024U9549", "bezeichnung": "Breitenberg" }, "geometry": null },
{ "type": "Feature", "properties": { "strassenschluessel": "057620000024U9550", "bezeichnung": "Der Rönkeberg" }, "geometry": null },
{ "type": "Feature", "properties": { "strassenschluessel": "057620000024U9551", "bezeichnung": "Die Knäppe" }, "geometry": null },
{ "type": "Feature", "properties": { "strassenschluessel": "057620000024U9552", "bezeichnung": "Eimer Holz" }, "geometry": null },
{ "type": "Feature", "properties": { "strassenschluessel": "057620000024U9553", "bezeichnung": "Hellensiek" }, "geometry": null },
{ "type": "Feature", "properties": { "strassenschluessel": "057620000024U9554", "bezeichnung": "Hinter Henken Kamp" }, "geometry": { "type": "Point", "coordinates": [ 9.247501846899668, 51.787380217684387 ] } },
{ "type": "Feature", "properties": { "strassenschluessel": "057620000024U9555", "bezeichnung": "Hohe Feld" }, "geometry": { "type": "Point", "coordinates": [ 9.228495623153803, 51.795366814407593 ] } },
{ "type": "Feature", "properties": { "strassenschluessel": "057620000024U9556", "bezeichnung": "Im Besseborn" }, "geometry": { "type": "Point", "coordinates": [ 9.23887975608304, 51.793371303195713 ] } },
{ "type": "Feature", "properties": { "strassenschluessel": "057620000024U9557", "bezeichnung": "Im düstern Sieke" }, "geometry": { "type": "Point", "coordinates": [ 9.247940969254639, 51.79454229216779 ] } },
{ "type": "Feature", "properties": { "strassenschluessel": "057620000024U9558", "bezeichnung": "Im heiligen Grund" }, "geometry": { "type": "Point", "coordinates": [ 9.235132398639044, 51.785046951125516 ] } },
{ "type": "Feature", "properties": { "strassenschluessel": "057620000024U9559", "bezeichnung": "Im Hünerwinkel" }, "geometry": null },
{ "type": "Feature", "properties": { "strassenschluessel": "057620000024U9560", "bezeichnung": "Im Königslau" }, "geometry": { "type": "Point", "coordinates": [ 9.244271799740451, 51.781735242558767 ] } },
{ "type": "Feature", "properties": { "strassenschluessel": "057620000024U9561", "bezeichnung": "Im Schling" }, "geometry": null },
{ "type": "Feature", "properties": { "strassenschluessel": "057620000024U9562", "bezeichnung": "K 61" }, "geometry": null },
{ "type": "Feature", "properties": { "strassenschluessel": "057620000024U9564", "bezeichnung": "Kohlgarten" }, "geometry": { "type": "Point", "coordinates": [ 9.244262799040348, 51.798795686453012 ] } },
{ "type": "Feature", "properties": { "strassenschluessel": "057620000024U9565", "bezeichnung": "Kohlstelle" }, "geometry": { "type": "Point", "coordinates": [ 9.240837719415211, 51.79103825777532 ] } },
{ "type": "Feature", "properties": { "strassenschluessel": "057620000024U9566", "bezeichnung": "K 60" }, "geometry": null },
{ "type": "Feature", "properties": { "strassenschluessel": "057620000024U9568", "bezeichnung": "Otten Stücke" }, "geometry": { "type": "Point", "coordinates": [ 9.245625133423284, 51.789535367281026 ] } },
{ "type": "Feature", "properties": { "strassenschluessel": "057620000024U9570", "bezeichnung": "Scharlieth" }, "geometry": null },
{ "type": "Feature", "properties": { "strassenschluessel": "057620000024U9572", "bezeichnung": "Unterm Berg" }, "geometry": { "type": "Point", "coordinates": [ 9.253285743690281, 51.79358526839674 ] } },
{ "type": "Feature", "properties": { "strassenschluessel": "057620000024U9574", "bezeichnung": "Vor dem Bollkasten" }, "geometry": { "type": "Point", "coordinates": [ 9.239771964061379, 51.796439195328247 ] } },
{ "type": "Feature", "properties": { "strassenschluessel": "057620000024U9575", "bezeichnung": "Vor dem Knicke" }, "geometry": null },
{ "type": "Feature", "properties": { "strassenschluessel": "057620000024U9576", "bezeichnung": "R 1 Radweg Münster-Höxter" }, "geometry": null },
{ "type": "Feature", "properties": { "strassenschluessel": "057620000024U9577", "bezeichnung": "Bredens Ende" }, "geometry": null },
{ "type": "Feature", "properties": { "strassenschluessel": "057620000024U9599", "bezeichnung": "Am Berge" }, "geometry": null },
{ "type": "Feature", "properties": { "strassenschluessel": "057620000024U9601", "bezeichnung": "Am Kirchweg" }, "geometry": null },
{ "type": "Feature", "properties": { "strassenschluessel": "057620000024U9602", "bezeichnung": "Auf'm Roh" }, "geometry": null },
{ "type": "Feature", "properties": { "strassenschluessel": "057620000024U9603", "bezeichnung": "Auf'm Schiefen" }, "geometry": null },
{ "type": "Feature", "properties": { "strassenschluessel": "057620000024U9604", "bezeichnung": "Auf'm schwarzen Feld" }, "geometry": null },
{ "type": "Feature", "properties": { "strassenschluessel": "057620000024U9605", "bezeichnung": "Auf dem Felde" }, "geometry": null },
{ "type": "Feature", "properties": { "strassenschluessel": "057620000024U9606", "bezeichnung": "Auf dem Fessenfelde" }, "geometry": { "type": "Point", "coordinates": [ 9.255632682743654, 51.840613114064972 ] } },
{ "type": "Feature", "properties": { "strassenschluessel": "057620000024U9607", "bezeichnung": "Auf dem hinteren Felde" }, "geometry": null },
{ "type": "Feature", "properties": { "strassenschluessel": "057620000024U9608", "bezeichnung": "Auf den Köppen" }, "geometry": { "type": "Point", "coordinates": [ 9.271920318105284, 51.85071024450712 ] } },
{ "type": "Feature", "properties": { "strassenschluessel": "057620000024U9610", "bezeichnung": "Auf der Buchhorst" }, "geometry": { "type": "Point", "coordinates": [ 9.261166333608958, 51.844516231433886 ] } },
{ "type": "Feature", "properties": { "strassenschluessel": "057620000024U9611", "bezeichnung": "Behrens Berg" }, "geometry": { "type": "Point", "coordinates": [ 9.258494816572732, 51.841435913333271 ] } },
{ "type": "Feature", "properties": { "strassenschluessel": "057620000024U9614", "bezeichnung": "Die roten Kämpe" }, "geometry": null },
{ "type": "Feature", "properties": { "strassenschluessel": "057620000024U9615", "bezeichnung": "Große Trift" }, "geometry": { "type": "Point", "coordinates": [ 9.26977053029133, 51.850833724962328 ] } },
{ "type": "Feature", "properties": { "strassenschluessel": "057620000024U9616", "bezeichnung": "Im Immenkorbe" }, "geometry": null },
{ "type": "Feature", "properties": { "strassenschluessel": "057620000024U9617", "bezeichnung": "Im Kettelhofe" }, "geometry": { "type": "Point", "coordinates": [ 9.254749339587635, 51.841690749324634 ] } },
{ "type": "Feature", "properties": { "strassenschluessel": "057620000024U9620", "bezeichnung": "Kleine Trift" }, "geometry": null },
{ "type": "Feature", "properties": { "strassenschluessel": "057620000024U9621", "bezeichnung": "Kohrs Helle" }, "geometry": { "type": "Point", "coordinates": [ 9.244553701741948, 51.843662897177268 ] } },
{ "type": "Feature", "properties": { "strassenschluessel": "057620000024U9625", "bezeichnung": "Zwischen den Triften" }, "geometry": null },
{ "type": "Feature", "properties": { "strassenschluessel": "057620000024U9647", "bezeichnung": "Abtei-Marienmünster" }, "geometry": null },
{ "type": "Feature", "properties": { "strassenschluessel": "057620000024U9648", "bezeichnung": "Am Schulweg" }, "geometry": null },
{ "type": "Feature", "properties": { "strassenschluessel": "057620000024U9649", "bezeichnung": "Am Ulenbruch" }, "geometry": null },
{ "type": "Feature", "properties": { "strassenschluessel": "057620000024U9650", "bezeichnung": "An der Holztrift" }, "geometry": null },
{ "type": "Feature", "properties": { "strassenschluessel": "057620000024U9651", "bezeichnung": "Apfelkamp" }, "geometry": null },
{ "type": "Feature", "properties": { "strassenschluessel": "057620000024U9652", "bezeichnung": "Bei der Mühle" }, "geometry": { "type": "Point", "coordinates": [ 9.200417930989236, 51.824361375941329 ] } },
{ "type": "Feature", "properties": { "strassenschluessel": "057620000024U9653", "bezeichnung": "Beim steinernen Kreuze" }, "geometry": null },
{ "type": "Feature", "properties": { "strassenschluessel": "057620000024U9654", "bezeichnung": "Bösenhohle" }, "geometry": null },
{ "type": "Feature", "properties": { "strassenschluessel": "057620000024U9655", "bezeichnung": "Borner Feld" }, "geometry": null },
{ "type": "Feature", "properties": { "strassenschluessel": "057620000024U9656", "bezeichnung": "Borner Kamp" }, "geometry": null },
{ "type": "Feature", "properties": { "strassenschluessel": "057620000024U9658", "bezeichnung": "Dicker Berg" }, "geometry": { "type": "Point", "coordinates": [ 9.200521860730259, 51.824971560197937 ] } },
{ "type": "Feature", "properties": { "strassenschluessel": "057620000024U9659", "bezeichnung": "Die Hellebreite" }, "geometry": null },
{ "type": "Feature", "properties": { "strassenschluessel": "057620000024U9660", "bezeichnung": "Die Howe" }, "geometry": null },
{ "type": "Feature", "properties": { "strassenschluessel": "057620000024U9661", "bezeichnung": "Fähndrichsberg" }, "geometry": null },
{ "type": "Feature", "properties": { "strassenschluessel": "057620000024U9662", "bezeichnung": "Finkenbusch" }, "geometry": null },
{ "type": "Feature", "properties": { "strassenschluessel": "057620000024U9663", "bezeichnung": "Gerkenkamp" }, "geometry": null },
{ "type": "Feature", "properties": { "strassenschluessel": "057620000024U9664", "bezeichnung": "Gräfte" }, "geometry": null },
{ "type": "Feature", "properties": { "strassenschluessel": "057620000024U9665", "bezeichnung": "Greventeich" }, "geometry": null },
{ "type": "Feature", "properties": { "strassenschluessel": "057620000024U9666", "bezeichnung": "Habichtsberg" }, "geometry": null },
{ "type": "Feature", "properties": { "strassenschluessel": "057620000024U9667", "bezeichnung": "Howe Kapelle" }, "geometry": { "type": "Point", "coordinates": [ 9.20640232829647, 51.833559948319468 ] } },
{ "type": "Feature", "properties": { "strassenschluessel": "057620000024U9668", "bezeichnung": "Ilsenberg" }, "geometry": null },
{ "type": "Feature", "properties": { "strassenschluessel": "057620000024U9669", "bezeichnung": "Im Abtswinkel" }, "geometry": { "type": "Point", "coordinates": [ 9.210141869994754, 51.831608559979514 ] } },
{ "type": "Feature", "properties": { "strassenschluessel": "057620000024U9670", "bezeichnung": "Im Bruche" }, "geometry": null },
{ "type": "Feature", "properties": { "strassenschluessel": "057620000024U9671", "bezeichnung": "Imborn" }, "geometry": null },
{ "type": "Feature", "properties": { "strassenschluessel": "057620000024U9672", "bezeichnung": "Jungfernbusch" }, "geometry": null },
{ "type": "Feature", "properties": { "strassenschluessel": "057620000024U9673", "bezeichnung": "Kälberweide" }, "geometry": null },
{ "type": "Feature", "properties": { "strassenschluessel": "057620000024U9674", "bezeichnung": "Kleinenbredener Holz" }, "geometry": null },
{ "type": "Feature", "properties": { "strassenschluessel": "057620000024U9676", "bezeichnung": "Kükenwiese" }, "geometry": { "type": "Point", "coordinates": [ 9.210975088303798, 51.829531280431404 ] } },
{ "type": "Feature", "properties": { "strassenschluessel": "057620000024U9677", "bezeichnung": "Kuhkämpe" }, "geometry": { "type": "Point", "coordinates": [ 9.191640076280871, 51.834044188277971 ] } },
{ "type": "Feature", "properties": { "strassenschluessel": "057620000024U9679", "bezeichnung": "B 239" }, "geometry": null },
{ "type": "Feature", "properties": { "strassenschluessel": "057620000024U9680", "bezeichnung": "Meierbreite" }, "geometry": null },
{ "type": "Feature", "properties": { "strassenschluessel": "057620000024U9681", "bezeichnung": "Mört" }, "geometry": null },
{ "type": "Feature", "properties": { "strassenschluessel": "057620000024U9682", "bezeichnung": "Münster-Holz" }, "geometry": null },
{ "type": "Feature", "properties": { "strassenschluessel": "057620000024U9683", "bezeichnung": "Münsterbrocker Berg" }, "geometry": null },
{ "type": "Feature", "properties": { "strassenschluessel": "057620000024U9684", "bezeichnung": "Oldenburger Weg" }, "geometry": null },
{ "type": "Feature", "properties": { "strassenschluessel": "057620000024U9685", "bezeichnung": "Pferdekamp" }, "geometry": null },
{ "type": "Feature", "properties": { "strassenschluessel": "057620000024U9686", "bezeichnung": "Piehlenberg" }, "geometry": null },
{ "type": "Feature", "properties": { "strassenschluessel": "057620000024U9687", "bezeichnung": "Röhenbrink" }, "geometry": null },
{ "type": "Feature", "properties": { "strassenschluessel": "057620000024U9688", "bezeichnung": "Rote Berg" }, "geometry": { "type": "Point", "coordinates": [ 9.211809490703137, 51.830568933738284 ] } },
{ "type": "Feature", "properties": { "strassenschluessel": "057620000024U9689", "bezeichnung": "Schafstallsberg" }, "geometry": { "type": "Point", "coordinates": [ 9.227930677630816, 51.840031342409652 ] } },
{ "type": "Feature", "properties": { "strassenschluessel": "057620000024U9690", "bezeichnung": "Schmalhasberg" }, "geometry": null },
{ "type": "Feature", "properties": { "strassenschluessel": "057620000024U9691", "bezeichnung": "Schmiedeberg" }, "geometry": null },
{ "type": "Feature", "properties": { "strassenschluessel": "057620000024U9692", "bezeichnung": "Siemensgrund" }, "geometry": null },
{ "type": "Feature", "properties": { "strassenschluessel": "057620000024U9694", "bezeichnung": "L 825" }, "geometry": null },
{ "type": "Feature", "properties": { "strassenschluessel": "057620000024U9695", "bezeichnung": "Stuckenberg" }, "geometry": null },
{ "type": "Feature", "properties": { "strassenschluessel": "057620000024U9696", "bezeichnung": "Teichwiese" }, "geometry": null },
{ "type": "Feature", "properties": { "strassenschluessel": "057620000024U9697", "bezeichnung": "Tiehofswiese" }, "geometry": null },
{ "type": "Feature", "properties": { "strassenschluessel": "057620000024U9698", "bezeichnung": "Unter dem dicken Berg" }, "geometry": null },
{ "type": "Feature", "properties": { "strassenschluessel": "057620000024U9699", "bezeichnung": "Waldwiese" }, "geometry": null },
{ "type": "Feature", "properties": { "strassenschluessel": "057620000024U9700", "bezeichnung": "Wesemanns Berg" }, "geometry": null },
{ "type": "Feature", "properties": { "strassenschluessel": "057620000024U9727", "bezeichnung": "Amschen Eichen" }, "geometry": null },
{ "type": "Feature", "properties": { "strassenschluessel": "057620000024U9728", "bezeichnung": "Amtsfeld" }, "geometry": null },
{ "type": "Feature", "properties": { "strassenschluessel": "057620000024U9729", "bezeichnung": "Auf Brands Felde" }, "geometry": { "type": "Point", "coordinates": [ 9.295103250835759, 51.847518310784231 ] } },
{ "type": "Feature", "properties": { "strassenschluessel": "057620000024U9730", "bezeichnung": "Auf der Trift" }, "geometry": { "type": "Point", "coordinates": [ 9.295904040320563, 51.842295616363756 ] } },
{ "type": "Feature", "properties": { "strassenschluessel": "057620000024U9731", "bezeichnung": "Auf dem Wittel" }, "geometry": { "type": "Point", "coordinates": [ 9.280056711010356, 51.829630703554137 ] } },
{ "type": "Feature", "properties": { "strassenschluessel": "057620000024U9732", "bezeichnung": "L 946" }, "geometry": null },
{ "type": "Feature", "properties": { "strassenschluessel": "057620000024U9733", "bezeichnung": "Das hintere Feld" }, "geometry": null },
{ "type": "Feature", "properties": { "strassenschluessel": "057620000024U9734", "bezeichnung": "Dicke Busch" }, "geometry": null },
{ "type": "Feature", "properties": { "strassenschluessel": "057620000024U9735", "bezeichnung": "Drosselbruch" }, "geometry": { "type": "Point", "coordinates": [ 9.28879170643358, 51.849255351752404 ] } },
{ "type": "Feature", "properties": { "strassenschluessel": "057620000024U9736", "bezeichnung": "Eller Wiese" }, "geometry": { "type": "Point", "coordinates": [ 9.266118098471267, 51.836825062276759 ] } },
{ "type": "Feature", "properties": { "strassenschluessel": "057620000024U9737", "bezeichnung": "Groß Steffels Feld" }, "geometry": { "type": "Point", "coordinates": [ 9.277081899671279, 51.843650272775925 ] } },
{ "type": "Feature", "properties": { "strassenschluessel": "057620000024U9738", "bezeichnung": "Hainholz" }, "geometry": null },
{ "type": "Feature", "properties": { "strassenschluessel": "057620000024U9739", "bezeichnung": "Hinterm Hause" }, "geometry": { "type": "Point", "coordinates": [ 9.277459330456789, 51.84041753191876 ] } },
{ "type": "Feature", "properties": { "strassenschluessel": "057620000024U9740", "bezeichnung": "K 67" }, "geometry": null },
{ "type": "Feature", "properties": { "strassenschluessel": "057620000024U9742", "bezeichnung": "In den Mollenbäumen" }, "geometry": null },
{ "type": "Feature", "properties": { "strassenschluessel": "057620000024U9743", "bezeichnung": "Langenort" }, "geometry": null },
{ "type": "Feature", "properties": { "strassenschluessel": "057620000024U9744", "bezeichnung": "Löwendorfer Bruch" }, "geometry": null },
{ "type": "Feature", "properties": { "strassenschluessel": "057620000024U9745", "bezeichnung": "Mühlenfeld" }, "geometry": { "type": "Point", "coordinates": [ 9.280904495076639, 51.85006314938385 ] } },
{ "type": "Feature", "properties": { "strassenschluessel": "057620000024U9747", "bezeichnung": "Saumer" }, "geometry": null },
{ "type": "Feature", "properties": { "strassenschluessel": "057620000024U9748", "bezeichnung": "Saumer Feld" }, "geometry": { "type": "Point", "coordinates": [ 9.297001116072249, 51.845758735734371 ] } },
{ "type": "Feature", "properties": { "strassenschluessel": "057620000024U9750", "bezeichnung": "Tunneborn" }, "geometry": { "type": "Point", "coordinates": [ 9.278632701417603, 51.845142344655819 ] } },
{ "type": "Feature", "properties": { "strassenschluessel": "057620000024U9751", "bezeichnung": "Papenhöfen-Löwendorf" }, "geometry": null },
{ "type": "Feature", "properties": { "strassenschluessel": "057620000024U9752", "bezeichnung": "Radweg Löwendorf-Niese" }, "geometry": null },
{ "type": "Feature", "properties": { "strassenschluessel": "057620000024U9765", "bezeichnung": "Am Kirchweg" }, "geometry": null },
{ "type": "Feature", "properties": { "strassenschluessel": "057620000024U9766", "bezeichnung": "Am Brink" }, "geometry": null },
{ "type": "Feature", "properties": { "strassenschluessel": "057620000024U9767", "bezeichnung": "Bredemeiersberg" }, "geometry": null },
{ "type": "Feature", "properties": { "strassenschluessel": "057620000024U9768", "bezeichnung": "Eckernberg" }, "geometry": null },
{ "type": "Feature", "properties": { "strassenschluessel": "057620000024U9769", "bezeichnung": "Haferkamp" }, "geometry": null },
{ "type": "Feature", "properties": { "strassenschluessel": "057620000024U9770", "bezeichnung": "Im Himmelreich" }, "geometry": { "type": "Point", "coordinates": [ 9.251049937330231, 51.836950696953295 ] } },
{ "type": "Feature", "properties": { "strassenschluessel": "057620000024U9771", "bezeichnung": "Im Siek" }, "geometry": null },
{ "type": "Feature", "properties": { "strassenschluessel": "057620000024U9772", "bezeichnung": "In der Wegfohr" }, "geometry": null },
{ "type": "Feature", "properties": { "strassenschluessel": "057620000024U9774", "bezeichnung": "Schmalhas Berg" }, "geometry": { "type": "Point", "coordinates": [ 9.235332896855533, 51.837405229744711 ] } },
{ "type": "Feature", "properties": { "strassenschluessel": "057620000024U9775", "bezeichnung": "In der Lamfert" }, "geometry": null },
{ "type": "Feature", "properties": { "strassenschluessel": "057620000024U9777", "bezeichnung": "Mühlenberg" }, "geometry": null },
{ "type": "Feature", "properties": { "strassenschluessel": "057620000024U9782", "bezeichnung": "Kantsberg" }, "geometry": null },
{ "type": "Feature", "properties": { "strassenschluessel": "057620000024U9783", "bezeichnung": "Ostermanns Berg" }, "geometry": null },
{ "type": "Feature", "properties": { "strassenschluessel": "057620000024U9784", "bezeichnung": "Am Schnietsberge" }, "geometry": null },
{ "type": "Feature", "properties": { "strassenschluessel": "057620000024U9785", "bezeichnung": "Am Wittelswege" }, "geometry": null },
{ "type": "Feature", "properties": { "strassenschluessel": "057620000024U9786", "bezeichnung": "Auf dem Hofe" }, "geometry": { "type": "Point", "coordinates": [ 9.272163744694339, 51.826870226205081 ] } },
{ "type": "Feature", "properties": { "strassenschluessel": "057620000024U9787", "bezeichnung": "Auf dem Rott" }, "geometry": null },
{ "type": "Feature", "properties": { "strassenschluessel": "057620000024U9788", "bezeichnung": "Buschkamp" }, "geometry": { "type": "Point", "coordinates": [ 9.279188565244974, 51.822158511141232 ] } },
{ "type": "Feature", "properties": { "strassenschluessel": "057620000024U9789", "bezeichnung": "Das Feld" }, "geometry": { "type": "Point", "coordinates": [ 9.271719037323521, 51.823966639883679 ] } },
{ "type": "Feature", "properties": { "strassenschluessel": "057620000024U9791", "bezeichnung": "Im Heff" }, "geometry": null },
{ "type": "Feature", "properties": { "strassenschluessel": "057620000024U9792", "bezeichnung": "Im Holze" }, "geometry": { "type": "Point", "coordinates": [ 9.274419706256785, 51.827226783313698 ] } },
{ "type": "Feature", "properties": { "strassenschluessel": "057620000024U9793", "bezeichnung": "Im Winkel" }, "geometry": null },
{ "type": "Feature", "properties": { "strassenschluessel": "057620000024U9794", "bezeichnung": "Krors Feld" }, "geometry": null },
{ "type": "Feature", "properties": { "strassenschluessel": "057620000024U9795", "bezeichnung": "Kuksberg" }, "geometry": { "type": "Point", "coordinates": [ 9.276797489344723, 51.8253951787216 ] } },
{ "type": "Feature", "properties": { "strassenschluessel": "057620000024U9796", "bezeichnung": "Kukukskamp" }, "geometry": null },
{ "type": "Feature", "properties": { "strassenschluessel": "057620000024U9798", "bezeichnung": "Mühlenfeld" }, "geometry": null },
{ "type": "Feature", "properties": { "strassenschluessel": "057620000024U9799", "bezeichnung": "Telms Berg" }, "geometry": null },
{ "type": "Feature", "properties": { "strassenschluessel": "057620000024U9800", "bezeichnung": "K 59" }, "geometry": null },
{ "type": "Feature", "properties": { "strassenschluessel": "057620000024U9809", "bezeichnung": "Am Wender Wege" }, "geometry": null },
{ "type": "Feature", "properties": { "strassenschluessel": "057620000024U9810", "bezeichnung": "An den Kämpen" }, "geometry": { "type": "Point", "coordinates": [ 9.254865124755831, 51.830591812605782 ] } },
{ "type": "Feature", "properties": { "strassenschluessel": "057620000024U9811", "bezeichnung": "Auf dem Steinbrink" }, "geometry": null },
{ "type": "Feature", "properties": { "strassenschluessel": "057620000024U9813", "bezeichnung": "Das obere Feld" }, "geometry": null },
{ "type": "Feature", "properties": { "strassenschluessel": "057620000024U9816", "bezeichnung": "Herrenholz" }, "geometry": null },
{ "type": "Feature", "properties": { "strassenschluessel": "057620000024U9817", "bezeichnung": "Im alten Teiche" }, "geometry": { "type": "Point", "coordinates": [ 9.255426487064556, 51.836876762936797 ] } },
{ "type": "Feature", "properties": { "strassenschluessel": "057620000024U9818", "bezeichnung": "Im Eichhagen" }, "geometry": { "type": "Point", "coordinates": [ 9.249142360235469, 51.831309085303673 ] } },
{ "type": "Feature", "properties": { "strassenschluessel": "057620000024U9819", "bezeichnung": "Im Heck" }, "geometry": null },
{ "type": "Feature", "properties": { "strassenschluessel": "057620000024U9820", "bezeichnung": "In den Wiesen" }, "geometry": { "type": "Point", "coordinates": [ 9.251392115008123, 51.831828829392322 ] } },
{ "type": "Feature", "properties": { "strassenschluessel": "057620000024U9821", "bezeichnung": "K 64" }, "geometry": { "type": "Point", "coordinates": [ 9.246033100901418, 51.835462953532307 ] } },
{ "type": "Feature", "properties": { "strassenschluessel": "057620000024U9825", "bezeichnung": "Vorm Hungerberge" }, "geometry": null },
{ "type": "Feature", "properties": { "strassenschluessel": "057620000024U9853", "bezeichnung": "Acker" }, "geometry": null },
{ "type": "Feature", "properties": { "strassenschluessel": "057620000024U9855", "bezeichnung": "Auf dem Halse" }, "geometry": null },
{ "type": "Feature", "properties": { "strassenschluessel": "057620000024U9856", "bezeichnung": "Buschfeld" }, "geometry": null },
{ "type": "Feature", "properties": { "strassenschluessel": "057620000024U9859", "bezeichnung": "Eichhagen" }, "geometry": null },
{ "type": "Feature", "properties": { "strassenschluessel": "057620000024U9860", "bezeichnung": "Hinter den Höfen" }, "geometry": null },
{ "type": "Feature", "properties": { "strassenschluessel": "057620000024U9862", "bezeichnung": "Im Grunde" }, "geometry": null },
{ "type": "Feature", "properties": { "strassenschluessel": "057620000024U9863", "bezeichnung": "Im Loche" }, "geometry": null },
{ "type": "Feature", "properties": { "strassenschluessel": "057620000024U9864", "bezeichnung": "Im Rott" }, "geometry": null },
{ "type": "Feature", "properties": { "strassenschluessel": "057620000024U9865", "bezeichnung": "Im Schlage" }, "geometry": { "type": "Point", "coordinates": [ 9.252742821541569, 51.81581958612508 ] } },
{ "type": "Feature", "properties": { "strassenschluessel": "057620000024U9869", "bezeichnung": "Kolk" }, "geometry": null },
{ "type": "Feature", "properties": { "strassenschluessel": "057620000024U9870", "bezeichnung": "Lange Drift" }, "geometry": null },
{ "type": "Feature", "properties": { "strassenschluessel": "057620000024U9872", "bezeichnung": "Schlagfeld" }, "geometry": { "type": "Point", "coordinates": [ 9.253379432610515, 51.813397768045505 ] } },
{ "type": "Feature", "properties": { "strassenschluessel": "057620000024U9873", "bezeichnung": "Steinkuhle" }, "geometry": null },
{ "type": "Feature", "properties": { "strassenschluessel": "057620000024U9904", "bezeichnung": "Am großen Wege" }, "geometry": null },
{ "type": "Feature", "properties": { "strassenschluessel": "057620000024U9905", "bezeichnung": "Am Wellensiek" }, "geometry": { "type": "Point", "coordinates": [ 9.276380601085757, 51.808633034798454 ] } },
{ "type": "Feature", "properties": { "strassenschluessel": "057620000024U9906", "bezeichnung": "An der Düsteren Trift" }, "geometry": { "type": "Point", "coordinates": [ 9.277317217401816, 51.814302686703861 ] } },
{ "type": "Feature", "properties": { "strassenschluessel": "057620000024U9907", "bezeichnung": "Auf dem Busch" }, "geometry": { "type": "Point", "coordinates": [ 9.277493392286097, 51.810434873490472 ] } },
{ "type": "Feature", "properties": { "strassenschluessel": "057620000024U9908", "bezeichnung": "Auf dem Felde" }, "geometry": { "type": "Point", "coordinates": [ 9.28180952777908, 51.806830103913711 ] } },
{ "type": "Feature", "properties": { "strassenschluessel": "057620000024U9909", "bezeichnung": "Auf den Äckern" }, "geometry": null },
{ "type": "Feature", "properties": { "strassenschluessel": "057620000024U9911", "bezeichnung": "Eichholzberg" }, "geometry": { "type": "Point", "coordinates": [ 9.272891917671268, 51.803549788485327 ] } },
{ "type": "Feature", "properties": { "strassenschluessel": "057620000024U9912", "bezeichnung": "K 62" }, "geometry": null },
{ "type": "Feature", "properties": { "strassenschluessel": "057620000024U9913", "bezeichnung": "Dickede" }, "geometry": null },
{ "type": "Feature", "properties": { "strassenschluessel": "057620000024U9914", "bezeichnung": "Grube" }, "geometry": null },
{ "type": "Feature", "properties": { "strassenschluessel": "057620000024U9915", "bezeichnung": "Hainholz" }, "geometry": { "type": "Point", "coordinates": [ 9.282167008088239, 51.807802597762418 ] } },
{ "type": "Feature", "properties": { "strassenschluessel": "057620000024U9916", "bezeichnung": "Hinterm Berge" }, "geometry": { "type": "Point", "coordinates": [ 9.269027789757605, 51.81760886851351 ] } },
{ "type": "Feature", "properties": { "strassenschluessel": "057620000024U9918", "bezeichnung": "Im Heff" }, "geometry": { "type": "Point", "coordinates": [ 9.278696436570383, 51.813950313440891 ] } },
{ "type": "Feature", "properties": { "strassenschluessel": "057620000024U9919", "bezeichnung": "Im niederen Orte" }, "geometry": null },
{ "type": "Feature", "properties": { "strassenschluessel": "057620000024U9920", "bezeichnung": "Im Wittle" }, "geometry": null },
{ "type": "Feature", "properties": { "strassenschluessel": "057620000024U9925", "bezeichnung": "Konductorkamp" }, "geometry": { "type": "Point", "coordinates": [ 9.273601520944791, 51.810927336091147 ] } },
{ "type": "Feature", "properties": { "strassenschluessel": "057620000024U9926", "bezeichnung": "Mühlenholz" }, "geometry": null },
{ "type": "Feature", "properties": { "strassenschluessel": "057620000024U9927", "bezeichnung": "Niedere Feld" }, "geometry": { "type": "Point", "coordinates": [ 9.263474626480573, 51.806767521146895 ] } },
{ "type": "Feature", "properties": { "strassenschluessel": "057620000024U9929", "bezeichnung": "Tubbeken" }, "geometry": { "type": "Point", "coordinates": [ 9.265753052281319, 51.811605004918924 ] } },
{ "type": "Feature", "properties": { "strassenschluessel": "057620000024U9930", "bezeichnung": "Wester Berg" }, "geometry": { "type": "Point", "coordinates": [ 9.276533732718594, 51.815993073527267 ] } },
{ "type": "Feature", "properties": { "strassenschluessel": "057620000024U9931", "bezeichnung": "Unterm Berge" }, "geometry": { "type": "Point", "coordinates": [ 9.270623439212217, 51.811475681176049 ] } },
{ "type": "Feature", "properties": { "strassenschluessel": "057620000024U9966", "bezeichnung": "Am Brink" }, "geometry": null },
{ "type": "Feature", "properties": { "strassenschluessel": "057620000024U9967", "bezeichnung": "Am Kirchwege" }, "geometry": null },
{ "type": "Feature", "properties": { "strassenschluessel": "057620000024U9968", "bezeichnung": "Am runden Berge" }, "geometry": null },
{ "type": "Feature", "properties": { "strassenschluessel": "057620000024U9969", "bezeichnung": "Am Triftwege" }, "geometry": null },
{ "type": "Feature", "properties": { "strassenschluessel": "057620000024U9970", "bezeichnung": "An der Niese" }, "geometry": { "type": "Point", "coordinates": [ 9.201513698014319, 51.856255989796374 ] } },
{ "type": "Feature", "properties": { "strassenschluessel": "057620000024U9971", "bezeichnung": "An der Trift" }, "geometry": null },
{ "type": "Feature", "properties": { "strassenschluessel": "057620000024U9972", "bezeichnung": "Bei Krehemeiers Sieke" }, "geometry": null },
{ "type": "Feature", "properties": { "strassenschluessel": "057620000024U9973", "bezeichnung": "Bergkamp" }, "geometry": { "type": "Point", "coordinates": [ 9.210856245400187, 51.842956470608989 ] } },
{ "type": "Feature", "properties": { "strassenschluessel": "057620000024U9974", "bezeichnung": "Der Anger" }, "geometry": null },
{ "type": "Feature", "properties": { "strassenschluessel": "057620000024U9975", "bezeichnung": "Der Kamp" }, "geometry": null },
{ "type": "Feature", "properties": { "strassenschluessel": "057620000024U9976", "bezeichnung": "Der Kragenspuhl" }, "geometry": null },
{ "type": "Feature", "properties": { "strassenschluessel": "057620000024U9977", "bezeichnung": "Gänsemagen" }, "geometry": null },
{ "type": "Feature", "properties": { "strassenschluessel": "057620000024U9979", "bezeichnung": "Greventeich" }, "geometry": null },
{ "type": "Feature", "properties": { "strassenschluessel": "057620000024U9980", "bezeichnung": "Große Ort" }, "geometry": null },
{ "type": "Feature", "properties": { "strassenschluessel": "057620000024U9981", "bezeichnung": "Große Ort" }, "geometry": null },
{ "type": "Feature", "properties": { "strassenschluessel": "057620000024U9982", "bezeichnung": "Hermskeberg" }, "geometry": null },
{ "type": "Feature", "properties": { "strassenschluessel": "057620000024U9983", "bezeichnung": "Kirchweg" }, "geometry": null },
{ "type": "Feature", "properties": { "strassenschluessel": "057620000024U9984", "bezeichnung": "Klopfspuhl" }, "geometry": null },
{ "type": "Feature", "properties": { "strassenschluessel": "057620000024U9985", "bezeichnung": "Lakeweg" }, "geometry": null },
{ "type": "Feature", "properties": { "strassenschluessel": "057620000024U9986", "bezeichnung": "Lange Land" }, "geometry": null },
{ "type": "Feature", "properties": { "strassenschluessel": "057620000024U9987", "bezeichnung": "Langelandweg" }, "geometry": null },
{ "type": "Feature", "properties": { "strassenschluessel": "057620000024U9988", "bezeichnung": "Lümenskamp" }, "geometry": null },
{ "type": "Feature", "properties": { "strassenschluessel": "057620000024U9989", "bezeichnung": "Mühlenweg" }, "geometry": null },
{ "type": "Feature", "properties": { "strassenschluessel": "057620000024U9991", "bezeichnung": "Oben der Lake" }, "geometry": null },
{ "type": "Feature", "properties": { "strassenschluessel": "057620000024U9992", "bezeichnung": "Rühenbrink" }, "geometry": null },
{ "type": "Feature", "properties": { "strassenschluessel": "057620000024U9993", "bezeichnung": "Runder Berg" }, "geometry": null },
{ "type": "Feature", "properties": { "strassenschluessel": "057620000024U9994", "bezeichnung": "Schlagemühlenwiesen" }, "geometry": null },
{ "type": "Feature", "properties": { "strassenschluessel": "057620000024U9995", "bezeichnung": "L 886" }, "geometry": null },
{ "type": "Feature", "properties": { "strassenschluessel": "057620000024U9996", "bezeichnung": "Triftweg" }, "geometry": null },
{ "type": "Feature", "properties": { "strassenschluessel": "057620000024U9997", "bezeichnung": "Unterm Ilsenberge" }, "geometry": null },
{ "type": "Feature", "properties": { "strassenschluessel": "057620000024U9998", "bezeichnung": "Vor dem Dorfe" }, "geometry": null },
{ "type": "Feature", "properties": { "strassenschluessel": "057620000024U9999", "bezeichnung": "Wisselskamp" }, "geometry": null }
]
}
