{
"type": "FeatureCollection",
"features": [
{ "type": "Feature", "properties": { "strassenschluessel": "05366000002808500", "bezeichnung": "Am Holzgraben" }, "geometry": { "type": "Point", "coordinates": [ 6.742219405186397, 50.606399324601604 ] } },
{ "type": "Feature", "properties": { "strassenschluessel": "05366000002808501", "bezeichnung": "Am Schwichling" }, "geometry": { "type": "Point", "coordinates": [ 6.749882579634465, 50.609345290087184 ] } },
{ "type": "Feature", "properties": { "strassenschluessel": "05366000002808502", "bezeichnung": "Auf dem Bongert" }, "geometry": { "type": "Point", "coordinates": [ 6.748152871128518, 50.606854074452421 ] } },
{ "type": "Feature", "properties": { "strassenschluessel": "05366000002808503", "bezeichnung": "Auf der Schwarte" }, "geometry": { "type": "Point", "coordinates": [ 6.74439465307561, 50.610379758308987 ] } },
{ "type": "Feature", "properties": { "strassenschluessel": "05366000002808504", "bezeichnung": "Baptiststraße" }, "geometry": { "type": "Point", "coordinates": [ 6.745942308283526, 50.605824783807961 ] } },
{ "type": "Feature", "properties": { "strassenschluessel": "05366000002808505", "bezeichnung": "Billiger Straße" }, "geometry": { "type": "Point", "coordinates": [ 6.745653508653383, 50.61077568748744 ] } },
{ "type": "Feature", "properties": { "strassenschluessel": "05366000002808506", "bezeichnung": "Birkenhof" }, "geometry": { "type": "Point", "coordinates": [ 6.748662154741018, 50.601356866674934 ] } },
{ "type": "Feature", "properties": { "strassenschluessel": "05366000002808507", "bezeichnung": "Breitenfeldstraße" }, "geometry": { "type": "Point", "coordinates": [ 6.742501330232805, 50.608773760893008 ] } },
{ "type": "Feature", "properties": { "strassenschluessel": "05366000002808508", "bezeichnung": "Buschgasse" }, "geometry": null },
{ "type": "Feature", "properties": { "strassenschluessel": "05366000002808509", "bezeichnung": "Diethkirchenweg" }, "geometry": { "type": "Point", "coordinates": [ 6.73955329425355, 50.604501872232454 ] } },
{ "type": "Feature", "properties": { "strassenschluessel": "05366000002808510", "bezeichnung": "Fabrikstraße" }, "geometry": { "type": "Point", "coordinates": [ 6.744922781516392, 50.605120286634801 ] } },
{ "type": "Feature", "properties": { "strassenschluessel": "05366000002808511", "bezeichnung": "Graf-Schall-Straße" }, "geometry": { "type": "Point", "coordinates": [ 6.746421156570736, 50.607090784779025 ] } },
{ "type": "Feature", "properties": { "strassenschluessel": "05366000002808512", "bezeichnung": "Gut von Mallinckrodt" }, "geometry": { "type": "Point", "coordinates": [ 6.749590130186556, 50.599696321381494 ] } },
{ "type": "Feature", "properties": { "strassenschluessel": "05366000002808513", "bezeichnung": "Hainbuchenweg" }, "geometry": { "type": "Point", "coordinates": [ 6.744474199581286, 50.607311553670627 ] } },
{ "type": "Feature", "properties": { "strassenschluessel": "05366000002808514", "bezeichnung": "Haus Riebel" }, "geometry": { "type": "Point", "coordinates": [ 6.747511851888796, 50.615527204024175 ] } },
{ "type": "Feature", "properties": { "strassenschluessel": "05366000002808515", "bezeichnung": "Holunderweg" }, "geometry": { "type": "Point", "coordinates": [ 6.743337287005732, 50.608027207045595 ] } },
{ "type": "Feature", "properties": { "strassenschluessel": "05366000002808516", "bezeichnung": "Johannesplatz" }, "geometry": null },
{ "type": "Feature", "properties": { "strassenschluessel": "05366000002808517", "bezeichnung": "Kleiner Gähn" }, "geometry": { "type": "Point", "coordinates": [ 6.737970763549924, 50.605132441107465 ] } },
{ "type": "Feature", "properties": { "strassenschluessel": "05366000002808518", "bezeichnung": "Koloniestraße" }, "geometry": { "type": "Point", "coordinates": [ 6.748750422855728, 50.608658825802443 ] } },
{ "type": "Feature", "properties": { "strassenschluessel": "05366000002808519", "bezeichnung": "Kreuzweingartener Straße" }, "geometry": { "type": "Point", "coordinates": [ 6.749108722849053, 50.606279973313804 ] } },
{ "type": "Feature", "properties": { "strassenschluessel": "05366000002808520", "bezeichnung": "Oberburg" }, "geometry": { "type": "Point", "coordinates": [ 6.742537940763195, 50.605518988008356 ] } },
{ "type": "Feature", "properties": { "strassenschluessel": "05366000002808521", "bezeichnung": "Pappelstraße" }, "geometry": { "type": "Point", "coordinates": [ 6.741000677100848, 50.603907687235555 ] } },
{ "type": "Feature", "properties": { "strassenschluessel": "05366000002808522", "bezeichnung": "Schlehenweg" }, "geometry": { "type": "Point", "coordinates": [ 6.743816672578563, 50.608777288929005 ] } },
{ "type": "Feature", "properties": { "strassenschluessel": "05366000002808523", "bezeichnung": "Stiftsstraße" }, "geometry": { "type": "Point", "coordinates": [ 6.745971577961185, 50.606559622069753 ] } },
{ "type": "Feature", "properties": { "strassenschluessel": "05366000002808524", "bezeichnung": "Unterburg" }, "geometry": null },
{ "type": "Feature", "properties": { "strassenschluessel": "05366000002808525", "bezeichnung": "Weißdornweg" }, "geometry": { "type": "Point", "coordinates": [ 6.744888943879474, 50.607805709954562 ] } },
{ "type": "Feature", "properties": { "strassenschluessel": "05366000002808526", "bezeichnung": "Zinnenweg" }, "geometry": { "type": "Point", "coordinates": [ 6.741448001822867, 50.605008058964621 ] } },
{ "type": "Feature", "properties": { "strassenschluessel": "05366000002808527", "bezeichnung": "Zur Linde" }, "geometry": { "type": "Point", "coordinates": [ 6.750735841386859, 50.601131002866978 ] } },
{ "type": "Feature", "properties": { "strassenschluessel": "05366000002808528", "bezeichnung": "Im Kirchfeld" }, "geometry": { "type": "Point", "coordinates": [ 6.74764768046403, 50.605218663600994 ] } },
{ "type": "Feature", "properties": { "strassenschluessel": "05366000002808529", "bezeichnung": "Am Alten Sportplatz" }, "geometry": { "type": "Point", "coordinates": [ 6.738562533202213, 50.604907155896186 ] } },
{ "type": "Feature", "properties": { "strassenschluessel": "05366000002808560", "bezeichnung": "Achemer Mühle" }, "geometry": { "type": "Point", "coordinates": [ 6.6109456873479, 50.645697428427312 ] } },
{ "type": "Feature", "properties": { "strassenschluessel": "05366000002808561", "bezeichnung": "Gemünder Straße" }, "geometry": { "type": "Point", "coordinates": [ 6.587659916841141, 50.631529917114499 ] } },
{ "type": "Feature", "properties": { "strassenschluessel": "05366000002808562", "bezeichnung": "Im Wiesengrund" }, "geometry": { "type": "Point", "coordinates": [ 6.585820289816373, 50.628641658970679 ] } },
{ "type": "Feature", "properties": { "strassenschluessel": "05366000002808563", "bezeichnung": "St.-Willibrord-Straße" }, "geometry": { "type": "Point", "coordinates": [ 6.591519270426411, 50.633619302928594 ] } },
{ "type": "Feature", "properties": { "strassenschluessel": "05366000002808570", "bezeichnung": "Am Beibert" }, "geometry": { "type": "Point", "coordinates": [ 6.56457657718112, 50.596728445869971 ] } },
{ "type": "Feature", "properties": { "strassenschluessel": "05366000002808571", "bezeichnung": "Barbarastraße" }, "geometry": { "type": "Point", "coordinates": [ 6.565743839911938, 50.596951918485153 ] } },
{ "type": "Feature", "properties": { "strassenschluessel": "05366000002808572", "bezeichnung": "Glehner Straße" }, "geometry": { "type": "Point", "coordinates": [ 6.572038848306362, 50.597255693141918 ] } },
{ "type": "Feature", "properties": { "strassenschluessel": "05366000002808573", "bezeichnung": "Im Kamertal" }, "geometry": { "type": "Point", "coordinates": [ 6.564812065874253, 50.596933170806921 ] } },
{ "type": "Feature", "properties": { "strassenschluessel": "05366000002808574", "bezeichnung": "Zum Boul" }, "geometry": { "type": "Point", "coordinates": [ 6.568630313686116, 50.598506655945251 ] } },
{ "type": "Feature", "properties": { "strassenschluessel": "05366000002808580", "bezeichnung": "Bergwerkstraße" }, "geometry": { "type": "Point", "coordinates": [ 6.648743676643293, 50.570819754939613 ] } },
{ "type": "Feature", "properties": { "strassenschluessel": "05366000002808581", "bezeichnung": "Breitenbendener Straße" }, "geometry": { "type": "Point", "coordinates": [ 6.651468175907219, 50.568917360699565 ] } },
{ "type": "Feature", "properties": { "strassenschluessel": "05366000002808582", "bezeichnung": "Eifelstraße" }, "geometry": { "type": "Point", "coordinates": [ 6.64989700072724, 50.570763756417826 ] } },
{ "type": "Feature", "properties": { "strassenschluessel": "05366000002808583", "bezeichnung": "Im Heidenpesch" }, "geometry": { "type": "Point", "coordinates": [ 6.648128928929264, 50.57017649860947 ] } },
{ "type": "Feature", "properties": { "strassenschluessel": "05366000002808584", "bezeichnung": "In den Benden" }, "geometry": { "type": "Point", "coordinates": [ 6.647396505129029, 50.568079217628252 ] } },
{ "type": "Feature", "properties": { "strassenschluessel": "05366000002808585", "bezeichnung": "In der Wolfskaul" }, "geometry": { "type": "Point", "coordinates": [ 6.650687172435335, 50.572766788339266 ] } },
{ "type": "Feature", "properties": { "strassenschluessel": "05366000002808586", "bezeichnung": "Lorbacher Weg" }, "geometry": { "type": "Point", "coordinates": [ 6.64718350912941, 50.567285822884436 ] } },
{ "type": "Feature", "properties": { "strassenschluessel": "05366000002808587", "bezeichnung": "Rosenstieg" }, "geometry": { "type": "Point", "coordinates": [ 6.650193703161118, 50.568834426667316 ] } },
{ "type": "Feature", "properties": { "strassenschluessel": "05366000002808588", "bezeichnung": "Siedlung Josefshof" }, "geometry": { "type": "Point", "coordinates": [ 6.641909398702285, 50.567641886610183 ] } },
{ "type": "Feature", "properties": { "strassenschluessel": "05366000002808589", "bezeichnung": "Siedlung Luisenhof" }, "geometry": { "type": "Point", "coordinates": [ 6.656440249854762, 50.571420296590496 ] } },
{ "type": "Feature", "properties": { "strassenschluessel": "05366000002808590", "bezeichnung": "Tiefenbachstraße" }, "geometry": { "type": "Point", "coordinates": [ 6.650290515937688, 50.571049453990554 ] } },
{ "type": "Feature", "properties": { "strassenschluessel": "05366000002808591", "bezeichnung": "Weidenweg" }, "geometry": { "type": "Point", "coordinates": [ 6.650780144203609, 50.569334635054496 ] } },
{ "type": "Feature", "properties": { "strassenschluessel": "05366000002808592", "bezeichnung": "Am Baltesbendener Weiher" }, "geometry": null },
{ "type": "Feature", "properties": { "strassenschluessel": "05366000002808605", "bezeichnung": "Maarstraße" }, "geometry": { "type": "Point", "coordinates": [ 6.570524808657309, 50.58096907718172 ] } },
{ "type": "Feature", "properties": { "strassenschluessel": "05366000002808610", "bezeichnung": "Alte Straße" }, "geometry": { "type": "Point", "coordinates": [ 6.571538595056939, 50.590945602380131 ] } },
{ "type": "Feature", "properties": { "strassenschluessel": "05366000002808611", "bezeichnung": "Am Mönch" }, "geometry": { "type": "Point", "coordinates": [ 6.571015581811024, 50.59281725447147 ] } },
{ "type": "Feature", "properties": { "strassenschluessel": "05366000002808612", "bezeichnung": "Am Schliebach" }, "geometry": { "type": "Point", "coordinates": [ 6.573885864782762, 50.589572263446257 ] } },
{ "type": "Feature", "properties": { "strassenschluessel": "05366000002808614", "bezeichnung": "Pündersmühle" }, "geometry": { "type": "Point", "coordinates": [ 6.579934442271828, 50.592689649938549 ] } },
{ "type": "Feature", "properties": { "strassenschluessel": "05366000002808615", "bezeichnung": "Rotbachstraße" }, "geometry": { "type": "Point", "coordinates": [ 6.57106916591208, 50.5888967295352 ] } },
{ "type": "Feature", "properties": { "strassenschluessel": "05366000002808616", "bezeichnung": "St.-Agnes-Straße" }, "geometry": { "type": "Point", "coordinates": [ 6.571869954995598, 50.590375063258698 ] } },
{ "type": "Feature", "properties": { "strassenschluessel": "05366000002808617", "bezeichnung": "Schleidweg" }, "geometry": { "type": "Point", "coordinates": [ 6.567166625607226, 50.586958430843794 ] } },
{ "type": "Feature", "properties": { "strassenschluessel": "05366000002808618", "bezeichnung": "Siedlung Geller" }, "geometry": { "type": "Point", "coordinates": [ 6.576711467657467, 50.594583200396208 ] } },
{ "type": "Feature", "properties": { "strassenschluessel": "05366000002808619", "bezeichnung": "Siedlung Lang" }, "geometry": { "type": "Point", "coordinates": [ 6.568505921763589, 50.592665044564711 ] } },
{ "type": "Feature", "properties": { "strassenschluessel": "05366000002808620", "bezeichnung": "Um die Weiher" }, "geometry": { "type": "Point", "coordinates": [ 6.571859956991698, 50.588290342517816 ] } },
{ "type": "Feature", "properties": { "strassenschluessel": "05366000002808621", "bezeichnung": "Am Schwabengarten" }, "geometry": { "type": "Point", "coordinates": [ 6.570318008742947, 50.592049060158388 ] } },
{ "type": "Feature", "properties": { "strassenschluessel": "05366000002808622", "bezeichnung": "Pfaffenbrochweg" }, "geometry": { "type": "Point", "coordinates": [ 6.569858270603042, 50.590379349380747 ] } },
{ "type": "Feature", "properties": { "strassenschluessel": "05366000002808623", "bezeichnung": "Zur Blenser Mühle" }, "geometry": { "type": "Point", "coordinates": [ 6.573405771516232, 50.590268503239422 ] } },
{ "type": "Feature", "properties": { "strassenschluessel": "05366000002808635", "bezeichnung": "Am Steinling" }, "geometry": { "type": "Point", "coordinates": [ 6.67303150278584, 50.58076397185043 ] } },
{ "type": "Feature", "properties": { "strassenschluessel": "05366000002808636", "bezeichnung": "Feyermühler Straße" }, "geometry": { "type": "Point", "coordinates": [ 6.675325225544002, 50.5819941204984 ] } },
{ "type": "Feature", "properties": { "strassenschluessel": "05366000002808637", "bezeichnung": "Im Ginsterfeld" }, "geometry": { "type": "Point", "coordinates": [ 6.669965391575729, 50.583495842779904 ] } },
{ "type": "Feature", "properties": { "strassenschluessel": "05366000002808638", "bezeichnung": "In der Höhle" }, "geometry": { "type": "Point", "coordinates": [ 6.676419178067512, 50.582381894482573 ] } },
{ "type": "Feature", "properties": { "strassenschluessel": "05366000002808639", "bezeichnung": "Karlsburger Straße" }, "geometry": { "type": "Point", "coordinates": [ 6.674245457261461, 50.578283220782119 ] } },
{ "type": "Feature", "properties": { "strassenschluessel": "05366000002808640", "bezeichnung": "Kopfweg" }, "geometry": { "type": "Point", "coordinates": [ 6.676168846216596, 50.579103366528919 ] } },
{ "type": "Feature", "properties": { "strassenschluessel": "05366000002808641", "bezeichnung": "Kreuz-Weiher-Straße" }, "geometry": { "type": "Point", "coordinates": [ 6.677330635517007, 50.58084938141473 ] } },
{ "type": "Feature", "properties": { "strassenschluessel": "05366000002808642", "bezeichnung": "Mechernicher Straße" }, "geometry": { "type": "Point", "coordinates": [ 6.675491348304232, 50.579850845468521 ] } },
{ "type": "Feature", "properties": { "strassenschluessel": "05366000002808643", "bezeichnung": "Münstereifeler Straße" }, "geometry": { "type": "Point", "coordinates": [ 6.676394632915532, 50.579471308187919 ] } },
{ "type": "Feature", "properties": { "strassenschluessel": "05366000002808644", "bezeichnung": "St.-Leonhard-Straße" }, "geometry": { "type": "Point", "coordinates": [ 6.673474044968798, 50.580778294109713 ] } },
{ "type": "Feature", "properties": { "strassenschluessel": "05366000002808645", "bezeichnung": "Siedlung Milde" }, "geometry": null },
{ "type": "Feature", "properties": { "strassenschluessel": "05366000002808646", "bezeichnung": "Tondorfer Straße" }, "geometry": { "type": "Point", "coordinates": [ 6.675298244335094, 50.57885585887275 ] } },
{ "type": "Feature", "properties": { "strassenschluessel": "05366000002808647", "bezeichnung": "Prof.-Robert-Ellscheid-Weg" }, "geometry": { "type": "Point", "coordinates": [ 6.676506032780749, 50.581999928347145 ] } },
{ "type": "Feature", "properties": { "strassenschluessel": "05366000002808648", "bezeichnung": "Auf der Buche" }, "geometry": null },
{ "type": "Feature", "properties": { "strassenschluessel": "05366000002808649", "bezeichnung": "Am Süßen Bäumchen" }, "geometry": { "type": "Point", "coordinates": [ 6.672855245038545, 50.579426579153569 ] } },
{ "type": "Feature", "properties": { "strassenschluessel": "05366000002808660", "bezeichnung": "Buchfinkenweg" }, "geometry": { "type": "Point", "coordinates": [ 6.606375399000926, 50.583306916055555 ] } },
{ "type": "Feature", "properties": { "strassenschluessel": "05366000002808661", "bezeichnung": "Strempter Straße" }, "geometry": { "type": "Point", "coordinates": [ 6.608621067043528, 50.58297373478279 ] } },
{ "type": "Feature", "properties": { "strassenschluessel": "05366000002808662", "bezeichnung": "Fasanenweg" }, "geometry": { "type": "Point", "coordinates": [ 6.607193525994865, 50.586061195676898 ] } },
{ "type": "Feature", "properties": { "strassenschluessel": "05366000002808663", "bezeichnung": "Meisenweg" }, "geometry": { "type": "Point", "coordinates": [ 6.607056610665698, 50.582926864056631 ] } },
{ "type": "Feature", "properties": { "strassenschluessel": "05366000002808664", "bezeichnung": "Schnepfenweg" }, "geometry": { "type": "Point", "coordinates": [ 6.610568567852974, 50.585457660298211 ] } },
{ "type": "Feature", "properties": { "strassenschluessel": "05366000002808665", "bezeichnung": "Schwalbenweg" }, "geometry": null },
{ "type": "Feature", "properties": { "strassenschluessel": "05366000002808666", "bezeichnung": "Taubenweg" }, "geometry": { "type": "Point", "coordinates": [ 6.607711589594889, 50.583926058863035 ] } },
{ "type": "Feature", "properties": { "strassenschluessel": "05366000002808667", "bezeichnung": "Wallenthaler Straße" }, "geometry": { "type": "Point", "coordinates": [ 6.611109804950345, 50.584453442032903 ] } },
{ "type": "Feature", "properties": { "strassenschluessel": "05366000002808680", "bezeichnung": "Im Schlund" }, "geometry": { "type": "Point", "coordinates": [ 6.661837092980296, 50.543804848141406 ] } },
{ "type": "Feature", "properties": { "strassenschluessel": "05366000002808681", "bezeichnung": "Kakusstraße" }, "geometry": { "type": "Point", "coordinates": [ 6.661787560192784, 50.544261356567311 ] } },
{ "type": "Feature", "properties": { "strassenschluessel": "05366000002808682", "bezeichnung": "Pescher Weg" }, "geometry": { "type": "Point", "coordinates": [ 6.661239219048535, 50.543840462464573 ] } },
{ "type": "Feature", "properties": { "strassenschluessel": "05366000002808683", "bezeichnung": "Siedlung Breuer" }, "geometry": { "type": "Point", "coordinates": [ 6.669278971780951, 50.544530477986598 ] } },
{ "type": "Feature", "properties": { "strassenschluessel": "05366000002808684", "bezeichnung": "Siedlung Heinen" }, "geometry": { "type": "Point", "coordinates": [ 6.671236003973326, 50.545442463047038 ] } },
{ "type": "Feature", "properties": { "strassenschluessel": "05366000002808690", "bezeichnung": "Burgstraße" }, "geometry": { "type": "Point", "coordinates": [ 6.61895191475164, 50.62386629537378 ] } },
{ "type": "Feature", "properties": { "strassenschluessel": "05366000002808691", "bezeichnung": "Eickser Mühle" }, "geometry": { "type": "Point", "coordinates": [ 6.625668579828655, 50.630058828643257 ] } },
{ "type": "Feature", "properties": { "strassenschluessel": "05366000002808692", "bezeichnung": "Frankenstraße" }, "geometry": { "type": "Point", "coordinates": [ 6.61757110284244, 50.624918395052994 ] } },
{ "type": "Feature", "properties": { "strassenschluessel": "05366000002808693", "bezeichnung": "Im Frohngarten" }, "geometry": { "type": "Point", "coordinates": [ 6.615339370394008, 50.624455807672973 ] } },
{ "type": "Feature", "properties": { "strassenschluessel": "05366000002808694", "bezeichnung": "Heimertsberg" }, "geometry": { "type": "Point", "coordinates": [ 6.618477699152625, 50.626784418981195 ] } },
{ "type": "Feature", "properties": { "strassenschluessel": "05366000002808695", "bezeichnung": "Am Auel" }, "geometry": { "type": "Point", "coordinates": [ 6.620191500821199, 50.626313616311705 ] } },
{ "type": "Feature", "properties": { "strassenschluessel": "05366000002808696", "bezeichnung": "In den Färbersgärten" }, "geometry": { "type": "Point", "coordinates": [ 6.619052029708118, 50.626139062987825 ] } },
{ "type": "Feature", "properties": { "strassenschluessel": "05366000002808697", "bezeichnung": "Martinstraße" }, "geometry": { "type": "Point", "coordinates": [ 6.616897795591023, 50.623143125770646 ] } },
{ "type": "Feature", "properties": { "strassenschluessel": "05366000002808698", "bezeichnung": "Maternusberg" }, "geometry": { "type": "Point", "coordinates": [ 6.61805390535038, 50.623779967547428 ] } },
{ "type": "Feature", "properties": { "strassenschluessel": "05366000002808699", "bezeichnung": "Dechant-Schrievers-Straße" }, "geometry": { "type": "Point", "coordinates": [ 6.616468899963207, 50.624048990479345 ] } },
{ "type": "Feature", "properties": { "strassenschluessel": "05366000002808700", "bezeichnung": "Sittard" }, "geometry": { "type": "Point", "coordinates": [ 6.607528215476639, 50.615923469629074 ] } },
{ "type": "Feature", "properties": { "strassenschluessel": "05366000002808701", "bezeichnung": "Steinstraße" }, "geometry": { "type": "Point", "coordinates": [ 6.616575448736687, 50.620677585287595 ] } },
{ "type": "Feature", "properties": { "strassenschluessel": "05366000002808702", "bezeichnung": "Waldkapellenstraße" }, "geometry": { "type": "Point", "coordinates": [ 6.61843558283489, 50.62176340526382 ] } },
{ "type": "Feature", "properties": { "strassenschluessel": "05366000002808703", "bezeichnung": "Eichenweg" }, "geometry": { "type": "Point", "coordinates": [ 6.618276424702803, 50.625652821709906 ] } },
{ "type": "Feature", "properties": { "strassenschluessel": "05366000002808720", "bezeichnung": "Alter Weg" }, "geometry": { "type": "Point", "coordinates": [ 6.658833133519358, 50.550499132938377 ] } },
{ "type": "Feature", "properties": { "strassenschluessel": "05366000002808721", "bezeichnung": "Am Fackelstein" }, "geometry": { "type": "Point", "coordinates": [ 6.659614942045371, 50.547156869006983 ] } },
{ "type": "Feature", "properties": { "strassenschluessel": "05366000002808722", "bezeichnung": "Am Feybach" }, "geometry": { "type": "Point", "coordinates": [ 6.655286183307918, 50.55562181556521 ] } },
{ "type": "Feature", "properties": { "strassenschluessel": "05366000002808723", "bezeichnung": "Am Römerkanal" }, "geometry": { "type": "Point", "coordinates": [ 6.656559803524688, 50.557546384100704 ] } },
{ "type": "Feature", "properties": { "strassenschluessel": "05366000002808724", "bezeichnung": "Am Weinberg" }, "geometry": { "type": "Point", "coordinates": [ 6.660540038499872, 50.551076774130777 ] } },
{ "type": "Feature", "properties": { "strassenschluessel": "05366000002808725", "bezeichnung": "Hauserbachstraße" }, "geometry": { "type": "Point", "coordinates": [ 6.65712092607982, 50.554798755904081 ] } },
{ "type": "Feature", "properties": { "strassenschluessel": "05366000002808726", "bezeichnung": "Im Wiesental" }, "geometry": { "type": "Point", "coordinates": [ 6.656834579086699, 50.555902129245808 ] } },
{ "type": "Feature", "properties": { "strassenschluessel": "05366000002808727", "bezeichnung": "Stollenstraße" }, "geometry": { "type": "Point", "coordinates": [ 6.660015001429696, 50.552841248260911 ] } },
{ "type": "Feature", "properties": { "strassenschluessel": "05366000002808728", "bezeichnung": "Vollemer Weg" }, "geometry": null },
{ "type": "Feature", "properties": { "strassenschluessel": "05366000002808729", "bezeichnung": "Zur Kakushöhle" }, "geometry": { "type": "Point", "coordinates": [ 6.660074888064772, 50.54759641120269 ] } },
{ "type": "Feature", "properties": { "strassenschluessel": "05366000002808730", "bezeichnung": "Hof am Ruedeberg" }, "geometry": null },
{ "type": "Feature", "properties": { "strassenschluessel": "05366000002808740", "bezeichnung": "Alemannenstraße" }, "geometry": { "type": "Point", "coordinates": [ 6.688805880795694, 50.627467598185156 ] } },
{ "type": "Feature", "properties": { "strassenschluessel": "05366000002808741", "bezeichnung": "Alte Dorfstraße" }, "geometry": { "type": "Point", "coordinates": [ 6.691373721726992, 50.630453568971546 ] } },
{ "type": "Feature", "properties": { "strassenschluessel": "05366000002808742", "bezeichnung": "Antoniusstraße" }, "geometry": { "type": "Point", "coordinates": [ 6.689813932905182, 50.628459661666092 ] } },
{ "type": "Feature", "properties": { "strassenschluessel": "05366000002808743", "bezeichnung": "Brühler Straße" }, "geometry": { "type": "Point", "coordinates": [ 6.690966365687058, 50.630740935375023 ] } },
{ "type": "Feature", "properties": { "strassenschluessel": "05366000002808744", "bezeichnung": "Jakob-Katzfey-Straße" }, "geometry": { "type": "Point", "coordinates": [ 6.690344406633991, 50.628224066874104 ] } },
{ "type": "Feature", "properties": { "strassenschluessel": "05366000002808745", "bezeichnung": "Keltenstraße" }, "geometry": { "type": "Point", "coordinates": [ 6.690886535817571, 50.628361666627661 ] } },
{ "type": "Feature", "properties": { "strassenschluessel": "05366000002808746", "bezeichnung": "Kleine Heide" }, "geometry": { "type": "Point", "coordinates": [ 6.683784592046468, 50.626794304799915 ] } },
{ "type": "Feature", "properties": { "strassenschluessel": "05366000002808747", "bezeichnung": "Kurfürstenstraße" }, "geometry": { "type": "Point", "coordinates": [ 6.686845083148113, 50.628586422976731 ] } },
{ "type": "Feature", "properties": { "strassenschluessel": "05366000002808748", "bezeichnung": "Lohmühle" }, "geometry": { "type": "Point", "coordinates": [ 6.678685308931977, 50.630167147634531 ] } },
{ "type": "Feature", "properties": { "strassenschluessel": "05366000002808749", "bezeichnung": "Pfarrer-Decker-Straße" }, "geometry": { "type": "Point", "coordinates": [ 6.694756336174559, 50.632417016448997 ] } },
{ "type": "Feature", "properties": { "strassenschluessel": "05366000002808750", "bezeichnung": "Satzveyer Straße" }, "geometry": { "type": "Point", "coordinates": [ 6.6900876089744, 50.629661987956879 ] } },
{ "type": "Feature", "properties": { "strassenschluessel": "05366000002808751", "bezeichnung": "Schavener Weg" }, "geometry": { "type": "Point", "coordinates": [ 6.685755102002181, 50.628735358152269 ] } },
{ "type": "Feature", "properties": { "strassenschluessel": "05366000002808752", "bezeichnung": "Teutonenstraße" }, "geometry": { "type": "Point", "coordinates": [ 6.690783863756142, 50.627461071497351 ] } },
{ "type": "Feature", "properties": { "strassenschluessel": "05366000002808753", "bezeichnung": "Ubierstraße" }, "geometry": { "type": "Point", "coordinates": [ 6.689573531108176, 50.629060807019137 ] } },
{ "type": "Feature", "properties": { "strassenschluessel": "05366000002808754", "bezeichnung": "Virnicher Straße" }, "geometry": { "type": "Point", "coordinates": [ 6.686820843453084, 50.63147799713677 ] } },
{ "type": "Feature", "properties": { "strassenschluessel": "05366000002808755", "bezeichnung": "Zur Wolfshöhle" }, "geometry": { "type": "Point", "coordinates": [ 6.685474551433251, 50.627816381937137 ] } },
{ "type": "Feature", "properties": { "strassenschluessel": "05366000002808756", "bezeichnung": "An der Zikkurat" }, "geometry": { "type": "Point", "coordinates": [ 6.683508833759271, 50.631405897531906 ] } },
{ "type": "Feature", "properties": { "strassenschluessel": "05366000002808757", "bezeichnung": "Lohbenden" }, "geometry": { "type": "Point", "coordinates": [ 6.69312292313897, 50.633349557471441 ] } },
{ "type": "Feature", "properties": { "strassenschluessel": "05366000002808758", "bezeichnung": "Bachaue" }, "geometry": { "type": "Point", "coordinates": [ 6.692209169564697, 50.633606353178301 ] } },
{ "type": "Feature", "properties": { "strassenschluessel": "05366000002808759", "bezeichnung": "Germanenstraße" }, "geometry": { "type": "Point", "coordinates": [ 6.686943467517448, 50.627870193036223 ] } },
{ "type": "Feature", "properties": { "strassenschluessel": "05366000002808770", "bezeichnung": "Am Tötschberg" }, "geometry": { "type": "Point", "coordinates": [ 6.610712084452982, 50.636951567385708 ] } },
{ "type": "Feature", "properties": { "strassenschluessel": "05366000002808771", "bezeichnung": "Brunnenstraße" }, "geometry": { "type": "Point", "coordinates": [ 6.611543607512407, 50.635603596043168 ] } },
{ "type": "Feature", "properties": { "strassenschluessel": "05366000002808772", "bezeichnung": "Schulstraße" }, "geometry": { "type": "Point", "coordinates": [ 6.612265423471331, 50.636772177715741 ] } },
{ "type": "Feature", "properties": { "strassenschluessel": "05366000002808773", "bezeichnung": "Vogteistraße" }, "geometry": { "type": "Point", "coordinates": [ 6.607935462132726, 50.634775003833411 ] } },
{ "type": "Feature", "properties": { "strassenschluessel": "05366000002808774", "bezeichnung": "Zehntstraße" }, "geometry": { "type": "Point", "coordinates": [ 6.610492675798316, 50.635783975724266 ] } },
{ "type": "Feature", "properties": { "strassenschluessel": "05366000002808775", "bezeichnung": "Zülpicher Straße" }, "geometry": { "type": "Point", "coordinates": [ 6.613661237204251, 50.635146376657119 ] } },
{ "type": "Feature", "properties": { "strassenschluessel": "05366000002808776", "bezeichnung": "Kirchgasse" }, "geometry": { "type": "Point", "coordinates": [ 6.61434356194771, 50.634600208994797 ] } },
{ "type": "Feature", "properties": { "strassenschluessel": "05366000002808777", "bezeichnung": "Hof am krummen Acker" }, "geometry": { "type": "Point", "coordinates": [ 6.60630428989917, 50.635471714819019 ] } },
{ "type": "Feature", "properties": { "strassenschluessel": "05366000002808785", "bezeichnung": "Brabanter Straße" }, "geometry": { "type": "Point", "coordinates": [ 6.657384094520937, 50.62808265435838 ] } },
{ "type": "Feature", "properties": { "strassenschluessel": "05366000002808786", "bezeichnung": "Chlodwigstraße" }, "geometry": { "type": "Point", "coordinates": [ 6.653993448559083, 50.626481199082626 ] } },
{ "type": "Feature", "properties": { "strassenschluessel": "05366000002808787", "bezeichnung": "Ehlenmaar" }, "geometry": { "type": "Point", "coordinates": [ 6.65478204946828, 50.62566103075433 ] } },
{ "type": "Feature", "properties": { "strassenschluessel": "05366000002808788", "bezeichnung": "Gertrudenhof" }, "geometry": { "type": "Point", "coordinates": [ 6.662651096121302, 50.631399854994896 ] } },
{ "type": "Feature", "properties": { "strassenschluessel": "05366000002808789", "bezeichnung": "Hinter den Gärten" }, "geometry": { "type": "Point", "coordinates": [ 6.656264871037635, 50.626085212555843 ] } },
{ "type": "Feature", "properties": { "strassenschluessel": "05366000002808790", "bezeichnung": "St.-Josef-Straße" }, "geometry": { "type": "Point", "coordinates": [ 6.65661163576477, 50.625792807474667 ] } },
{ "type": "Feature", "properties": { "strassenschluessel": "05366000002808791", "bezeichnung": "Weingartener Höfe" }, "geometry": null },
{ "type": "Feature", "properties": { "strassenschluessel": "05366000002808792", "bezeichnung": "Weingartener Straße" }, "geometry": { "type": "Point", "coordinates": [ 6.653516430691941, 50.626489910499394 ] } },
{ "type": "Feature", "properties": { "strassenschluessel": "05366000002808793", "bezeichnung": "Weyerhof" }, "geometry": { "type": "Point", "coordinates": [ 6.647871482549723, 50.628604550411815 ] } },
{ "type": "Feature", "properties": { "strassenschluessel": "05366000002808794", "bezeichnung": "Zur Alten Ziegelei" }, "geometry": { "type": "Point", "coordinates": [ 6.659124823684621, 50.628306038660654 ] } },
{ "type": "Feature", "properties": { "strassenschluessel": "05366000002808805", "bezeichnung": "Frohnhof" }, "geometry": { "type": "Point", "coordinates": [ 6.593600385179838, 50.604114876526381 ] } },
{ "type": "Feature", "properties": { "strassenschluessel": "05366000002808806", "bezeichnung": "Frohnhofstraße" }, "geometry": { "type": "Point", "coordinates": [ 6.594285731189555, 50.605445999381594 ] } },
{ "type": "Feature", "properties": { "strassenschluessel": "05366000002808807", "bezeichnung": "Gäßchen" }, "geometry": { "type": "Point", "coordinates": [ 6.5947725535427, 50.603059009694924 ] } },
{ "type": "Feature", "properties": { "strassenschluessel": "05366000002808808", "bezeichnung": "Grüner Weg" }, "geometry": { "type": "Point", "coordinates": [ 6.590612875120597, 50.605356923177865 ] } },
{ "type": "Feature", "properties": { "strassenschluessel": "05366000002808809", "bezeichnung": "Kermeterstraße" }, "geometry": { "type": "Point", "coordinates": [ 6.594164324979137, 50.601941972295847 ] } },
{ "type": "Feature", "properties": { "strassenschluessel": "05366000002808810", "bezeichnung": "Mühlenbergstraße" }, "geometry": { "type": "Point", "coordinates": [ 6.597304886525395, 50.603063703012111 ] } },
{ "type": "Feature", "properties": { "strassenschluessel": "05366000002808811", "bezeichnung": "Rote Erde" }, "geometry": { "type": "Point", "coordinates": [ 6.595591780864016, 50.604608528171738 ] } },
{ "type": "Feature", "properties": { "strassenschluessel": "05366000002808812", "bezeichnung": "Taubengarten" }, "geometry": { "type": "Point", "coordinates": [ 6.600414241181098, 50.602571776221097 ] } },
{ "type": "Feature", "properties": { "strassenschluessel": "05366000002808813", "bezeichnung": "Valderstraße" }, "geometry": { "type": "Point", "coordinates": [ 6.590610547709449, 50.604769569110708 ] } },
{ "type": "Feature", "properties": { "strassenschluessel": "05366000002808814", "bezeichnung": "Weberstraße" }, "geometry": { "type": "Point", "coordinates": [ 6.595445394037012, 50.601261860910213 ] } },
{ "type": "Feature", "properties": { "strassenschluessel": "05366000002808815", "bezeichnung": "Wiesenweg" }, "geometry": { "type": "Point", "coordinates": [ 6.596125632407392, 50.60271701206797 ] } },
{ "type": "Feature", "properties": { "strassenschluessel": "05366000002808816", "bezeichnung": "Wildstraße" }, "geometry": { "type": "Point", "coordinates": [ 6.590710860304461, 50.603069838135276 ] } },
{ "type": "Feature", "properties": { "strassenschluessel": "05366000002808817", "bezeichnung": "Zum Zehntgarten" }, "geometry": { "type": "Point", "coordinates": [ 6.591459654268632, 50.602751457450786 ] } },
{ "type": "Feature", "properties": { "strassenschluessel": "05366000002808818", "bezeichnung": "Siedlung Blum" }, "geometry": null },
{ "type": "Feature", "properties": { "strassenschluessel": "05366000002808819", "bezeichnung": "Siedlung Braun" }, "geometry": { "type": "Point", "coordinates": [ 6.597257871043748, 50.607976588043854 ] } },
{ "type": "Feature", "properties": { "strassenschluessel": "05366000002808820", "bezeichnung": "Siedlung Brüßelbach" }, "geometry": { "type": "Point", "coordinates": [ 6.593382765824188, 50.61030070184426 ] } },
{ "type": "Feature", "properties": { "strassenschluessel": "05366000002808821", "bezeichnung": "Siedlung Heid" }, "geometry": { "type": "Point", "coordinates": [ 6.588467139253214, 50.60954245347807 ] } },
{ "type": "Feature", "properties": { "strassenschluessel": "05366000002808822", "bezeichnung": "Siedlung Vitt" }, "geometry": { "type": "Point", "coordinates": [ 6.569578580412807, 50.611913831277683 ] } },
{ "type": "Feature", "properties": { "strassenschluessel": "05366000002808823", "bezeichnung": "Im Hopfengarten" }, "geometry": { "type": "Point", "coordinates": [ 6.59692725242552, 50.601605171716457 ] } },
{ "type": "Feature", "properties": { "strassenschluessel": "05366000002808824", "bezeichnung": "An der Sprünge" }, "geometry": { "type": "Point", "coordinates": [ 6.594503745819527, 50.601228729366731 ] } },
{ "type": "Feature", "properties": { "strassenschluessel": "05366000002808825", "bezeichnung": "Pastor-Böhm-Straße" }, "geometry": { "type": "Point", "coordinates": [ 6.594300792088514, 50.605784662238058 ] } },
{ "type": "Feature", "properties": { "strassenschluessel": "05366000002808835", "bezeichnung": "Am Südhang" }, "geometry": { "type": "Point", "coordinates": [ 6.685172011764125, 50.551432135386435 ] } },
{ "type": "Feature", "properties": { "strassenschluessel": "05366000002808836", "bezeichnung": "Dorfstraße" }, "geometry": { "type": "Point", "coordinates": [ 6.687872516405472, 50.54828445980808 ] } },
{ "type": "Feature", "properties": { "strassenschluessel": "05366000002808837", "bezeichnung": "Eiserfeyer Weg" }, "geometry": { "type": "Point", "coordinates": [ 6.682738735447459, 50.550555351001741 ] } },
{ "type": "Feature", "properties": { "strassenschluessel": "05366000002808838", "bezeichnung": "Goarstal" }, "geometry": { "type": "Point", "coordinates": [ 6.682921449317726, 50.549572999367001 ] } },
{ "type": "Feature", "properties": { "strassenschluessel": "05366000002808839", "bezeichnung": "Pfarrer-Fredloh-Straße" }, "geometry": { "type": "Point", "coordinates": [ 6.685513742948939, 50.549344186364607 ] } },
{ "type": "Feature", "properties": { "strassenschluessel": "05366000002808840", "bezeichnung": "Oberginnick" }, "geometry": { "type": "Point", "coordinates": [ 6.686680559963873, 50.548797843918408 ] } },
{ "type": "Feature", "properties": { "strassenschluessel": "05366000002808841", "bezeichnung": "Römerstraße" }, "geometry": { "type": "Point", "coordinates": [ 6.688121494771416, 50.550663072241392 ] } },
{ "type": "Feature", "properties": { "strassenschluessel": "05366000002808842", "bezeichnung": "Schwammberger Weg" }, "geometry": { "type": "Point", "coordinates": [ 6.688453670216502, 50.550110079317477 ] } },
{ "type": "Feature", "properties": { "strassenschluessel": "05366000002808843", "bezeichnung": "Siedlung Feuser" }, "geometry": { "type": "Point", "coordinates": [ 6.685350836321412, 50.55650593016469 ] } },
{ "type": "Feature", "properties": { "strassenschluessel": "05366000002808845", "bezeichnung": "Siedlung Schneider" }, "geometry": { "type": "Point", "coordinates": [ 6.687736514998426, 50.542532988577868 ] } },
{ "type": "Feature", "properties": { "strassenschluessel": "05366000002808846", "bezeichnung": "Siedlung Zervos" }, "geometry": { "type": "Point", "coordinates": [ 6.68109231365395, 50.542335014614537 ] } },
{ "type": "Feature", "properties": { "strassenschluessel": "05366000002808847", "bezeichnung": "Stockertblick" }, "geometry": { "type": "Point", "coordinates": [ 6.686449782731974, 50.551269165910433 ] } },
{ "type": "Feature", "properties": { "strassenschluessel": "05366000002808848", "bezeichnung": "Grünfeldstraße" }, "geometry": { "type": "Point", "coordinates": [ 6.686081011721674, 50.548947784435562 ] } },
{ "type": "Feature", "properties": { "strassenschluessel": "05366000002808849", "bezeichnung": "Hof Hostel" }, "geometry": { "type": "Point", "coordinates": [ 6.686221301487391, 50.557458926054707 ] } },
{ "type": "Feature", "properties": { "strassenschluessel": "05366000002808860", "bezeichnung": "Heufahrtshütte" }, "geometry": { "type": "Point", "coordinates": [ 6.603786780845231, 50.581178297551673 ] } },
{ "type": "Feature", "properties": { "strassenschluessel": "05366000002808865", "bezeichnung": "Auf der Hag" }, "geometry": { "type": "Point", "coordinates": [ 6.694966659475839, 50.567146448268836 ] } },
{ "type": "Feature", "properties": { "strassenschluessel": "05366000002808866", "bezeichnung": "Burg Heistard" }, "geometry": { "type": "Point", "coordinates": [ 6.701870580188059, 50.563180445007106 ] } },
{ "type": "Feature", "properties": { "strassenschluessel": "05366000002808867", "bezeichnung": "Eschweiler Weg" }, "geometry": { "type": "Point", "coordinates": [ 6.697471770172458, 50.567269105771146 ] } },
{ "type": "Feature", "properties": { "strassenschluessel": "05366000002808868", "bezeichnung": "Heistardstraße" }, "geometry": { "type": "Point", "coordinates": [ 6.693419027086423, 50.570116184695173 ] } },
{ "type": "Feature", "properties": { "strassenschluessel": "05366000002808869", "bezeichnung": "Im Hostert" }, "geometry": { "type": "Point", "coordinates": [ 6.695374152836961, 50.566784056889801 ] } },
{ "type": "Feature", "properties": { "strassenschluessel": "05366000002808870", "bezeichnung": "Im Stockbenden" }, "geometry": { "type": "Point", "coordinates": [ 6.697596236784978, 50.567973107925454 ] } },
{ "type": "Feature", "properties": { "strassenschluessel": "05366000002808871", "bezeichnung": "In der Gemeinde" }, "geometry": { "type": "Point", "coordinates": [ 6.692618062656496, 50.569631595622674 ] } },
{ "type": "Feature", "properties": { "strassenschluessel": "05366000002808872", "bezeichnung": "Schmiedegasse" }, "geometry": { "type": "Point", "coordinates": [ 6.696524754324089, 50.567528068848269 ] } },
{ "type": "Feature", "properties": { "strassenschluessel": "05366000002808873", "bezeichnung": "Siedlung Burow" }, "geometry": { "type": "Point", "coordinates": [ 6.70547928743733, 50.561270732438963 ] } },
{ "type": "Feature", "properties": { "strassenschluessel": "05366000002808874", "bezeichnung": "Siedlung Emonds" }, "geometry": { "type": "Point", "coordinates": [ 6.700188198908225, 50.56143255676308 ] } },
{ "type": "Feature", "properties": { "strassenschluessel": "05366000002808875", "bezeichnung": "Siedlung Lindenblatt" }, "geometry": { "type": "Point", "coordinates": [ 6.703072479586065, 50.565470671543295 ] } },
{ "type": "Feature", "properties": { "strassenschluessel": "05366000002808876", "bezeichnung": "Siedlung Lippik" }, "geometry": { "type": "Point", "coordinates": [ 6.70737384968522, 50.56164111215719 ] } },
{ "type": "Feature", "properties": { "strassenschluessel": "05366000002808877", "bezeichnung": "Weingartskamp" }, "geometry": { "type": "Point", "coordinates": [ 6.696691251854985, 50.568485381240833 ] } },
{ "type": "Feature", "properties": { "strassenschluessel": "05366000002808878", "bezeichnung": "Zur Nöck" }, "geometry": { "type": "Point", "coordinates": [ 6.6916697668107, 50.570233556169555 ] } },
{ "type": "Feature", "properties": { "strassenschluessel": "05366000002808879", "bezeichnung": "Weilerstraße" }, "geometry": null },
{ "type": "Feature", "properties": { "strassenschluessel": "05366000002808895", "bezeichnung": "Blumenstraße" }, "geometry": { "type": "Point", "coordinates": [ 6.612472589112889, 50.599084353313089 ] } },
{ "type": "Feature", "properties": { "strassenschluessel": "05366000002808896", "bezeichnung": "Frankenring" }, "geometry": { "type": "Point", "coordinates": [ 6.612229323589814, 50.601347280256242 ] } },
{ "type": "Feature", "properties": { "strassenschluessel": "05366000002808897", "bezeichnung": "Friedentalstraße" }, "geometry": { "type": "Point", "coordinates": [ 6.610593746537052, 50.601183250833742 ] } },
{ "type": "Feature", "properties": { "strassenschluessel": "05366000002808898", "bezeichnung": "Gölertzstraße" }, "geometry": { "type": "Point", "coordinates": [ 6.610386586388507, 50.600435206119414 ] } },
{ "type": "Feature", "properties": { "strassenschluessel": "05366000002808899", "bezeichnung": "Heiliggasse" }, "geometry": { "type": "Point", "coordinates": [ 6.60934789178515, 50.601102836819926 ] } },
{ "type": "Feature", "properties": { "strassenschluessel": "05366000002808900", "bezeichnung": "Kreuzgasse" }, "geometry": { "type": "Point", "coordinates": [ 6.609147535089536, 50.600415292450045 ] } },
{ "type": "Feature", "properties": { "strassenschluessel": "05366000002808901", "bezeichnung": "Storchenhof" }, "geometry": { "type": "Point", "coordinates": [ 6.616991274211732, 50.602075667916843 ] } },
{ "type": "Feature", "properties": { "strassenschluessel": "05366000002808910", "bezeichnung": "Am Brotacker" }, "geometry": { "type": "Point", "coordinates": [ 6.597817193665624, 50.569347145055659 ] } },
{ "type": "Feature", "properties": { "strassenschluessel": "05366000002808911", "bezeichnung": "Haus-Risa-Straße" }, "geometry": { "type": "Point", "coordinates": [ 6.600654518053288, 50.569800906404524 ] } },
{ "type": "Feature", "properties": { "strassenschluessel": "05366000002808912", "bezeichnung": "Sternenbergstraße" }, "geometry": { "type": "Point", "coordinates": [ 6.598936935451851, 50.567234331757057 ] } },
{ "type": "Feature", "properties": { "strassenschluessel": "05366000002808913", "bezeichnung": "Virginiastraße" }, "geometry": { "type": "Point", "coordinates": [ 6.600554050545189, 50.570558355800934 ] } },
{ "type": "Feature", "properties": { "strassenschluessel": "05366000002808914", "bezeichnung": "Westschachtstraße" }, "geometry": { "type": "Point", "coordinates": [ 6.597450368465136, 50.566573005123345 ] } },
{ "type": "Feature", "properties": { "strassenschluessel": "05366000002808920", "bezeichnung": "Auf dem Wiesgen" }, "geometry": null },
{ "type": "Feature", "properties": { "strassenschluessel": "05366000002808921", "bezeichnung": "Dotteler Weg" }, "geometry": { "type": "Point", "coordinates": [ 6.617575683723053, 50.556090682912775 ] } },
{ "type": "Feature", "properties": { "strassenschluessel": "05366000002808922", "bezeichnung": "Hahnenbergstraße" }, "geometry": { "type": "Point", "coordinates": [ 6.628459034117546, 50.5525785636856 ] } },
{ "type": "Feature", "properties": { "strassenschluessel": "05366000002808923", "bezeichnung": "Haus Molinari" }, "geometry": { "type": "Point", "coordinates": [ 6.637671810294109, 50.549445744800167 ] } },
{ "type": "Feature", "properties": { "strassenschluessel": "05366000002808924", "bezeichnung": "Im Pesch" }, "geometry": { "type": "Point", "coordinates": [ 6.619739571134066, 50.556069966915643 ] } },
{ "type": "Feature", "properties": { "strassenschluessel": "05366000002808925", "bezeichnung": "In der Kumm" }, "geometry": null },
{ "type": "Feature", "properties": { "strassenschluessel": "05366000002808926", "bezeichnung": "Kaller Straße" }, "geometry": { "type": "Point", "coordinates": [ 6.618535266778439, 50.554387388466594 ] } },
{ "type": "Feature", "properties": { "strassenschluessel": "05366000002808927", "bezeichnung": "Königsfelder Straße" }, "geometry": { "type": "Point", "coordinates": [ 6.621923726108726, 50.554178075125073 ] } },
{ "type": "Feature", "properties": { "strassenschluessel": "05366000002808928", "bezeichnung": "Lorbacher Straße" }, "geometry": { "type": "Point", "coordinates": [ 6.618103313680749, 50.556981808719378 ] } },
{ "type": "Feature", "properties": { "strassenschluessel": "05366000002808929", "bezeichnung": "Martinsgasse" }, "geometry": null },
{ "type": "Feature", "properties": { "strassenschluessel": "05366000002808930", "bezeichnung": "Quellenstraße" }, "geometry": { "type": "Point", "coordinates": [ 6.620030889907941, 50.555144398868379 ] } },
{ "type": "Feature", "properties": { "strassenschluessel": "05366000002808931", "bezeichnung": "Ringstraße" }, "geometry": { "type": "Point", "coordinates": [ 6.61904822498071, 50.555534594417544 ] } },
{ "type": "Feature", "properties": { "strassenschluessel": "05366000002808932", "bezeichnung": "St.-Georg-Straße" }, "geometry": { "type": "Point", "coordinates": [ 6.62025859569154, 50.556918586745049 ] } },
{ "type": "Feature", "properties": { "strassenschluessel": "05366000002808933", "bezeichnung": "Schevener Straße" }, "geometry": { "type": "Point", "coordinates": [ 6.617418922103504, 50.55663058208647 ] } },
{ "type": "Feature", "properties": { "strassenschluessel": "05366000002808934", "bezeichnung": "Buchenhof" }, "geometry": { "type": "Point", "coordinates": [ 6.615826879786422, 50.552739109759408 ] } },
{ "type": "Feature", "properties": { "strassenschluessel": "05366000002808936", "bezeichnung": "Berghof" }, "geometry": { "type": "Point", "coordinates": [ 6.623120619050057, 50.551286933289042 ] } },
{ "type": "Feature", "properties": { "strassenschluessel": "05366000002808937", "bezeichnung": "Georgswiese" }, "geometry": { "type": "Point", "coordinates": [ 6.617047019615465, 50.557422038401022 ] } },
{ "type": "Feature", "properties": { "strassenschluessel": "05366000002808938", "bezeichnung": "Andreashof" }, "geometry": { "type": "Point", "coordinates": [ 6.613872843468664, 50.557831652336624 ] } },
{ "type": "Feature", "properties": { "strassenschluessel": "05366000002808955", "bezeichnung": "Am Flüßchen" }, "geometry": { "type": "Point", "coordinates": [ 6.689677849402626, 50.608278026641848 ] } },
{ "type": "Feature", "properties": { "strassenschluessel": "05366000002808956", "bezeichnung": "Am Katzenstein" }, "geometry": { "type": "Point", "coordinates": [ 6.682442204879678, 50.601948922061567 ] } },
{ "type": "Feature", "properties": { "strassenschluessel": "05366000002808957", "bezeichnung": "Am Siefen" }, "geometry": { "type": "Point", "coordinates": [ 6.68998914723741, 50.610301476292875 ] } },
{ "type": "Feature", "properties": { "strassenschluessel": "05366000002808958", "bezeichnung": "Am Wald" }, "geometry": { "type": "Point", "coordinates": [ 6.684456715623272, 50.60729099230376 ] } },
{ "type": "Feature", "properties": { "strassenschluessel": "05366000002808959", "bezeichnung": "An den Teichen" }, "geometry": { "type": "Point", "coordinates": [ 6.685725590741424, 50.608343366311651 ] } },
{ "type": "Feature", "properties": { "strassenschluessel": "05366000002808960", "bezeichnung": "An der Rodung" }, "geometry": { "type": "Point", "coordinates": [ 6.690269268443249, 50.611098406879997 ] } },
{ "type": "Feature", "properties": { "strassenschluessel": "05366000002808961", "bezeichnung": "Gut Hombusch" }, "geometry": { "type": "Point", "coordinates": [ 6.684329060583011, 50.597163075808552 ] } },
{ "type": "Feature", "properties": { "strassenschluessel": "05366000002808962", "bezeichnung": "Im Driesch" }, "geometry": { "type": "Point", "coordinates": [ 6.684263628897694, 50.606478139155797 ] } },
{ "type": "Feature", "properties": { "strassenschluessel": "05366000002808963", "bezeichnung": "In den Birken" }, "geometry": { "type": "Point", "coordinates": [ 6.690536631174421, 50.610610962959299 ] } },
{ "type": "Feature", "properties": { "strassenschluessel": "05366000002808964", "bezeichnung": "Zur Quelle" }, "geometry": { "type": "Point", "coordinates": [ 6.681544519717272, 50.601632270486213 ] } },
{ "type": "Feature", "properties": { "strassenschluessel": "05366000002808975", "bezeichnung": "Ackergasse" }, "geometry": { "type": "Point", "coordinates": [ 6.648694914876869, 50.611624184514241 ] } },
{ "type": "Feature", "properties": { "strassenschluessel": "05366000002808976", "bezeichnung": "Ahornweg" }, "geometry": { "type": "Point", "coordinates": [ 6.666210052527491, 50.604943448104592 ] } },
{ "type": "Feature", "properties": { "strassenschluessel": "05366000002808977", "bezeichnung": "Akazienweg" }, "geometry": { "type": "Point", "coordinates": [ 6.669037394458743, 50.605653329527968 ] } },
{ "type": "Feature", "properties": { "strassenschluessel": "05366000002808978", "bezeichnung": "Am Bleiberg" }, "geometry": { "type": "Point", "coordinates": [ 6.645218865565782, 50.605940883671046 ] } },
{ "type": "Feature", "properties": { "strassenschluessel": "05366000002808979", "bezeichnung": "Am Bruch" }, "geometry": { "type": "Point", "coordinates": [ 6.673867784139484, 50.605775435137588 ] } },
{ "type": "Feature", "properties": { "strassenschluessel": "05366000002808980", "bezeichnung": "Am Hang" }, "geometry": { "type": "Point", "coordinates": [ 6.639172494457593, 50.608920286865278 ] } },
{ "type": "Feature", "properties": { "strassenschluessel": "05366000002808981", "bezeichnung": "Am Hostert" }, "geometry": { "type": "Point", "coordinates": [ 6.637619360822188, 50.611897988975279 ] } },
{ "type": "Feature", "properties": { "strassenschluessel": "05366000002808982", "bezeichnung": "Am Friedhof" }, "geometry": { "type": "Point", "coordinates": [ 6.650047698902338, 50.616886942154267 ] } },
{ "type": "Feature", "properties": { "strassenschluessel": "05366000002808983", "bezeichnung": "Am Museum" }, "geometry": { "type": "Point", "coordinates": [ 6.636778166726001, 50.609255741567139 ] } },
{ "type": "Feature", "properties": { "strassenschluessel": "05366000002808984", "bezeichnung": "Am Mühlenbach" }, "geometry": { "type": "Point", "coordinates": [ 6.646691271781616, 50.610840064040026 ] } },
{ "type": "Feature", "properties": { "strassenschluessel": "05366000002808985", "bezeichnung": "Am Schützenplatz" }, "geometry": { "type": "Point", "coordinates": [ 6.646962230775447, 50.607144568139013 ] } },
{ "type": "Feature", "properties": { "strassenschluessel": "05366000002808986", "bezeichnung": "Amselhang" }, "geometry": { "type": "Point", "coordinates": [ 6.664587346641247, 50.604550851695279 ] } },
{ "type": "Feature", "properties": { "strassenschluessel": "05366000002808987", "bezeichnung": "Am Theisenberg" }, "geometry": { "type": "Point", "coordinates": [ 6.643167745624807, 50.606966601693678 ] } },
{ "type": "Feature", "properties": { "strassenschluessel": "05366000002808988", "bezeichnung": "An den Eichen" }, "geometry": { "type": "Point", "coordinates": [ 6.668678957204962, 50.60753384943817 ] } },
{ "type": "Feature", "properties": { "strassenschluessel": "05366000002808989", "bezeichnung": "An den Kiefern" }, "geometry": { "type": "Point", "coordinates": [ 6.671941547391721, 50.606507933550077 ] } },
{ "type": "Feature", "properties": { "strassenschluessel": "05366000002808990", "bezeichnung": "Arenbergplatz" }, "geometry": null },
{ "type": "Feature", "properties": { "strassenschluessel": "05366000002808991", "bezeichnung": "Andersenweg" }, "geometry": { "type": "Point", "coordinates": [ 6.651862451880735, 50.60971164464415 ] } },
{ "type": "Feature", "properties": { "strassenschluessel": "05366000002808992", "bezeichnung": "Auf dem Acker" }, "geometry": { "type": "Point", "coordinates": [ 6.64757338708941, 50.609960751342939 ] } },
{ "type": "Feature", "properties": { "strassenschluessel": "05366000002808993", "bezeichnung": "Auf dem Kahlenbusch" }, "geometry": { "type": "Point", "coordinates": [ 6.633815799596321, 50.612439390804923 ] } },
{ "type": "Feature", "properties": { "strassenschluessel": "05366000002808994", "bezeichnung": "Auf der Trift" }, "geometry": { "type": "Point", "coordinates": [ 6.646614878658303, 50.607786516186771 ] } },
{ "type": "Feature", "properties": { "strassenschluessel": "05366000002808995", "bezeichnung": "Auf der Urspel" }, "geometry": { "type": "Point", "coordinates": [ 6.643869096017392, 50.608100063362066 ] } },
{ "type": "Feature", "properties": { "strassenschluessel": "05366000002808996", "bezeichnung": "Auf Rodder" }, "geometry": { "type": "Point", "coordinates": [ 6.638524881753553, 50.609077800123252 ] } },
{ "type": "Feature", "properties": { "strassenschluessel": "05366000002808997", "bezeichnung": "Augustinusweg" }, "geometry": { "type": "Point", "coordinates": [ 6.652258328874302, 50.613257262333448 ] } },
{ "type": "Feature", "properties": { "strassenschluessel": "05366000002808998", "bezeichnung": "Becherhof" }, "geometry": { "type": "Point", "coordinates": [ 6.660201736508763, 50.608985885095002 ] } },
{ "type": "Feature", "properties": { "strassenschluessel": "05366000002808999", "bezeichnung": "Becherhofer Weg" }, "geometry": { "type": "Point", "coordinates": [ 6.657940718362438, 50.607186184200629 ] } },
{ "type": "Feature", "properties": { "strassenschluessel": "05366000002809000", "bezeichnung": "Birkenhain" }, "geometry": { "type": "Point", "coordinates": [ 6.675157393029299, 50.604982623802961 ] } },
{ "type": "Feature", "properties": { "strassenschluessel": "05366000002809001", "bezeichnung": "Birkenweg" }, "geometry": { "type": "Point", "coordinates": [ 6.647836812096084, 50.608155059997429 ] } },
{ "type": "Feature", "properties": { "strassenschluessel": "05366000002809002", "bezeichnung": "Buchenweg" }, "geometry": { "type": "Point", "coordinates": [ 6.668407832467852, 50.606093079033585 ] } },
{ "type": "Feature", "properties": { "strassenschluessel": "05366000002809003", "bezeichnung": "Burghofstraße" }, "geometry": { "type": "Point", "coordinates": [ 6.653109427346709, 50.616414933064611 ] } },
{ "type": "Feature", "properties": { "strassenschluessel": "05366000002809004", "bezeichnung": "Dompfaffenweg" }, "geometry": { "type": "Point", "coordinates": [ 6.66629989236454, 50.604122237607129 ] } },
{ "type": "Feature", "properties": { "strassenschluessel": "05366000002809005", "bezeichnung": "Eickser Straße" }, "geometry": { "type": "Point", "coordinates": [ 6.633889484072235, 50.620199472388869 ] } },
{ "type": "Feature", "properties": { "strassenschluessel": "05366000002809006", "bezeichnung": "Eisenweg" }, "geometry": { "type": "Point", "coordinates": [ 6.648512411063261, 50.607207886767263 ] } },
{ "type": "Feature", "properties": { "strassenschluessel": "05366000002809007", "bezeichnung": "Eschenweg" }, "geometry": { "type": "Point", "coordinates": [ 6.670901554278656, 50.606530435601023 ] } },
{ "type": "Feature", "properties": { "strassenschluessel": "05366000002809008", "bezeichnung": "Essersgasse" }, "geometry": { "type": "Point", "coordinates": [ 6.642758527844436, 50.610066675065795 ] } },
{ "type": "Feature", "properties": { "strassenschluessel": "05366000002809009", "bezeichnung": "Ernst-Becker-Weg" }, "geometry": { "type": "Point", "coordinates": [ 6.637881064063474, 50.604710792653556 ] } },
{ "type": "Feature", "properties": { "strassenschluessel": "05366000002809010", "bezeichnung": "Erzstraße" }, "geometry": { "type": "Point", "coordinates": [ 6.648726423824311, 50.606432027841265 ] } },
{ "type": "Feature", "properties": { "strassenschluessel": "05366000002809011", "bezeichnung": "Fahnendriesch" }, "geometry": { "type": "Point", "coordinates": [ 6.649960715686965, 50.605871290534701 ] } },
{ "type": "Feature", "properties": { "strassenschluessel": "05366000002809012", "bezeichnung": "Fichtenpfad" }, "geometry": { "type": "Point", "coordinates": [ 6.674587922211591, 50.606295159715877 ] } },
{ "type": "Feature", "properties": { "strassenschluessel": "05366000002809013", "bezeichnung": "Finkenhag" }, "geometry": { "type": "Point", "coordinates": [ 6.667448311318541, 50.602995591405779 ] } },
{ "type": "Feature", "properties": { "strassenschluessel": "05366000002809014", "bezeichnung": "Fröbelstraße" }, "geometry": { "type": "Point", "coordinates": [ 6.65149492669943, 50.609206976829135 ] } },
{ "type": "Feature", "properties": { "strassenschluessel": "05366000002809015", "bezeichnung": "Gebrüder-Grimm-Straße" }, "geometry": { "type": "Point", "coordinates": [ 6.649954857909986, 50.610091921437117 ] } },
{ "type": "Feature", "properties": { "strassenschluessel": "05366000002809016", "bezeichnung": "Gielsgasse" }, "geometry": { "type": "Point", "coordinates": [ 6.649437033441703, 50.608012006983458 ] } },
{ "type": "Feature", "properties": { "strassenschluessel": "05366000002809017", "bezeichnung": "Hochwildschutzpark" }, "geometry": null },
{ "type": "Feature", "properties": { "strassenschluessel": "05366000002809018", "bezeichnung": "Hüllenstraße" }, "geometry": { "type": "Point", "coordinates": [ 6.652051336913049, 50.61168782743438 ] } },
{ "type": "Feature", "properties": { "strassenschluessel": "05366000002809019", "bezeichnung": "Im Hackenthal" }, "geometry": { "type": "Point", "coordinates": [ 6.643148026654075, 50.605972642701623 ] } },
{ "type": "Feature", "properties": { "strassenschluessel": "05366000002809020", "bezeichnung": "Im Hofpesch" }, "geometry": { "type": "Point", "coordinates": [ 6.652051790273515, 50.614328569058017 ] } },
{ "type": "Feature", "properties": { "strassenschluessel": "05366000002809021", "bezeichnung": "Im Rothenfeld" }, "geometry": { "type": "Point", "coordinates": [ 6.655151175985973, 50.613875561519365 ] } },
{ "type": "Feature", "properties": { "strassenschluessel": "05366000002809022", "bezeichnung": "Im Weidenpützgarten" }, "geometry": { "type": "Point", "coordinates": [ 6.654890434469708, 50.615971736653712 ] } },
{ "type": "Feature", "properties": { "strassenschluessel": "05366000002809023", "bezeichnung": "In den Erlen" }, "geometry": { "type": "Point", "coordinates": [ 6.67291125286571, 50.605729257975035 ] } },
{ "type": "Feature", "properties": { "strassenschluessel": "05366000002809024", "bezeichnung": "In den Gärten" }, "geometry": { "type": "Point", "coordinates": [ 6.644506894756654, 50.609896817320966 ] } },
{ "type": "Feature", "properties": { "strassenschluessel": "05366000002809025", "bezeichnung": "In der Donau" }, "geometry": { "type": "Point", "coordinates": [ 6.647196825608967, 50.61162733938184 ] } },
{ "type": "Feature", "properties": { "strassenschluessel": "05366000002809026", "bezeichnung": "In der Eule" }, "geometry": { "type": "Point", "coordinates": [ 6.653939230066617, 50.615271598601261 ] } },
{ "type": "Feature", "properties": { "strassenschluessel": "05366000002809027", "bezeichnung": "Jülicher Straße" }, "geometry": { "type": "Point", "coordinates": [ 6.655507374282184, 50.613430694038783 ] } },
{ "type": "Feature", "properties": { "strassenschluessel": "05366000002809028", "bezeichnung": "Kirchberg" }, "geometry": { "type": "Point", "coordinates": [ 6.647599965203504, 50.613271875758663 ] } },
{ "type": "Feature", "properties": { "strassenschluessel": "05366000002809029", "bezeichnung": "Kölner Straße" }, "geometry": { "type": "Point", "coordinates": [ 6.653962895536229, 50.616186237453668 ] } },
{ "type": "Feature", "properties": { "strassenschluessel": "05366000002809030", "bezeichnung": "Kupferweg" }, "geometry": { "type": "Point", "coordinates": [ 6.647432386003302, 50.607795021810972 ] } },
{ "type": "Feature", "properties": { "strassenschluessel": "05366000002809031", "bezeichnung": "Lerchenpfad" }, "geometry": { "type": "Point", "coordinates": [ 6.66868264911747, 50.603590539789295 ] } },
{ "type": "Feature", "properties": { "strassenschluessel": "05366000002809032", "bezeichnung": "Mechernicher Weg" }, "geometry": { "type": "Point", "coordinates": [ 6.650632676371009, 50.605391911675952 ] } },
{ "type": "Feature", "properties": { "strassenschluessel": "05366000002809033", "bezeichnung": "Mittelstraße" }, "geometry": { "type": "Point", "coordinates": [ 6.653673853918497, 50.611367621352656 ] } },
{ "type": "Feature", "properties": { "strassenschluessel": "05366000002809034", "bezeichnung": "Montessoristraße" }, "geometry": { "type": "Point", "coordinates": [ 6.650597933739618, 50.609762555828617 ] } },
{ "type": "Feature", "properties": { "strassenschluessel": "05366000002809035", "bezeichnung": "Mühlengasse" }, "geometry": { "type": "Point", "coordinates": [ 6.644084130103897, 50.610170190602737 ] } },
{ "type": "Feature", "properties": { "strassenschluessel": "05366000002809036", "bezeichnung": "Mühlenthal" }, "geometry": { "type": "Point", "coordinates": [ 6.637383228828114, 50.606141617142349 ] } },
{ "type": "Feature", "properties": { "strassenschluessel": "05366000002809037", "bezeichnung": "Münsterweg" }, "geometry": { "type": "Point", "coordinates": [ 6.648841284522284, 50.609450237533707 ] } },
{ "type": "Feature", "properties": { "strassenschluessel": "05366000002809038", "bezeichnung": "Nachtigallenthal" }, "geometry": { "type": "Point", "coordinates": [ 6.63671238129843, 50.606082022918983 ] } },
{ "type": "Feature", "properties": { "strassenschluessel": "05366000002809039", "bezeichnung": "Neue Pfalz" }, "geometry": null },
{ "type": "Feature", "properties": { "strassenschluessel": "05366000002809040", "bezeichnung": "Oberes Rothenfeld" }, "geometry": { "type": "Point", "coordinates": [ 6.652934902471285, 50.611703634272722 ] } },
{ "type": "Feature", "properties": { "strassenschluessel": "05366000002809041", "bezeichnung": "Pastor-Schäfer-Weg" }, "geometry": { "type": "Point", "coordinates": [ 6.64989891522146, 50.610630907421651 ] } },
{ "type": "Feature", "properties": { "strassenschluessel": "05366000002809042", "bezeichnung": "Pestalozzistraße" }, "geometry": { "type": "Point", "coordinates": [ 6.65166821613753, 50.608867121988574 ] } },
{ "type": "Feature", "properties": { "strassenschluessel": "05366000002809043", "bezeichnung": "Prinzenweg" }, "geometry": { "type": "Point", "coordinates": [ 6.645493363186804, 50.608194666197008 ] } },
{ "type": "Feature", "properties": { "strassenschluessel": "05366000002809044", "bezeichnung": "Pützgasse" }, "geometry": { "type": "Point", "coordinates": [ 6.648941114523638, 50.612497320618395 ] } },
{ "type": "Feature", "properties": { "strassenschluessel": "05366000002809045", "bezeichnung": "Rehgasse" }, "geometry": { "type": "Point", "coordinates": [ 6.656294449524757, 50.614735998124928 ] } },
{ "type": "Feature", "properties": { "strassenschluessel": "05366000002809046", "bezeichnung": "Zur Sommerrodelbahn" }, "geometry": null },
{ "type": "Feature", "properties": { "strassenschluessel": "05366000002809047", "bezeichnung": "Seeweg" }, "geometry": { "type": "Point", "coordinates": [ 6.640828599187268, 50.607754388390347 ] } },
{ "type": "Feature", "properties": { "strassenschluessel": "05366000002809048", "bezeichnung": "Severinusweg" }, "geometry": { "type": "Point", "coordinates": [ 6.646477745403922, 50.614854001895175 ] } },
{ "type": "Feature", "properties": { "strassenschluessel": "05366000002809049", "bezeichnung": "Schlegelweg" }, "geometry": { "type": "Point", "coordinates": [ 6.6507908666079, 50.607529003437136 ] } },
{ "type": "Feature", "properties": { "strassenschluessel": "05366000002809050", "bezeichnung": "Schopsland" }, "geometry": { "type": "Point", "coordinates": [ 6.646083237325516, 50.609313015419971 ] } },
{ "type": "Feature", "properties": { "strassenschluessel": "05366000002809051", "bezeichnung": "Schützenweg" }, "geometry": { "type": "Point", "coordinates": [ 6.649433397788332, 50.605004263902856 ] } },
{ "type": "Feature", "properties": { "strassenschluessel": "05366000002809052", "bezeichnung": "Haus Natura" }, "geometry": { "type": "Point", "coordinates": [ 6.642431337285019, 50.604230120687397 ] } },
{ "type": "Feature", "properties": { "strassenschluessel": "05366000002809053", "bezeichnung": "Schwalbenberg" }, "geometry": { "type": "Point", "coordinates": [ 6.671030341814139, 50.603591460227108 ] } },
{ "type": "Feature", "properties": { "strassenschluessel": "05366000002809054", "bezeichnung": "Silberweg" }, "geometry": { "type": "Point", "coordinates": [ 6.648978934355688, 50.605992587493766 ] } },
{ "type": "Feature", "properties": { "strassenschluessel": "05366000002809055", "bezeichnung": "Sophienhöhe" }, "geometry": { "type": "Point", "coordinates": [ 6.636424304516561, 50.606171284473284 ] } },
{ "type": "Feature", "properties": { "strassenschluessel": "05366000002809056", "bezeichnung": "Talweg" }, "geometry": { "type": "Point", "coordinates": [ 6.643405051357412, 50.608832527834032 ] } },
{ "type": "Feature", "properties": { "strassenschluessel": "05366000002809057", "bezeichnung": "Tannenweg" }, "geometry": { "type": "Point", "coordinates": [ 6.648027973272816, 50.607586866276542 ] } },
{ "type": "Feature", "properties": { "strassenschluessel": "05366000002809058", "bezeichnung": "Uferweg" }, "geometry": { "type": "Point", "coordinates": [ 6.644532051155422, 50.609167209206447 ] } },
{ "type": "Feature", "properties": { "strassenschluessel": "05366000002809059", "bezeichnung": "Ulmenweg" }, "geometry": { "type": "Point", "coordinates": [ 6.672232850551028, 50.60491318619308 ] } },
{ "type": "Feature", "properties": { "strassenschluessel": "05366000002809061", "bezeichnung": "Unter dem Griesberg" }, "geometry": { "type": "Point", "coordinates": [ 6.644226187880466, 50.606798297835688 ] } },
{ "type": "Feature", "properties": { "strassenschluessel": "05366000002809062", "bezeichnung": "Wacholder" }, "geometry": { "type": "Point", "coordinates": [ 6.651861142618436, 50.607833182989104 ] } },
{ "type": "Feature", "properties": { "strassenschluessel": "05366000002809063", "bezeichnung": "Wingert" }, "geometry": { "type": "Point", "coordinates": [ 6.649491484222308, 50.614379706414134 ] } },
{ "type": "Feature", "properties": { "strassenschluessel": "05366000002809064", "bezeichnung": "Zeisigpfad" }, "geometry": { "type": "Point", "coordinates": [ 6.673320788813446, 50.603695607166252 ] } },
{ "type": "Feature", "properties": { "strassenschluessel": "05366000002809065", "bezeichnung": "Zingsheimer Tal" }, "geometry": { "type": "Point", "coordinates": [ 6.635460420998403, 50.607189663947821 ] } },
{ "type": "Feature", "properties": { "strassenschluessel": "05366000002809066", "bezeichnung": "Toni-Steingass-Straße" }, "geometry": { "type": "Point", "coordinates": [ 6.638325515667484, 50.609645389744436 ] } },
{ "type": "Feature", "properties": { "strassenschluessel": "05366000002809067", "bezeichnung": "In der Steige" }, "geometry": { "type": "Point", "coordinates": [ 6.653500560696866, 50.611665897071454 ] } },
{ "type": "Feature", "properties": { "strassenschluessel": "05366000002809068", "bezeichnung": "C.-A.-Eick-Straße" }, "geometry": { "type": "Point", "coordinates": [ 6.643806606412589, 50.610667219356912 ] } },
{ "type": "Feature", "properties": { "strassenschluessel": "05366000002809069", "bezeichnung": "Auf dem Daniel" }, "geometry": { "type": "Point", "coordinates": [ 6.644340693388378, 50.61243984703259 ] } },
{ "type": "Feature", "properties": { "strassenschluessel": "05366000002809070", "bezeichnung": "Pfaffenweg" }, "geometry": { "type": "Point", "coordinates": [ 6.644117360935076, 50.61122424500595 ] } },
{ "type": "Feature", "properties": { "strassenschluessel": "05366000002809071", "bezeichnung": "Kreisbahnstraße" }, "geometry": { "type": "Point", "coordinates": [ 6.657213386542731, 50.616296921182752 ] } },
{ "type": "Feature", "properties": { "strassenschluessel": "05366000002809072", "bezeichnung": "Marathonstraße" }, "geometry": { "type": "Point", "coordinates": [ 6.658304082638873, 50.615190852421797 ] } },
{ "type": "Feature", "properties": { "strassenschluessel": "05366000002809073", "bezeichnung": "Wälschbachstraße" }, "geometry": { "type": "Point", "coordinates": [ 6.657695923768506, 50.614495601463702 ] } },
{ "type": "Feature", "properties": { "strassenschluessel": "05366000002809074", "bezeichnung": "Zur Thingstätte" }, "geometry": { "type": "Point", "coordinates": [ 6.637714507291684, 50.609295230872249 ] } },
{ "type": "Feature", "properties": { "strassenschluessel": "05366000002809076", "bezeichnung": "Levanoweg" }, "geometry": { "type": "Point", "coordinates": [ 6.65710472054282, 50.616779460457245 ] } },
{ "type": "Feature", "properties": { "strassenschluessel": "05366000002809077", "bezeichnung": "Toni-Bauer-Straße" }, "geometry": { "type": "Point", "coordinates": [ 6.659930427405218, 50.618424238894697 ] } },
{ "type": "Feature", "properties": { "strassenschluessel": "05366000002809078", "bezeichnung": "In der Schafsweide" }, "geometry": { "type": "Point", "coordinates": [ 6.645589149051454, 50.608753277530866 ] } },
{ "type": "Feature", "properties": { "strassenschluessel": "05366000002809079", "bezeichnung": "Hermann-Bank-Straße" }, "geometry": { "type": "Point", "coordinates": [ 6.65593282207689, 50.610928247330094 ] } },
{ "type": "Feature", "properties": { "strassenschluessel": "05366000002809080", "bezeichnung": "Albert-Spiertz-Straße" }, "geometry": { "type": "Point", "coordinates": [ 6.657441439323519, 50.609947986720776 ] } },
{ "type": "Feature", "properties": { "strassenschluessel": "05366000002809081", "bezeichnung": "Hubert-Offermann-Straße" }, "geometry": { "type": "Point", "coordinates": [ 6.655929595203219, 50.60981581563599 ] } },
{ "type": "Feature", "properties": { "strassenschluessel": "05366000002809082", "bezeichnung": "Im Wälschbachtal" }, "geometry": { "type": "Point", "coordinates": [ 6.658813349856098, 50.61172752061541 ] } },
{ "type": "Feature", "properties": { "strassenschluessel": "05366000002809083", "bezeichnung": "Dr.-Josef-Tils-Straße" }, "geometry": { "type": "Point", "coordinates": [ 6.657937854145648, 50.61141948061298 ] } },
{ "type": "Feature", "properties": { "strassenschluessel": "05366000002809084", "bezeichnung": "Im Bongärtchen" }, "geometry": { "type": "Point", "coordinates": [ 6.65644517505652, 50.611490574390494 ] } },
{ "type": "Feature", "properties": { "strassenschluessel": "05366000002809085", "bezeichnung": "Am Grünen Weg" }, "geometry": { "type": "Point", "coordinates": [ 6.650331046152736, 50.617338052559596 ] } },
{ "type": "Feature", "properties": { "strassenschluessel": "05366000002809086", "bezeichnung": "Abelsweg" }, "geometry": { "type": "Point", "coordinates": [ 6.648467417268858, 50.613525989756901 ] } },
{ "type": "Feature", "properties": { "strassenschluessel": "05366000002809087", "bezeichnung": "An den Drei Kreuzen" }, "geometry": { "type": "Point", "coordinates": [ 6.65356929249061, 50.608603741441854 ] } },
{ "type": "Feature", "properties": { "strassenschluessel": "05366000002809088", "bezeichnung": "St.-Vinzenz-Straße" }, "geometry": { "type": "Point", "coordinates": [ 6.655353486588586, 50.608669678150434 ] } },
{ "type": "Feature", "properties": { "strassenschluessel": "05366000002809089", "bezeichnung": "Schwester-Klothilde-Weg" }, "geometry": { "type": "Point", "coordinates": [ 6.653569231419299, 50.608071837339203 ] } },
{ "type": "Feature", "properties": { "strassenschluessel": "05366000002809090", "bezeichnung": "Monzenbend" }, "geometry": { "type": "Point", "coordinates": [ 6.651377057091296, 50.619028454303454 ] } },
{ "type": "Feature", "properties": { "strassenschluessel": "05366000002809091", "bezeichnung": "An den Zwei Höfen" }, "geometry": { "type": "Point", "coordinates": [ 6.65327186575995, 50.616723859847191 ] } },
{ "type": "Feature", "properties": { "strassenschluessel": "05366000002809092", "bezeichnung": "Rodelhang" }, "geometry": { "type": "Point", "coordinates": [ 6.651959097606906, 50.60621098120086 ] } },
{ "type": "Feature", "properties": { "strassenschluessel": "05366000002809093", "bezeichnung": "Feldblumenweg" }, "geometry": { "type": "Point", "coordinates": [ 6.65746636184789, 50.599934528394222 ] } },
{ "type": "Feature", "properties": { "strassenschluessel": "05366000002809094", "bezeichnung": "Zum Altusknipp" }, "geometry": { "type": "Point", "coordinates": [ 6.647325015657974, 50.609417704821304 ] } },
{ "type": "Feature", "properties": { "strassenschluessel": "05366000002809095", "bezeichnung": "Auf dem Kalk" }, "geometry": { "type": "Point", "coordinates": [ 6.650229279458914, 50.62042384960683 ] } },
{ "type": "Feature", "properties": { "strassenschluessel": "05366000002809096", "bezeichnung": "Behrensfeld" }, "geometry": null },
{ "type": "Feature", "properties": { "strassenschluessel": "05366000002809097", "bezeichnung": "Anemonenweg" }, "geometry": { "type": "Point", "coordinates": [ 6.658352652479561, 50.60084004865535 ] } },
{ "type": "Feature", "properties": { "strassenschluessel": "05366000002809098", "bezeichnung": "Douglasienweg" }, "geometry": { "type": "Point", "coordinates": [ 6.665277961499755, 50.605794635294089 ] } },
{ "type": "Feature", "properties": { "strassenschluessel": "05366000002809099", "bezeichnung": "Peter-Milz-Straße" }, "geometry": { "type": "Point", "coordinates": [ 6.666044347194299, 50.605700211887864 ] } },
{ "type": "Feature", "properties": { "strassenschluessel": "05366000002809100", "bezeichnung": "Wolfgang-Müller-Straße" }, "geometry": { "type": "Point", "coordinates": [ 6.66715004186466, 50.606391510459893 ] } },
{ "type": "Feature", "properties": { "strassenschluessel": "05366000002809101", "bezeichnung": "Zedernweg" }, "geometry": { "type": "Point", "coordinates": [ 6.667503292990818, 50.606089309420142 ] } },
{ "type": "Feature", "properties": { "strassenschluessel": "05366000002809205", "bezeichnung": "Am Bienengarten" }, "geometry": { "type": "Point", "coordinates": [ 6.719965230480975, 50.60891085798599 ] } },
{ "type": "Feature", "properties": { "strassenschluessel": "05366000002809206", "bezeichnung": "Am Eichenbusch" }, "geometry": { "type": "Point", "coordinates": [ 6.726250086422723, 50.60541277579447 ] } },
{ "type": "Feature", "properties": { "strassenschluessel": "05366000002809207", "bezeichnung": "Auf dem Gaul" }, "geometry": { "type": "Point", "coordinates": [ 6.72028172334067, 50.604582511096666 ] } },
{ "type": "Feature", "properties": { "strassenschluessel": "05366000002809208", "bezeichnung": "Auf der Birke" }, "geometry": { "type": "Point", "coordinates": [ 6.716797170062543, 50.60811998671457 ] } },
{ "type": "Feature", "properties": { "strassenschluessel": "05366000002809209", "bezeichnung": "Burg Zievel" }, "geometry": { "type": "Point", "coordinates": [ 6.723851448586434, 50.618020038881994 ] } },
{ "type": "Feature", "properties": { "strassenschluessel": "05366000002809210", "bezeichnung": "Grometsbenden" }, "geometry": { "type": "Point", "coordinates": [ 6.724462898326802, 50.609625643919777 ] } },
{ "type": "Feature", "properties": { "strassenschluessel": "05366000002809211", "bezeichnung": "Lerchenhof" }, "geometry": { "type": "Point", "coordinates": [ 6.71267427662318, 50.60401576185216 ] } },
{ "type": "Feature", "properties": { "strassenschluessel": "05366000002809212", "bezeichnung": "Pastoratsweg" }, "geometry": { "type": "Point", "coordinates": [ 6.721999771225647, 50.611009541231958 ] } },
{ "type": "Feature", "properties": { "strassenschluessel": "05366000002809213", "bezeichnung": "Stephanusstraße" }, "geometry": { "type": "Point", "coordinates": [ 6.718959585043928, 50.608122367893792 ] } },
{ "type": "Feature", "properties": { "strassenschluessel": "05366000002809214", "bezeichnung": "Veyer Straße" }, "geometry": { "type": "Point", "coordinates": [ 6.721408713911406, 50.611502279817607 ] } },
{ "type": "Feature", "properties": { "strassenschluessel": "05366000002809215", "bezeichnung": "Wachendorfer Straße" }, "geometry": { "type": "Point", "coordinates": [ 6.72248561411836, 50.608324549221031 ] } },
{ "type": "Feature", "properties": { "strassenschluessel": "05366000002809216", "bezeichnung": "Zieveler Straße" }, "geometry": { "type": "Point", "coordinates": [ 6.722244730635466, 50.607970788615759 ] } },
{ "type": "Feature", "properties": { "strassenschluessel": "05366000002809230", "bezeichnung": "Antoniushof" }, "geometry": null },
{ "type": "Feature", "properties": { "strassenschluessel": "05366000002809231", "bezeichnung": "Bergheimer Straße" }, "geometry": { "type": "Point", "coordinates": [ 6.633594885820434, 50.559904097699089 ] } },
{ "type": "Feature", "properties": { "strassenschluessel": "05366000002809232", "bezeichnung": "Kallmuther Straße" }, "geometry": { "type": "Point", "coordinates": [ 6.63390505284162, 50.559475673152086 ] } },
{ "type": "Feature", "properties": { "strassenschluessel": "05366000002809233", "bezeichnung": "Zum Pflugberg" }, "geometry": { "type": "Point", "coordinates": [ 6.631421881137124, 50.559403043862339 ] } },
{ "type": "Feature", "properties": { "strassenschluessel": "05366000002809234", "bezeichnung": "Masholderweg" }, "geometry": { "type": "Point", "coordinates": [ 6.640523501201195, 50.55938916454825 ] } },
{ "type": "Feature", "properties": { "strassenschluessel": "05366000002809235", "bezeichnung": "Michael-Schumacher-Straße" }, "geometry": { "type": "Point", "coordinates": [ 6.635856296270635, 50.559573065750037 ] } },
{ "type": "Feature", "properties": { "strassenschluessel": "05366000002809236", "bezeichnung": "Cäcilienhof" }, "geometry": { "type": "Point", "coordinates": [ 6.63771910676675, 50.563240190557813 ] } },
{ "type": "Feature", "properties": { "strassenschluessel": "05366000002809237", "bezeichnung": "Siedlung Schumacher" }, "geometry": { "type": "Point", "coordinates": [ 6.642899889625197, 50.559026947551096 ] } },
{ "type": "Feature", "properties": { "strassenschluessel": "05366000002809238", "bezeichnung": "Unter den Eichen" }, "geometry": { "type": "Point", "coordinates": [ 6.632055445781239, 50.559703754372045 ] } },
{ "type": "Feature", "properties": { "strassenschluessel": "05366000002809239", "bezeichnung": "Unterurholz" }, "geometry": { "type": "Point", "coordinates": [ 6.627902805171654, 50.566325189765543 ] } },
{ "type": "Feature", "properties": { "strassenschluessel": "05366000002809240", "bezeichnung": "Urholzer Weg" }, "geometry": { "type": "Point", "coordinates": [ 6.634297765397006, 50.561427912998958 ] } },
{ "type": "Feature", "properties": { "strassenschluessel": "05366000002809241", "bezeichnung": "Vussemer Straße" }, "geometry": { "type": "Point", "coordinates": [ 6.639839978037743, 50.559814300212238 ] } },
{ "type": "Feature", "properties": { "strassenschluessel": "05366000002809242", "bezeichnung": "Talstraße" }, "geometry": { "type": "Point", "coordinates": [ 6.63597223869819, 50.560337861381434 ] } },
{ "type": "Feature", "properties": { "strassenschluessel": "05366000002809255", "bezeichnung": "Auf der Bild" }, "geometry": { "type": "Point", "coordinates": [ 6.580109573207093, 50.58336804652032 ] } },
{ "type": "Feature", "properties": { "strassenschluessel": "05366000002809256", "bezeichnung": "Bachstraße" }, "geometry": { "type": "Point", "coordinates": [ 6.583258186146666, 50.581772069741277 ] } },
{ "type": "Feature", "properties": { "strassenschluessel": "05366000002809257", "bezeichnung": "Hochstraße" }, "geometry": { "type": "Point", "coordinates": [ 6.585331196575673, 50.583835679945281 ] } },
{ "type": "Feature", "properties": { "strassenschluessel": "05366000002809258", "bezeichnung": "Neustraße" }, "geometry": { "type": "Point", "coordinates": [ 6.585163219187566, 50.585539342279716 ] } },
{ "type": "Feature", "properties": { "strassenschluessel": "05366000002809259", "bezeichnung": "Schoßbachstraße" }, "geometry": { "type": "Point", "coordinates": [ 6.586381972096589, 50.584091079784223 ] } },
{ "type": "Feature", "properties": { "strassenschluessel": "05366000002809260", "bezeichnung": "Wachheckenweg" }, "geometry": { "type": "Point", "coordinates": [ 6.582863630705575, 50.586343201071529 ] } },
{ "type": "Feature", "properties": { "strassenschluessel": "05366000002809261", "bezeichnung": "Zum Forst" }, "geometry": { "type": "Point", "coordinates": [ 6.583620754982603, 50.587458932339906 ] } },
{ "type": "Feature", "properties": { "strassenschluessel": "05366000002809270", "bezeichnung": "An den Birken" }, "geometry": { "type": "Point", "coordinates": [ 6.658889353656253, 50.586781552143378 ] } },
{ "type": "Feature", "properties": { "strassenschluessel": "05366000002809271", "bezeichnung": "An der Linde" }, "geometry": null },
{ "type": "Feature", "properties": { "strassenschluessel": "05366000002809272", "bezeichnung": "An der Kirche" }, "geometry": { "type": "Point", "coordinates": [ 6.654177253945685, 50.592575067896917 ] } },
{ "type": "Feature", "properties": { "strassenschluessel": "05366000002809273", "bezeichnung": "Arenbergstraße" }, "geometry": { "type": "Point", "coordinates": [ 6.647906713175586, 50.590338731866559 ] } },
{ "type": "Feature", "properties": { "strassenschluessel": "05366000002809274", "bezeichnung": "Auf dem Lappen" }, "geometry": { "type": "Point", "coordinates": [ 6.655434328129376, 50.587252519745206 ] } },
{ "type": "Feature", "properties": { "strassenschluessel": "05366000002809275", "bezeichnung": "Auf der Kier" }, "geometry": { "type": "Point", "coordinates": [ 6.659866284347395, 50.595167055459633 ] } },
{ "type": "Feature", "properties": { "strassenschluessel": "05366000002809276", "bezeichnung": "Auf der Ley" }, "geometry": { "type": "Point", "coordinates": [ 6.653481807853449, 50.594137625442421 ] } },
{ "type": "Feature", "properties": { "strassenschluessel": "05366000002809277", "bezeichnung": "Bahnstraße" }, "geometry": { "type": "Point", "coordinates": [ 6.649883946067342, 50.591261470599079 ] } },
{ "type": "Feature", "properties": { "strassenschluessel": "05366000002809278", "bezeichnung": "Bergstraße" }, "geometry": { "type": "Point", "coordinates": [ 6.651306748461971, 50.590567582762667 ] } },
{ "type": "Feature", "properties": { "strassenschluessel": "05366000002809279", "bezeichnung": "Blankenheimstraße" }, "geometry": { "type": "Point", "coordinates": [ 6.649542367759293, 50.590740309156828 ] } },
{ "type": "Feature", "properties": { "strassenschluessel": "05366000002809280", "bezeichnung": "Bleibergstraße" }, "geometry": { "type": "Point", "coordinates": [ 6.649349521100313, 50.586250970338909 ] } },
{ "type": "Feature", "properties": { "strassenschluessel": "05366000002809281", "bezeichnung": "Bruchgasse" }, "geometry": { "type": "Point", "coordinates": [ 6.659941058847075, 50.58966598765695 ] } },
{ "type": "Feature", "properties": { "strassenschluessel": "05366000002809282", "bezeichnung": "Burgfey" }, "geometry": { "type": "Point", "coordinates": [ 6.673426293061027, 50.592570187562515 ] } },
{ "type": "Feature", "properties": { "strassenschluessel": "05366000002809283", "bezeichnung": "Emil-Kreuser-Straße" }, "geometry": { "type": "Point", "coordinates": [ 6.647905980581656, 50.588565287533882 ] } },
{ "type": "Feature", "properties": { "strassenschluessel": "05366000002809284", "bezeichnung": "Erlenbusch" }, "geometry": { "type": "Point", "coordinates": [ 6.658209842469141, 50.5871853881848 ] } },
{ "type": "Feature", "properties": { "strassenschluessel": "05366000002809285", "bezeichnung": "Feyermühle" }, "geometry": { "type": "Point", "coordinates": [ 6.673802611107559, 50.587863824587387 ] } },
{ "type": "Feature", "properties": { "strassenschluessel": "05366000002809286", "bezeichnung": "Feytalstraße" }, "geometry": { "type": "Point", "coordinates": [ 6.657643117924137, 50.59197848318631 ] } },
{ "type": "Feature", "properties": { "strassenschluessel": "05366000002809287", "bezeichnung": "Friedrich-Wilhelm-Straße" }, "geometry": { "type": "Point", "coordinates": [ 6.645184789959195, 50.589842975031594 ] } },
{ "type": "Feature", "properties": { "strassenschluessel": "05366000002809288", "bezeichnung": "Gartenstraße" }, "geometry": { "type": "Point", "coordinates": [ 6.654114072275398, 50.58892727046323 ] } },
{ "type": "Feature", "properties": { "strassenschluessel": "05366000002809289", "bezeichnung": "Geheimrat-Weber-Straße" }, "geometry": { "type": "Point", "coordinates": [ 6.647402601862888, 50.592829458799329 ] } },
{ "type": "Feature", "properties": { "strassenschluessel": "05366000002809290", "bezeichnung": "Glück-Auf-Straße" }, "geometry": { "type": "Point", "coordinates": [ 6.651742602258094, 50.58715886830764 ] } },
{ "type": "Feature", "properties": { "strassenschluessel": "05366000002809291", "bezeichnung": "Günnersdorfer Straße" }, "geometry": { "type": "Point", "coordinates": [ 6.652208211113872, 50.586619543125764 ] } },
{ "type": "Feature", "properties": { "strassenschluessel": "05366000002809292", "bezeichnung": "Heerstraße" }, "geometry": { "type": "Point", "coordinates": [ 6.652625840036387, 50.588547456374627 ] } },
{ "type": "Feature", "properties": { "strassenschluessel": "05366000002809293", "bezeichnung": "Heideweg" }, "geometry": { "type": "Point", "coordinates": [ 6.659937172100276, 50.587268384261492 ] } },
{ "type": "Feature", "properties": { "strassenschluessel": "05366000002809294", "bezeichnung": "Hintere Bergstraße" }, "geometry": { "type": "Point", "coordinates": [ 6.652720917310259, 50.59051356798583 ] } },
{ "type": "Feature", "properties": { "strassenschluessel": "05366000002809295", "bezeichnung": "Hubert-Roggendorf-Straße" }, "geometry": { "type": "Point", "coordinates": [ 6.646522493850528, 50.591822967336469 ] } },
{ "type": "Feature", "properties": { "strassenschluessel": "05366000002809296", "bezeichnung": "Hüttenstraße" }, "geometry": { "type": "Point", "coordinates": [ 6.650773140212727, 50.586055946599373 ] } },
{ "type": "Feature", "properties": { "strassenschluessel": "05366000002809297", "bezeichnung": "Im Distelchen" }, "geometry": { "type": "Point", "coordinates": [ 6.647425684546478, 50.593231659901058 ] } },
{ "type": "Feature", "properties": { "strassenschluessel": "05366000002809298", "bezeichnung": "Im Höfchen" }, "geometry": { "type": "Point", "coordinates": [ 6.657608919329681, 50.592667275099188 ] } },
{ "type": "Feature", "properties": { "strassenschluessel": "05366000002809299", "bezeichnung": "Im Sande" }, "geometry": { "type": "Point", "coordinates": [ 6.65050981664302, 50.588048504647098 ] } },
{ "type": "Feature", "properties": { "strassenschluessel": "05366000002809300", "bezeichnung": "Im Schmidtenloch" }, "geometry": { "type": "Point", "coordinates": [ 6.648503274959148, 50.595446796582408 ] } },
{ "type": "Feature", "properties": { "strassenschluessel": "05366000002809301", "bezeichnung": "Im Steinrausch" }, "geometry": { "type": "Point", "coordinates": [ 6.658150639853504, 50.593079744716235 ] } },
{ "type": "Feature", "properties": { "strassenschluessel": "05366000002809302", "bezeichnung": "In der Hardt" }, "geometry": { "type": "Point", "coordinates": [ 6.657692388792221, 50.587643300240941 ] } },
{ "type": "Feature", "properties": { "strassenschluessel": "05366000002809303", "bezeichnung": "Johannesweg" }, "geometry": { "type": "Point", "coordinates": [ 6.64881297291207, 50.593686665761069 ] } },
{ "type": "Feature", "properties": { "strassenschluessel": "05366000002809304", "bezeichnung": "Knappenweg" }, "geometry": { "type": "Point", "coordinates": [ 6.643122916852585, 50.592027049575428 ] } },
{ "type": "Feature", "properties": { "strassenschluessel": "05366000002809305", "bezeichnung": "Kettelerstraße" }, "geometry": { "type": "Point", "coordinates": [ 6.648450845651072, 50.591968058481335 ] } },
{ "type": "Feature", "properties": { "strassenschluessel": "05366000002809306", "bezeichnung": "Kiefernweg" }, "geometry": { "type": "Point", "coordinates": [ 6.661912282736645, 50.588131151565861 ] } },
{ "type": "Feature", "properties": { "strassenschluessel": "05366000002809307", "bezeichnung": "Kolpingstraße" }, "geometry": { "type": "Point", "coordinates": [ 6.648314986985064, 50.592438879934761 ] } },
{ "type": "Feature", "properties": { "strassenschluessel": "05366000002809308", "bezeichnung": "Marienau" }, "geometry": { "type": "Point", "coordinates": [ 6.641693771127462, 50.594032527765684 ] } },
{ "type": "Feature", "properties": { "strassenschluessel": "05366000002809309", "bezeichnung": "Meinertzhagener Straße" }, "geometry": { "type": "Point", "coordinates": [ 6.647095800931061, 50.587835968651873 ] } },
{ "type": "Feature", "properties": { "strassenschluessel": "05366000002809310", "bezeichnung": "Nyonsplatz" }, "geometry": { "type": "Point", "coordinates": [ 6.657573461978616, 50.590223605052522 ] } },
{ "type": "Feature", "properties": { "strassenschluessel": "05366000002809311", "bezeichnung": "Oberfeldweg" }, "geometry": { "type": "Point", "coordinates": [ 6.652251243059204, 50.593727409033626 ] } },
{ "type": "Feature", "properties": { "strassenschluessel": "05366000002809312", "bezeichnung": "Pastor-Harff-Weg" }, "geometry": { "type": "Point", "coordinates": [ 6.653848092994337, 50.593308411303653 ] } },
{ "type": "Feature", "properties": { "strassenschluessel": "05366000002809313", "bezeichnung": "Peterheide" }, "geometry": { "type": "Point", "coordinates": [ 6.643663262501904, 50.587428799742391 ] } },
{ "type": "Feature", "properties": { "strassenschluessel": "05366000002809314", "bezeichnung": "Rathergasse" }, "geometry": { "type": "Point", "coordinates": [ 6.654610500820261, 50.588476919750384 ] } },
{ "type": "Feature", "properties": { "strassenschluessel": "05366000002809315", "bezeichnung": "Rosengraben" }, "geometry": { "type": "Point", "coordinates": [ 6.653581703864107, 50.585874695738525 ] } },
{ "type": "Feature", "properties": { "strassenschluessel": "05366000002809316", "bezeichnung": "St.-Elisabeth-Straße" }, "geometry": { "type": "Point", "coordinates": [ 6.649763372012183, 50.592726576938936 ] } },
{ "type": "Feature", "properties": { "strassenschluessel": "05366000002809317", "bezeichnung": "St.-Florian-Straße" }, "geometry": { "type": "Point", "coordinates": [ 6.654453968388029, 50.589638215366456 ] } },
{ "type": "Feature", "properties": { "strassenschluessel": "05366000002809318", "bezeichnung": "Schimmelsweg" }, "geometry": { "type": "Point", "coordinates": [ 6.653285146079539, 50.595512298174775 ] } },
{ "type": "Feature", "properties": { "strassenschluessel": "05366000002809320", "bezeichnung": "Stiftsweg" }, "geometry": { "type": "Point", "coordinates": [ 6.645325591979021, 50.591552611629076 ] } },
{ "type": "Feature", "properties": { "strassenschluessel": "05366000002809321", "bezeichnung": "Turmhofstraße" }, "geometry": { "type": "Point", "coordinates": [ 6.656652659667851, 50.589708763051796 ] } },
{ "type": "Feature", "properties": { "strassenschluessel": "05366000002809323", "bezeichnung": "Weierstraße" }, "geometry": { "type": "Point", "coordinates": [ 6.653204786677791, 50.589859269403703 ] } },
{ "type": "Feature", "properties": { "strassenschluessel": "05366000002809324", "bezeichnung": "Dietrich-Bonhoeffer-Straße" }, "geometry": { "type": "Point", "coordinates": [ 6.654245732340931, 50.597030512775888 ] } },
{ "type": "Feature", "properties": { "strassenschluessel": "05366000002809325", "bezeichnung": "Fichtenweg" }, "geometry": null },
{ "type": "Feature", "properties": { "strassenschluessel": "05366000002809326", "bezeichnung": "Friedlandstraße" }, "geometry": { "type": "Point", "coordinates": [ 6.662455565705993, 50.592331053383731 ] } },
{ "type": "Feature", "properties": { "strassenschluessel": "05366000002809327", "bezeichnung": "Ginsterweg" }, "geometry": { "type": "Point", "coordinates": [ 6.658515915160806, 50.594365257403439 ] } },
{ "type": "Feature", "properties": { "strassenschluessel": "05366000002809328", "bezeichnung": "Goldkaul" }, "geometry": { "type": "Point", "coordinates": [ 6.661863779959667, 50.592409017443416 ] } },
{ "type": "Feature", "properties": { "strassenschluessel": "05366000002809329", "bezeichnung": "Hitzenbachstraße" }, "geometry": { "type": "Point", "coordinates": [ 6.654365212195081, 50.586165044198744 ] } },
{ "type": "Feature", "properties": { "strassenschluessel": "05366000002809330", "bezeichnung": "Kirchforst" }, "geometry": { "type": "Point", "coordinates": [ 6.654089671427023, 50.597610595288778 ] } },
{ "type": "Feature", "properties": { "strassenschluessel": "05366000002809331", "bezeichnung": "Lehrer-Philipp-Schumacher-Straße" }, "geometry": { "type": "Point", "coordinates": [ 6.657263164532494, 50.593853917829321 ] } },
{ "type": "Feature", "properties": { "strassenschluessel": "05366000002809332", "bezeichnung": "Nesselrodestraße" }, "geometry": { "type": "Point", "coordinates": [ 6.656357240832069, 50.587355003365921 ] } },
{ "type": "Feature", "properties": { "strassenschluessel": "05366000002809333", "bezeichnung": "Rotdornweg" }, "geometry": { "type": "Point", "coordinates": [ 6.665201668688209, 50.592060281024629 ] } },
{ "type": "Feature", "properties": { "strassenschluessel": "05366000002809334", "bezeichnung": "Am Eichenhang" }, "geometry": { "type": "Point", "coordinates": [ 6.659436274845428, 50.593722103396864 ] } },
{ "type": "Feature", "properties": { "strassenschluessel": "05366000002809335", "bezeichnung": "Dr.-Felix-Gerhardus-Straße" }, "geometry": { "type": "Point", "coordinates": [ 6.656134664555022, 50.59003533637928 ] } },
{ "type": "Feature", "properties": { "strassenschluessel": "05366000002809336", "bezeichnung": "Siedlung Zimmermann" }, "geometry": { "type": "Point", "coordinates": [ 6.666625329007413, 50.583988752836468 ] } },
{ "type": "Feature", "properties": { "strassenschluessel": "05366000002809338", "bezeichnung": "Zum Markt" }, "geometry": { "type": "Point", "coordinates": [ 6.655339407443794, 50.590632152238904 ] } },
{ "type": "Feature", "properties": { "strassenschluessel": "05366000002809339", "bezeichnung": "Heinrich-Heidenthal-Straße" }, "geometry": { "type": "Point", "coordinates": [ 6.6563852427953, 50.590994895475944 ] } },
{ "type": "Feature", "properties": { "strassenschluessel": "05366000002809340", "bezeichnung": "Am Haselbusch" }, "geometry": { "type": "Point", "coordinates": [ 6.662368192357099, 50.596036315138711 ] } },
{ "type": "Feature", "properties": { "strassenschluessel": "05366000002809341", "bezeichnung": "An der Barbarakapelle" }, "geometry": { "type": "Point", "coordinates": [ 6.656983773693161, 50.597997136395676 ] } },
{ "type": "Feature", "properties": { "strassenschluessel": "05366000002809342", "bezeichnung": "Eibenweg" }, "geometry": { "type": "Point", "coordinates": [ 6.658237676409418, 50.5971623816814 ] } },
{ "type": "Feature", "properties": { "strassenschluessel": "05366000002809343", "bezeichnung": "Fernblick" }, "geometry": { "type": "Point", "coordinates": [ 6.65869646391952, 50.598862417698086 ] } },
{ "type": "Feature", "properties": { "strassenschluessel": "05366000002809344", "bezeichnung": "Filskaul" }, "geometry": { "type": "Point", "coordinates": [ 6.660089750101403, 50.599052139573459 ] } },
{ "type": "Feature", "properties": { "strassenschluessel": "05366000002809345", "bezeichnung": "Kastanienweg" }, "geometry": { "type": "Point", "coordinates": [ 6.657686286039916, 50.597535349995759 ] } },
{ "type": "Feature", "properties": { "strassenschluessel": "05366000002809346", "bezeichnung": "Lavendelweg" }, "geometry": { "type": "Point", "coordinates": [ 6.657648065819858, 50.597848833680786 ] } },
{ "type": "Feature", "properties": { "strassenschluessel": "05366000002809347", "bezeichnung": "Olivenweg" }, "geometry": { "type": "Point", "coordinates": [ 6.65940979825286, 50.59903454236261 ] } },
{ "type": "Feature", "properties": { "strassenschluessel": "05366000002809348", "bezeichnung": "Pfarrer-Nailis-Weg" }, "geometry": { "type": "Point", "coordinates": [ 6.656342377499819, 50.598606049882818 ] } },
{ "type": "Feature", "properties": { "strassenschluessel": "05366000002809349", "bezeichnung": "Pfarrer-Pensky-Weg" }, "geometry": { "type": "Point", "coordinates": [ 6.656022706930079, 50.599465549961387 ] } },
{ "type": "Feature", "properties": { "strassenschluessel": "05366000002809350", "bezeichnung": "Pfarrer-Schröer-Weg" }, "geometry": { "type": "Point", "coordinates": [ 6.654753193364809, 50.598632929341441 ] } },
{ "type": "Feature", "properties": { "strassenschluessel": "05366000002809351", "bezeichnung": "Provenceweg" }, "geometry": { "type": "Point", "coordinates": [ 6.658317611150085, 50.598292314121487 ] } },
{ "type": "Feature", "properties": { "strassenschluessel": "05366000002809352", "bezeichnung": "Schwester-Anna-Huberta-Weg" }, "geometry": { "type": "Point", "coordinates": [ 6.659937164194648, 50.596480267278025 ] } },
{ "type": "Feature", "properties": { "strassenschluessel": "05366000002809353", "bezeichnung": "Zum Schwarzen Baum" }, "geometry": { "type": "Point", "coordinates": [ 6.657777211380306, 50.598810811316334 ] } },
{ "type": "Feature", "properties": { "strassenschluessel": "05366000002809355", "bezeichnung": "Andreas-Girkens-Straße" }, "geometry": { "type": "Point", "coordinates": [ 6.660302517851295, 50.588564624348528 ] } },
{ "type": "Feature", "properties": { "strassenschluessel": "05366000002809356", "bezeichnung": "Walnußweg" }, "geometry": { "type": "Point", "coordinates": [ 6.660432066220441, 50.596818811663169 ] } },
{ "type": "Feature", "properties": { "strassenschluessel": "05366000002809357", "bezeichnung": "Vierwege" }, "geometry": { "type": "Point", "coordinates": [ 6.670370198890136, 50.58769718016346 ] } },
{ "type": "Feature", "properties": { "strassenschluessel": "05366000002809358", "bezeichnung": "Neuer Markt" }, "geometry": null },
{ "type": "Feature", "properties": { "strassenschluessel": "05366000002809359", "bezeichnung": "Gartenplatz" }, "geometry": null },