{
"type": "FeatureCollection",
"features": [
{ "type": "Feature", "properties": { "strassenschluessel": "05962000003608901", "bezeichnung": "Bodelschwinghstraße" }, "geometry": { "type": "Point", "coordinates": [ 7.6430444374271, 51.109588018030315 ] } },
{ "type": "Feature", "properties": { "strassenschluessel": "05962000003608902", "bezeichnung": "Hauptstraße" }, "geometry": { "type": "Point", "coordinates": [ 7.640238346860098, 51.106570818393422 ] } },
{ "type": "Feature", "properties": { "strassenschluessel": "05962000003608903", "bezeichnung": "Im Hasenkamp" }, "geometry": { "type": "Point", "coordinates": [ 7.640537426126395, 51.110158052503657 ] } },
{ "type": "Feature", "properties": { "strassenschluessel": "05962000003608904", "bezeichnung": "Lindenstraße" }, "geometry": { "type": "Point", "coordinates": [ 7.643641724163623, 51.106522006237256 ] } },
{ "type": "Feature", "properties": { "strassenschluessel": "05962000003608905", "bezeichnung": "An der Volme" }, "geometry": null },
{ "type": "Feature", "properties": { "strassenschluessel": "05962000003608906", "bezeichnung": "Mühlenbergstraße" }, "geometry": { "type": "Point", "coordinates": [ 7.644502764596112, 51.110472790741873 ] } },
{ "type": "Feature", "properties": { "strassenschluessel": "05962000003608907", "bezeichnung": "Prumbomweg" }, "geometry": { "type": "Point", "coordinates": [ 7.641029122560164, 51.106809510906949 ] } },
{ "type": "Feature", "properties": { "strassenschluessel": "05962000003608908", "bezeichnung": "Schulplatz" }, "geometry": { "type": "Point", "coordinates": [ 7.642899331295087, 51.108597703388668 ] } },
{ "type": "Feature", "properties": { "strassenschluessel": "05962000003608909", "bezeichnung": "Teichstraße" }, "geometry": { "type": "Point", "coordinates": [ 7.640798794042796, 51.107595453906249 ] } },
{ "type": "Feature", "properties": { "strassenschluessel": "05962000003608910", "bezeichnung": "Zur Alten Post" }, "geometry": { "type": "Point", "coordinates": [ 7.638823631329623, 51.107395782653967 ] } },
{ "type": "Feature", "properties": { "strassenschluessel": "05962000003608911", "bezeichnung": "An der Stadthalle" }, "geometry": null },
{ "type": "Feature", "properties": { "strassenschluessel": "05962000003608912", "bezeichnung": "Am Bücking" }, "geometry": { "type": "Point", "coordinates": [ 7.636881235529389, 51.113819058127554 ] } },
{ "type": "Feature", "properties": { "strassenschluessel": "05962000003608913", "bezeichnung": "An der Woeste" }, "geometry": { "type": "Point", "coordinates": [ 7.627084390894826, 51.108664364828876 ] } },
{ "type": "Feature", "properties": { "strassenschluessel": "05962000003608914", "bezeichnung": "Auf dem Bamberg" }, "geometry": { "type": "Point", "coordinates": [ 7.63311108709097, 51.10986622985827 ] } },
{ "type": "Feature", "properties": { "strassenschluessel": "05962000003608915", "bezeichnung": "Bahnhofstraße" }, "geometry": { "type": "Point", "coordinates": [ 7.636119404994446, 51.108236206761859 ] } },
{ "type": "Feature", "properties": { "strassenschluessel": "05962000003608916", "bezeichnung": "Chr.-Friedr.-Baehrens-Str" }, "geometry": { "type": "Point", "coordinates": [ 7.634096941366853, 51.109327711753117 ] } },
{ "type": "Feature", "properties": { "strassenschluessel": "05962000003608917", "bezeichnung": "Eduard-Fittig-Straße" }, "geometry": { "type": "Point", "coordinates": [ 7.63456185662718, 51.109107529279605 ] } },
{ "type": "Feature", "properties": { "strassenschluessel": "05962000003608918", "bezeichnung": "Ginsterweg" }, "geometry": { "type": "Point", "coordinates": [ 7.636847504335244, 51.113331107893515 ] } },
{ "type": "Feature", "properties": { "strassenschluessel": "05962000003608919", "bezeichnung": "Hahnenbecke" }, "geometry": { "type": "Point", "coordinates": [ 7.624972007404335, 51.110370066316349 ] } },
{ "type": "Feature", "properties": { "strassenschluessel": "05962000003608920", "bezeichnung": "Im Kötgen" }, "geometry": { "type": "Point", "coordinates": [ 7.633126710236602, 51.111375685639487 ] } },
{ "type": "Feature", "properties": { "strassenschluessel": "05962000003608921", "bezeichnung": "Im Tempel" }, "geometry": { "type": "Point", "coordinates": [ 7.629692029690967, 51.108269162532572 ] } },
{ "type": "Feature", "properties": { "strassenschluessel": "05962000003608922", "bezeichnung": "Ölmühle" }, "geometry": null },
{ "type": "Feature", "properties": { "strassenschluessel": "05962000003608923", "bezeichnung": "Unterm Bamberg" }, "geometry": { "type": "Point", "coordinates": [ 7.636645971287788, 51.108404804518479 ] } },
{ "type": "Feature", "properties": { "strassenschluessel": "05962000003608924", "bezeichnung": "Volmestraße" }, "geometry": { "type": "Point", "coordinates": [ 7.639516051493588, 51.111308265553994 ] } },
{ "type": "Feature", "properties": { "strassenschluessel": "05962000003608925", "bezeichnung": "Weststraße" }, "geometry": { "type": "Point", "coordinates": [ 7.632753785207628, 51.108433813214575 ] } },
{ "type": "Feature", "properties": { "strassenschluessel": "05962000003608926", "bezeichnung": "Zum Leier Hölzchen" }, "geometry": { "type": "Point", "coordinates": [ 7.637128070717813, 51.109159090629497 ] } },
{ "type": "Feature", "properties": { "strassenschluessel": "05962000003608927", "bezeichnung": "Schnörrenbach" }, "geometry": null },
{ "type": "Feature", "properties": { "strassenschluessel": "05962000003608937", "bezeichnung": "Am Heerhof" }, "geometry": { "type": "Point", "coordinates": [ 7.64512430664343, 51.115928514348468 ] } },
{ "type": "Feature", "properties": { "strassenschluessel": "05962000003608938", "bezeichnung": "Auf der Freiheit" }, "geometry": { "type": "Point", "coordinates": [ 7.650418393561458, 51.1123395263904 ] } },
{ "type": "Feature", "properties": { "strassenschluessel": "05962000003608939", "bezeichnung": "Eichholz" }, "geometry": { "type": "Point", "coordinates": [ 7.635135183531492, 51.114966051772797 ] } },
{ "type": "Feature", "properties": { "strassenschluessel": "05962000003608940", "bezeichnung": "Eichholzstraße" }, "geometry": { "type": "Point", "coordinates": [ 7.634272727290233, 51.11608538505061 ] } },
{ "type": "Feature", "properties": { "strassenschluessel": "05962000003608941", "bezeichnung": "Grünenbecke" }, "geometry": { "type": "Point", "coordinates": [ 7.643070368580227, 51.11757506360572 ] } },
{ "type": "Feature", "properties": { "strassenschluessel": "05962000003608942", "bezeichnung": "Grünenbecker Weg" }, "geometry": { "type": "Point", "coordinates": [ 7.632347504955874, 51.117431855186332 ] } },
{ "type": "Feature", "properties": { "strassenschluessel": "05962000003608943", "bezeichnung": "Hangweg" }, "geometry": { "type": "Point", "coordinates": [ 7.641154061685494, 51.113606923501266 ] } },
{ "type": "Feature", "properties": { "strassenschluessel": "05962000003608944", "bezeichnung": "Hegelweg" }, "geometry": { "type": "Point", "coordinates": [ 7.651768391865091, 51.116220209925849 ] } },
{ "type": "Feature", "properties": { "strassenschluessel": "05962000003608945", "bezeichnung": "Inselweg" }, "geometry": { "type": "Point", "coordinates": [ 7.646732145844608, 51.110504668591325 ] } },
{ "type": "Feature", "properties": { "strassenschluessel": "05962000003608946", "bezeichnung": "Jägerstraße" }, "geometry": { "type": "Point", "coordinates": [ 7.647716297214969, 51.11547893281881 ] } },
{ "type": "Feature", "properties": { "strassenschluessel": "05962000003608947", "bezeichnung": "Lessingstraße" }, "geometry": { "type": "Point", "coordinates": [ 7.651867160173523, 51.115643990086291 ] } },
{ "type": "Feature", "properties": { "strassenschluessel": "05962000003608948", "bezeichnung": "Nietzscheweg" }, "geometry": { "type": "Point", "coordinates": [ 7.651388168042383, 51.115964978460148 ] } },
{ "type": "Feature", "properties": { "strassenschluessel": "05962000003608949", "bezeichnung": "Philosophenweg" }, "geometry": { "type": "Point", "coordinates": [ 7.648283522730103, 51.1155309417341 ] } },
{ "type": "Feature", "properties": { "strassenschluessel": "05962000003608950", "bezeichnung": "Talstraße" }, "geometry": { "type": "Point", "coordinates": [ 7.643401965928367, 51.11473399562427 ] } },
{ "type": "Feature", "properties": { "strassenschluessel": "05962000003608951", "bezeichnung": "Tannenburgstraße" }, "geometry": { "type": "Point", "coordinates": [ 7.646845427287114, 51.114988477129216 ] } },
{ "type": "Feature", "properties": { "strassenschluessel": "05962000003608952", "bezeichnung": "Weißenpferd" }, "geometry": { "type": "Point", "coordinates": [ 7.632195631453317, 51.118952677414597 ] } },
{ "type": "Feature", "properties": { "strassenschluessel": "05962000003608953", "bezeichnung": "Ijsselmuidener Straße" }, "geometry": { "type": "Point", "coordinates": [ 7.641160103285283, 51.1151309412069 ] } },
{ "type": "Feature", "properties": { "strassenschluessel": "05962000003608954", "bezeichnung": "St.-Cyr-Allee" }, "geometry": { "type": "Point", "coordinates": [ 7.641382663648738, 51.115572576753635 ] } },
{ "type": "Feature", "properties": { "strassenschluessel": "05962000003608955", "bezeichnung": "Überm Hofe" }, "geometry": { "type": "Point", "coordinates": [ 7.646827362454426, 51.117135203039815 ] } },
{ "type": "Feature", "properties": { "strassenschluessel": "05962000003608963", "bezeichnung": "Amselweg" }, "geometry": { "type": "Point", "coordinates": [ 7.645583853735439, 51.112674738669696 ] } },
{ "type": "Feature", "properties": { "strassenschluessel": "05962000003608964", "bezeichnung": "Birkeshöhstraße" }, "geometry": { "type": "Point", "coordinates": [ 7.646395103204597, 51.11370701685172 ] } },
{ "type": "Feature", "properties": { "strassenschluessel": "05962000003608965", "bezeichnung": "Drosselweg" }, "geometry": { "type": "Point", "coordinates": [ 7.644962663067078, 51.112884016979706 ] } },
{ "type": "Feature", "properties": { "strassenschluessel": "05962000003608966", "bezeichnung": "Finkenweg" }, "geometry": { "type": "Point", "coordinates": [ 7.644818457262671, 51.112282683945004 ] } },
{ "type": "Feature", "properties": { "strassenschluessel": "05962000003608967", "bezeichnung": "Im Kumpenhahn" }, "geometry": { "type": "Point", "coordinates": [ 7.643319513664085, 51.111107002001958 ] } },
{ "type": "Feature", "properties": { "strassenschluessel": "05962000003608968", "bezeichnung": "Lerchenweg" }, "geometry": null },
{ "type": "Feature", "properties": { "strassenschluessel": "05962000003608969", "bezeichnung": "Meisenweg" }, "geometry": { "type": "Point", "coordinates": [ 7.643683473971657, 51.112362347230473 ] } },
{ "type": "Feature", "properties": { "strassenschluessel": "05962000003608970", "bezeichnung": "Schwalbenweg" }, "geometry": { "type": "Point", "coordinates": [ 7.646473200921221, 51.112735271854895 ] } },
{ "type": "Feature", "properties": { "strassenschluessel": "05962000003608971", "bezeichnung": "Starenweg" }, "geometry": { "type": "Point", "coordinates": [ 7.644258613410057, 51.11231578905933 ] } },
{ "type": "Feature", "properties": { "strassenschluessel": "05962000003608972", "bezeichnung": "Taubenweg" }, "geometry": { "type": "Point", "coordinates": [ 7.646136968033539, 51.112402231399436 ] } },
{ "type": "Feature", "properties": { "strassenschluessel": "05962000003608973", "bezeichnung": "Zeisigweg" }, "geometry": { "type": "Point", "coordinates": [ 7.646838461782116, 51.113001074959186 ] } },
{ "type": "Feature", "properties": { "strassenschluessel": "05962000003608974", "bezeichnung": "Zur Birkeshöh" }, "geometry": null },
{ "type": "Feature", "properties": { "strassenschluessel": "05962000003608975", "bezeichnung": "Auf der Leye" }, "geometry": { "type": "Point", "coordinates": [ 7.651870891822323, 51.111592349754012 ] } },
{ "type": "Feature", "properties": { "strassenschluessel": "05962000003608976", "bezeichnung": "Elberscheidtstraße" }, "geometry": { "type": "Point", "coordinates": [ 7.650376043138563, 51.109838700288748 ] } },
{ "type": "Feature", "properties": { "strassenschluessel": "05962000003608977", "bezeichnung": "Haarbrinkstraße" }, "geometry": { "type": "Point", "coordinates": [ 7.647024344458506, 51.109227152501354 ] } },
{ "type": "Feature", "properties": { "strassenschluessel": "05962000003608979", "bezeichnung": "Dränkerkampstraße" }, "geometry": { "type": "Point", "coordinates": [ 7.64635691216071, 51.108465690245637 ] } },
{ "type": "Feature", "properties": { "strassenschluessel": "05962000003608980", "bezeichnung": "Fröbelstraße" }, "geometry": { "type": "Point", "coordinates": [ 7.652183914311565, 51.109693124822371 ] } },
{ "type": "Feature", "properties": { "strassenschluessel": "05962000003608981", "bezeichnung": "Korbecke" }, "geometry": { "type": "Point", "coordinates": [ 7.656732471733279, 51.11011254277058 ] } },
{ "type": "Feature", "properties": { "strassenschluessel": "05962000003608982", "bezeichnung": "Korbecker Weg" }, "geometry": { "type": "Point", "coordinates": [ 7.651280781331465, 51.10829955460035 ] } },
{ "type": "Feature", "properties": { "strassenschluessel": "05962000003608983", "bezeichnung": "Mühlenweg" }, "geometry": { "type": "Point", "coordinates": [ 7.645630301041747, 51.10809821721972 ] } },
{ "type": "Feature", "properties": { "strassenschluessel": "05962000003608984", "bezeichnung": "Oberkorbecke" }, "geometry": { "type": "Point", "coordinates": [ 7.658806816249258, 51.112209945621423 ] } },
{ "type": "Feature", "properties": { "strassenschluessel": "05962000003608985", "bezeichnung": "Siepener Weg" }, "geometry": { "type": "Point", "coordinates": [ 7.652991475578468, 51.113797173656565 ] } },
{ "type": "Feature", "properties": { "strassenschluessel": "05962000003608986", "bezeichnung": "Werlsiepen" }, "geometry": { "type": "Point", "coordinates": [ 7.655067593293651, 51.113328094950461 ] } },
{ "type": "Feature", "properties": { "strassenschluessel": "05962000003608987", "bezeichnung": "Goethestraße" }, "geometry": { "type": "Point", "coordinates": [ 7.662686978248093, 51.110470588782746 ] } },
{ "type": "Feature", "properties": { "strassenschluessel": "05962000003608988", "bezeichnung": "Heinestraße" }, "geometry": { "type": "Point", "coordinates": [ 7.659532419403284, 51.11137333506899 ] } },
{ "type": "Feature", "properties": { "strassenschluessel": "05962000003608989", "bezeichnung": "Kleiststraße" }, "geometry": { "type": "Point", "coordinates": [ 7.659872974787502, 51.115075258317191 ] } },
{ "type": "Feature", "properties": { "strassenschluessel": "05962000003608990", "bezeichnung": "Mörikeweg" }, "geometry": { "type": "Point", "coordinates": [ 7.662200342111801, 51.113205392920513 ] } },
{ "type": "Feature", "properties": { "strassenschluessel": "05962000003608991", "bezeichnung": "Schillerstraße" }, "geometry": { "type": "Point", "coordinates": [ 7.657203421898663, 51.110571821785612 ] } },
{ "type": "Feature", "properties": { "strassenschluessel": "05962000003608992", "bezeichnung": "Uhlandweg" }, "geometry": { "type": "Point", "coordinates": [ 7.664524493228252, 51.111338421258289 ] } },
{ "type": "Feature", "properties": { "strassenschluessel": "05962000003608993", "bezeichnung": "Schulzentrum Rothenstein" }, "geometry": { "type": "Point", "coordinates": [ 7.660425990173008, 51.107466282526502 ] } },
{ "type": "Feature", "properties": { "strassenschluessel": "05962000003608994", "bezeichnung": "Droste-Hülshoff-Weg" }, "geometry": { "type": "Point", "coordinates": [ 7.663894077072116, 51.112676143265425 ] } },
{ "type": "Feature", "properties": { "strassenschluessel": "05962000003608995", "bezeichnung": "Jomendorfer Weg" }, "geometry": { "type": "Point", "coordinates": [ 7.653712472848539, 51.115150852766163 ] } },
{ "type": "Feature", "properties": { "strassenschluessel": "05962000003608996", "bezeichnung": "Karlsbader Weg" }, "geometry": { "type": "Point", "coordinates": [ 7.653333241832081, 51.113023382063425 ] } },
{ "type": "Feature", "properties": { "strassenschluessel": "05962000003608997", "bezeichnung": "Reichenberger Weg" }, "geometry": { "type": "Point", "coordinates": [ 7.653763944698547, 51.113708192440299 ] } },
{ "type": "Feature", "properties": { "strassenschluessel": "05962000003609002", "bezeichnung": "Am Rottland" }, "geometry": { "type": "Point", "coordinates": [ 7.677919038529931, 51.095672355393027 ] } },
{ "type": "Feature", "properties": { "strassenschluessel": "05962000003609003", "bezeichnung": "Am Tarrenbrink" }, "geometry": { "type": "Point", "coordinates": [ 7.674097998420885, 51.0997114230615 ] } },
{ "type": "Feature", "properties": { "strassenschluessel": "05962000003609004", "bezeichnung": "An der Schwenke" }, "geometry": { "type": "Point", "coordinates": [ 7.671020955045782, 51.09735371936285 ] } },
{ "type": "Feature", "properties": { "strassenschluessel": "05962000003609005", "bezeichnung": "Auf der Koppel" }, "geometry": { "type": "Point", "coordinates": [ 7.672751906054216, 51.094913279548194 ] } },
{ "type": "Feature", "properties": { "strassenschluessel": "05962000003609006", "bezeichnung": "Beethovenstraße" }, "geometry": { "type": "Point", "coordinates": [ 7.670215176318553, 51.10414825313056 ] } },
{ "type": "Feature", "properties": { "strassenschluessel": "05962000003609007", "bezeichnung": "Beurhausstraße" }, "geometry": { "type": "Point", "coordinates": [ 7.654936826355602, 51.10724078600969 ] } },
{ "type": "Feature", "properties": { "strassenschluessel": "05962000003609008", "bezeichnung": "Brahmsstraße" }, "geometry": { "type": "Point", "coordinates": [ 7.668179847589363, 51.105363472298052 ] } },
{ "type": "Feature", "properties": { "strassenschluessel": "05962000003609009", "bezeichnung": "Eisenweg" }, "geometry": { "type": "Point", "coordinates": [ 7.67643385351233, 51.093791501170685 ] } },
{ "type": "Feature", "properties": { "strassenschluessel": "05962000003609010", "bezeichnung": "Fritz-Paulmann-Weg" }, "geometry": { "type": "Point", "coordinates": [ 7.656162001450459, 51.100242188335066 ] } },
{ "type": "Feature", "properties": { "strassenschluessel": "05962000003609011", "bezeichnung": "Haydnstraße" }, "geometry": { "type": "Point", "coordinates": [ 7.666304664251618, 51.104672704022029 ] } },
{ "type": "Feature", "properties": { "strassenschluessel": "05962000003609012", "bezeichnung": "Heerstraße" }, "geometry": { "type": "Point", "coordinates": [ 7.671856500096622, 51.096683948303188 ] } },
{ "type": "Feature", "properties": { "strassenschluessel": "05962000003609013", "bezeichnung": "Kohlbergstraße" }, "geometry": { "type": "Point", "coordinates": [ 7.665228722597432, 51.107905917543036 ] } },
{ "type": "Feature", "properties": { "strassenschluessel": "05962000003609014", "bezeichnung": "Mozartstraße" }, "geometry": { "type": "Point", "coordinates": [ 7.667117538612492, 51.107154468124904 ] } },
{ "type": "Feature", "properties": { "strassenschluessel": "05962000003609015", "bezeichnung": "Pestalozzistraße" }, "geometry": { "type": "Point", "coordinates": [ 7.656149798183799, 51.107762633147985 ] } },
{ "type": "Feature", "properties": { "strassenschluessel": "05962000003609016", "bezeichnung": "Scherl" }, "geometry": { "type": "Point", "coordinates": [ 7.671988677508172, 51.101593768180912 ] } },
{ "type": "Feature", "properties": { "strassenschluessel": "05962000003609017", "bezeichnung": "Scherlerwieden" }, "geometry": { "type": "Point", "coordinates": [ 7.668787436692623, 51.103000542313154 ] } },
{ "type": "Feature", "properties": { "strassenschluessel": "05962000003609018", "bezeichnung": "Schubertstraße" }, "geometry": { "type": "Point", "coordinates": [ 7.667640571120877, 51.105380808148574 ] } },
{ "type": "Feature", "properties": { "strassenschluessel": "05962000003609019", "bezeichnung": "Unterm Hestenberg" }, "geometry": { "type": "Point", "coordinates": [ 7.667499963226622, 51.107592975002412 ] } },
{ "type": "Feature", "properties": { "strassenschluessel": "05962000003609020", "bezeichnung": "Volmehof" }, "geometry": { "type": "Point", "coordinates": [ 7.664466457032496, 51.099567941092801 ] } },
{ "type": "Feature", "properties": { "strassenschluessel": "05962000003609021", "bezeichnung": "Zum Eickenhahn" }, "geometry": { "type": "Point", "coordinates": [ 7.66166079890562, 51.105103388419742 ] } },
{ "type": "Feature", "properties": { "strassenschluessel": "05962000003609022", "bezeichnung": "Zum Immecker Grund" }, "geometry": { "type": "Point", "coordinates": [ 7.66553640578967, 51.107360002832124 ] } },
{ "type": "Feature", "properties": { "strassenschluessel": "05962000003609023", "bezeichnung": "Zum Rothenstein" }, "geometry": { "type": "Point", "coordinates": [ 7.662107783012091, 51.111383786614702 ] } },
{ "type": "Feature", "properties": { "strassenschluessel": "05962000003609024", "bezeichnung": "Adolf-Diesterweg-Straße" }, "geometry": { "type": "Point", "coordinates": [ 7.654001242979688, 51.108336499632756 ] } },
{ "type": "Feature", "properties": { "strassenschluessel": "05962000003609025", "bezeichnung": "Lortzingstraße" }, "geometry": { "type": "Point", "coordinates": [ 7.67003640133076, 51.10637775871816 ] } },
{ "type": "Feature", "properties": { "strassenschluessel": "05962000003609026", "bezeichnung": "Willertshagener Straße" }, "geometry": { "type": "Point", "coordinates": [ 7.673462277689898, 51.104256796569977 ] } },
{ "type": "Feature", "properties": { "strassenschluessel": "05962000003609027", "bezeichnung": "Zum Schnüffel" }, "geometry": { "type": "Point", "coordinates": [ 7.67370054180657, 51.097522829048735 ] } },
{ "type": "Feature", "properties": { "strassenschluessel": "05962000003609030", "bezeichnung": "Otto-Fuchs-Platz" }, "geometry": { "type": "Point", "coordinates": [ 7.639641795248208, 51.107646745889582 ] } },
{ "type": "Feature", "properties": { "strassenschluessel": "05962000003609039", "bezeichnung": "Höltchen" }, "geometry": { "type": "Point", "coordinates": [ 7.647503492895318, 51.106364962806275 ] } },
{ "type": "Feature", "properties": { "strassenschluessel": "05962000003609040", "bezeichnung": "Holunderweg" }, "geometry": { "type": "Point", "coordinates": [ 7.645182374524403, 51.10688952148621 ] } },
{ "type": "Feature", "properties": { "strassenschluessel": "05962000003609041", "bezeichnung": "Immecker Straße" }, "geometry": { "type": "Point", "coordinates": [ 7.651234708720009, 51.105667838265688 ] } },
{ "type": "Feature", "properties": { "strassenschluessel": "05962000003609042", "bezeichnung": "Krim" }, "geometry": { "type": "Point", "coordinates": [ 7.645511283467821, 51.105483152311066 ] } },
{ "type": "Feature", "properties": { "strassenschluessel": "05962000003609043", "bezeichnung": "Löher Weg" }, "geometry": { "type": "Point", "coordinates": [ 7.648141599955017, 51.105214044132893 ] } },
{ "type": "Feature", "properties": { "strassenschluessel": "05962000003609044", "bezeichnung": "Oststraße" }, "geometry": { "type": "Point", "coordinates": [ 7.652298817553498, 51.106687408847662 ] } },
{ "type": "Feature", "properties": { "strassenschluessel": "05962000003609045", "bezeichnung": "Weidenstraße" }, "geometry": { "type": "Point", "coordinates": [ 7.650246560389497, 51.106067165215066 ] } },
{ "type": "Feature", "properties": { "strassenschluessel": "05962000003609046", "bezeichnung": "Wiesenstraße" }, "geometry": { "type": "Point", "coordinates": [ 7.648606766285681, 51.105524693733202 ] } },
{ "type": "Feature", "properties": { "strassenschluessel": "05962000003609049", "bezeichnung": "Am Stadion" }, "geometry": { "type": "Point", "coordinates": [ 7.66081580468496, 51.104904916354478 ] } },
{ "type": "Feature", "properties": { "strassenschluessel": "05962000003609050", "bezeichnung": "Bergstraße" }, "geometry": { "type": "Point", "coordinates": [ 7.655524941266562, 51.105362548845576 ] } },
{ "type": "Feature", "properties": { "strassenschluessel": "05962000003609051", "bezeichnung": "Dianaweg" }, "geometry": { "type": "Point", "coordinates": [ 7.651174984377914, 51.102479583643884 ] } },
{ "type": "Feature", "properties": { "strassenschluessel": "05962000003609052", "bezeichnung": "Gartenstraße" }, "geometry": { "type": "Point", "coordinates": [ 7.645647471865646, 51.104872720513434 ] } },
{ "type": "Feature", "properties": { "strassenschluessel": "05962000003609053", "bezeichnung": "Gerichtstraße" }, "geometry": { "type": "Point", "coordinates": [ 7.645214601719201, 51.103504728015459 ] } },
{ "type": "Feature", "properties": { "strassenschluessel": "05962000003609054", "bezeichnung": "Giedeweg" }, "geometry": { "type": "Point", "coordinates": [ 7.646527054600296, 51.105069751483164 ] } },
{ "type": "Feature", "properties": { "strassenschluessel": "05962000003609055", "bezeichnung": "Himbergstraße" }, "geometry": { "type": "Point", "coordinates": [ 7.647983954502054, 51.103789019206317 ] } },
{ "type": "Feature", "properties": { "strassenschluessel": "05962000003609056", "bezeichnung": "Hohschlader Weg" }, "geometry": { "type": "Point", "coordinates": [ 7.653253329006985, 51.103396894924941 ] } },
{ "type": "Feature", "properties": { "strassenschluessel": "05962000003609057", "bezeichnung": "Hubertusweg" }, "geometry": { "type": "Point", "coordinates": [ 7.648218333132697, 51.10287796420991 ] } },
{ "type": "Feature", "properties": { "strassenschluessel": "05962000003609060", "bezeichnung": "An der Wahr" }, "geometry": { "type": "Point", "coordinates": [ 7.637628888765883, 51.103078066496607 ] } },
{ "type": "Feature", "properties": { "strassenschluessel": "05962000003609061", "bezeichnung": "Derschlager Straße" }, "geometry": { "type": "Point", "coordinates": [ 7.639017206800583, 51.106338055700874 ] } },
{ "type": "Feature", "properties": { "strassenschluessel": "05962000003609062", "bezeichnung": "Florianweg" }, "geometry": { "type": "Point", "coordinates": [ 7.642524422096141, 51.103426912404331 ] } },
{ "type": "Feature", "properties": { "strassenschluessel": "05962000003609063", "bezeichnung": "Himecker Weg" }, "geometry": { "type": "Point", "coordinates": [ 7.641821054006831, 51.105747339160835 ] } },
{ "type": "Feature", "properties": { "strassenschluessel": "05962000003609064", "bezeichnung": "Hochstraße" }, "geometry": { "type": "Point", "coordinates": [ 7.642120467495016, 51.105393602367286 ] } },
{ "type": "Feature", "properties": { "strassenschluessel": "05962000003609065", "bezeichnung": "Kampstraße" }, "geometry": { "type": "Point", "coordinates": [ 7.639782393868334, 51.105078777206401 ] } },
{ "type": "Feature", "properties": { "strassenschluessel": "05962000003609066", "bezeichnung": "Kirchplatz" }, "geometry": { "type": "Point", "coordinates": [ 7.63978950300065, 51.106212249380377 ] } },
{ "type": "Feature", "properties": { "strassenschluessel": "05962000003609067", "bezeichnung": "Kirchstraße" }, "geometry": { "type": "Point", "coordinates": [ 7.640413577931744, 51.105737859395234 ] } },
{ "type": "Feature", "properties": { "strassenschluessel": "05962000003609068", "bezeichnung": "Krummicker Weg" }, "geometry": { "type": "Point", "coordinates": [ 7.639724719897915, 51.105947132246484 ] } },
{ "type": "Feature", "properties": { "strassenschluessel": "05962000003609069", "bezeichnung": "Wahrweg" }, "geometry": { "type": "Point", "coordinates": [ 7.639576389375987, 51.104284117195583 ] } },
{ "type": "Feature", "properties": { "strassenschluessel": "05962000003609070", "bezeichnung": "Zum Alten Teich" }, "geometry": { "type": "Point", "coordinates": [ 7.641394390474163, 51.104849416782223 ] } },
{ "type": "Feature", "properties": { "strassenschluessel": "05962000003609071", "bezeichnung": "Rügener Weg" }, "geometry": { "type": "Point", "coordinates": [ 7.638820568412829, 51.102348488339658 ] } },
{ "type": "Feature", "properties": { "strassenschluessel": "05962000003609072", "bezeichnung": "Am Schützenplatz" }, "geometry": { "type": "Point", "coordinates": [ 7.648364168256901, 51.099535084976559 ] } },
{ "type": "Feature", "properties": { "strassenschluessel": "05962000003609076", "bezeichnung": "Breslauer Straße" }, "geometry": { "type": "Point", "coordinates": [ 7.634260993125135, 51.099730829668282 ] } },
{ "type": "Feature", "properties": { "strassenschluessel": "05962000003609077", "bezeichnung": "Danziger Straße" }, "geometry": { "type": "Point", "coordinates": [ 7.640722417975981, 51.096720696355703 ] } },
{ "type": "Feature", "properties": { "strassenschluessel": "05962000003609078", "bezeichnung": "Feldstraße" }, "geometry": { "type": "Point", "coordinates": [ 7.636510652278102, 51.100540791953286 ] } },
{ "type": "Feature", "properties": { "strassenschluessel": "05962000003609079", "bezeichnung": "Fumberg" }, "geometry": { "type": "Point", "coordinates": [ 7.645188725072009, 51.099448822545021 ] } },
{ "type": "Feature", "properties": { "strassenschluessel": "05962000003609080", "bezeichnung": "Königsberger Straße" }, "geometry": { "type": "Point", "coordinates": [ 7.643604153267527, 51.100310850956639 ] } },
{ "type": "Feature", "properties": { "strassenschluessel": "05962000003609081", "bezeichnung": "Melmcheweg" }, "geometry": { "type": "Point", "coordinates": [ 7.638605774262071, 51.099848799907889 ] } },
{ "type": "Feature", "properties": { "strassenschluessel": "05962000003609082", "bezeichnung": "Schlenke" }, "geometry": { "type": "Point", "coordinates": [ 7.640234104116893, 51.096145974846237 ] } },
{ "type": "Feature", "properties": { "strassenschluessel": "05962000003609083", "bezeichnung": "Schlenker Straße" }, "geometry": { "type": "Point", "coordinates": [ 7.640650245168352, 51.097711942926146 ] } },
{ "type": "Feature", "properties": { "strassenschluessel": "05962000003609084", "bezeichnung": "Stettiner Straße" }, "geometry": { "type": "Point", "coordinates": [ 7.641506652357766, 51.099575339418273 ] } },
{ "type": "Feature", "properties": { "strassenschluessel": "05962000003609085", "bezeichnung": "Südstraße" }, "geometry": { "type": "Point", "coordinates": [ 7.641507569792798, 51.100923975884513 ] } },
{ "type": "Feature", "properties": { "strassenschluessel": "05962000003609086", "bezeichnung": "Trotzenburg" }, "geometry": { "type": "Point", "coordinates": [ 7.638275511469507, 51.098775097401358 ] } },
{ "type": "Feature", "properties": { "strassenschluessel": "05962000003609087", "bezeichnung": "Waldstraße" }, "geometry": { "type": "Point", "coordinates": [ 7.639227643785508, 51.100754554521437 ] } },
{ "type": "Feature", "properties": { "strassenschluessel": "05962000003609088", "bezeichnung": "Bussardweg" }, "geometry": { "type": "Point", "coordinates": [ 7.641779541699899, 51.096345776574104 ] } },
{ "type": "Feature", "properties": { "strassenschluessel": "05962000003609089", "bezeichnung": "Falkenweg" }, "geometry": { "type": "Point", "coordinates": [ 7.643506740885883, 51.097671902936696 ] } },
{ "type": "Feature", "properties": { "strassenschluessel": "05962000003609090", "bezeichnung": "Habichtweg" }, "geometry": { "type": "Point", "coordinates": [ 7.64387438372929, 51.096668471136759 ] } },
{ "type": "Feature", "properties": { "strassenschluessel": "05962000003609091", "bezeichnung": "Milanweg" }, "geometry": { "type": "Point", "coordinates": [ 7.646925191137293, 51.097011315271359 ] } },
{ "type": "Feature", "properties": { "strassenschluessel": "05962000003609092", "bezeichnung": "Sperberweg" }, "geometry": { "type": "Point", "coordinates": [ 7.64474592124709, 51.096055614251426 ] } },
{ "type": "Feature", "properties": { "strassenschluessel": "05962000003609100", "bezeichnung": "Ahornstraße" }, "geometry": { "type": "Point", "coordinates": [ 7.637037768156095, 51.098707228795043 ] } },
{ "type": "Feature", "properties": { "strassenschluessel": "05962000003609101", "bezeichnung": "Akazienweg" }, "geometry": { "type": "Point", "coordinates": [ 7.636818903920041, 51.097588929822066 ] } },
{ "type": "Feature", "properties": { "strassenschluessel": "05962000003609102", "bezeichnung": "An der Linde" }, "geometry": { "type": "Point", "coordinates": [ 7.626737846725449, 51.099940993521287 ] } },
{ "type": "Feature", "properties": { "strassenschluessel": "05962000003609103", "bezeichnung": "Birkenweg" }, "geometry": { "type": "Point", "coordinates": [ 7.634014993981384, 51.098744961344941 ] } },
{ "type": "Feature", "properties": { "strassenschluessel": "05962000003609104", "bezeichnung": "Buchenweg" }, "geometry": { "type": "Point", "coordinates": [ 7.637937633788043, 51.098517984668987 ] } },
{ "type": "Feature", "properties": { "strassenschluessel": "05962000003609105", "bezeichnung": "Eichenweg" }, "geometry": { "type": "Point", "coordinates": [ 7.634838476355387, 51.09867307795362 ] } },
{ "type": "Feature", "properties": { "strassenschluessel": "05962000003609106", "bezeichnung": "Erlenweg" }, "geometry": { "type": "Point", "coordinates": [ 7.636655523633038, 51.098545252356161 ] } },
{ "type": "Feature", "properties": { "strassenschluessel": "05962000003609107", "bezeichnung": "Genkeler Straße" }, "geometry": { "type": "Point", "coordinates": [ 7.630884980432758, 51.093224760038311 ] } },
{ "type": "Feature", "properties": { "strassenschluessel": "05962000003609108", "bezeichnung": "Grotmicke" }, "geometry": { "type": "Point", "coordinates": [ 7.633425264445188, 51.097788141553885 ] } },
{ "type": "Feature", "properties": { "strassenschluessel": "05962000003609109", "bezeichnung": "Hohbüschen" }, "geometry": { "type": "Point", "coordinates": [ 7.628769800912827, 51.099982848405801 ] } },
{ "type": "Feature", "properties": { "strassenschluessel": "05962000003609110", "bezeichnung": "Hohbüschener Weg" }, "geometry": { "type": "Point", "coordinates": [ 7.630605313450583, 51.099434475107053 ] } },
{ "type": "Feature", "properties": { "strassenschluessel": "05962000003609111", "bezeichnung": "Kastanienweg" }, "geometry": { "type": "Point", "coordinates": [ 7.634132904991094, 51.096720718305022 ] } },
{ "type": "Feature", "properties": { "strassenschluessel": "05962000003609112", "bezeichnung": "Nußbaumweg" }, "geometry": { "type": "Point", "coordinates": [ 7.635651742789086, 51.098270347230105 ] } },
{ "type": "Feature", "properties": { "strassenschluessel": "05962000003609113", "bezeichnung": "Ulmenweg" }, "geometry": { "type": "Point", "coordinates": [ 7.634231062415934, 51.098342518197661 ] } },
{ "type": "Feature", "properties": { "strassenschluessel": "05962000003609114", "bezeichnung": "Winzenberg" }, "geometry": { "type": "Point", "coordinates": [ 7.628072855732474, 51.094741914678153 ] } },
{ "type": "Feature", "properties": { "strassenschluessel": "05962000003609121", "bezeichnung": "Höhenstraße" }, "geometry": { "type": "Point", "coordinates": [ 7.630138671508663, 51.100994831426583 ] } },
{ "type": "Feature", "properties": { "strassenschluessel": "05962000003609122", "bezeichnung": "Kapellenweg" }, "geometry": { "type": "Point", "coordinates": [ 7.637244678076947, 51.10648557482174 ] } },
{ "type": "Feature", "properties": { "strassenschluessel": "05962000003609123", "bezeichnung": "Marienheider Straße" }, "geometry": { "type": "Point", "coordinates": [ 7.629930377471069, 51.099817056325918 ] } },
{ "type": "Feature", "properties": { "strassenschluessel": "05962000003609124", "bezeichnung": "Otto-Fuchs-Straße" }, "geometry": { "type": "Point", "coordinates": [ 7.634081260084169, 51.102909368076084 ] } },
{ "type": "Feature", "properties": { "strassenschluessel": "05962000003609125", "bezeichnung": "Schöppenkampstraße" }, "geometry": { "type": "Point", "coordinates": [ 7.631631660306443, 51.099848088184345 ] } },
{ "type": "Feature", "properties": { "strassenschluessel": "05962000003609126", "bezeichnung": "Schwarzenberg" }, "geometry": { "type": "Point", "coordinates": [ 7.632467850706196, 51.103884624364142 ] } },
{ "type": "Feature", "properties": { "strassenschluessel": "05962000003609127", "bezeichnung": "Spitzenbergstraße" }, "geometry": { "type": "Point", "coordinates": [ 7.632877002516818, 51.10129665428272 ] } },
{ "type": "Feature", "properties": { "strassenschluessel": "05962000003609128", "bezeichnung": "Tunnelstraße" }, "geometry": { "type": "Point", "coordinates": [ 7.635156186380353, 51.102584590292103 ] } },
{ "type": "Feature", "properties": { "strassenschluessel": "05962000003609134", "bezeichnung": "Am Lingelchen" }, "geometry": { "type": "Point", "coordinates": [ 7.647224076946826, 51.095258105351938 ] } },
{ "type": "Feature", "properties": { "strassenschluessel": "05962000003609135", "bezeichnung": "Badinghagen" }, "geometry": { "type": "Point", "coordinates": [ 7.6540458503208, 51.0874396588842 ] } },
{ "type": "Feature", "properties": { "strassenschluessel": "05962000003609136", "bezeichnung": "Beutringhausen" }, "geometry": { "type": "Point", "coordinates": [ 7.612463710757402, 51.099050812037525 ] } },
{ "type": "Feature", "properties": { "strassenschluessel": "05962000003609137", "bezeichnung": "Butmicke" }, "geometry": { "type": "Point", "coordinates": [ 7.649125978837938, 51.097543929177498 ] } },
{ "type": "Feature", "properties": { "strassenschluessel": "05962000003609138", "bezeichnung": "Denndorf" }, "geometry": { "type": "Point", "coordinates": [ 7.614133298332995, 51.109372245039197 ] } },
{ "type": "Feature", "properties": { "strassenschluessel": "05962000003609139", "bezeichnung": "Dürhölten" }, "geometry": { "type": "Point", "coordinates": [ 7.623071312993236, 51.118884242459522 ] } },
{ "type": "Feature", "properties": { "strassenschluessel": "05962000003609140", "bezeichnung": "Eick" }, "geometry": { "type": "Point", "coordinates": [ 7.619037712464078, 51.105443075548273 ] } },
{ "type": "Feature", "properties": { "strassenschluessel": "05962000003609141", "bezeichnung": "Genkel" }, "geometry": { "type": "Point", "coordinates": [ 7.606803831985863, 51.08792643996825 ] } },
{ "type": "Feature", "properties": { "strassenschluessel": "05962000003609142", "bezeichnung": "Gräfingsholz" }, "geometry": { "type": "Point", "coordinates": [ 7.620217250667901, 51.11450183402026 ] } },
{ "type": "Feature", "properties": { "strassenschluessel": "05962000003609143", "bezeichnung": "Güntenbecke" }, "geometry": { "type": "Point", "coordinates": [ 7.620792368570219, 51.099008763671854 ] } },
{ "type": "Feature", "properties": { "strassenschluessel": "05962000003609144", "bezeichnung": "Heed" }, "geometry": { "type": "Point", "coordinates": [ 7.640464605290959, 51.085493904633523 ] } },
{ "type": "Feature", "properties": { "strassenschluessel": "05962000003609145", "bezeichnung": "Hellsiepen" }, "geometry": { "type": "Point", "coordinates": [ 7.678321131655194, 51.083180921143622 ] } },
{ "type": "Feature", "properties": { "strassenschluessel": "05962000003609146", "bezeichnung": "Herweg" }, "geometry": { "type": "Point", "coordinates": [ 7.609918553216242, 51.102044673001551 ] } },
{ "type": "Feature", "properties": { "strassenschluessel": "05962000003609147", "bezeichnung": "Im Brannten" }, "geometry": { "type": "Point", "coordinates": [ 7.647699616351951, 51.097822674469889 ] } },
{ "type": "Feature", "properties": { "strassenschluessel": "05962000003609148", "bezeichnung": "Kotten" }, "geometry": { "type": "Point", "coordinates": [ 7.612888302009695, 51.110443416481637 ] } },
{ "type": "Feature", "properties": { "strassenschluessel": "05962000003609149", "bezeichnung": "Kropplenberg" }, "geometry": { "type": "Point", "coordinates": [ 7.656426563424496, 51.080517980196241 ] } },
{ "type": "Feature", "properties": { "strassenschluessel": "05962000003609150", "bezeichnung": "Lesmicke" }, "geometry": { "type": "Point", "coordinates": [ 7.683511808516335, 51.091212964331717 ] } },
{ "type": "Feature", "properties": { "strassenschluessel": "05962000003609151", "bezeichnung": "Listringhausen" }, "geometry": { "type": "Point", "coordinates": [ 7.620513197015547, 51.080896863226009 ] } },
{ "type": "Feature", "properties": { "strassenschluessel": "05962000003609152", "bezeichnung": "Niederbadinghagen" }, "geometry": { "type": "Point", "coordinates": [ 7.648208606179624, 51.081795772209439 ] } },
{ "type": "Feature", "properties": { "strassenschluessel": "05962000003609153", "bezeichnung": "Redlendorf" }, "geometry": { "type": "Point", "coordinates": [ 7.630764616402376, 51.089334713011382 ] } },
{ "type": "Feature", "properties": { "strassenschluessel": "05962000003609154", "bezeichnung": "Sundhellen" }, "geometry": { "type": "Point", "coordinates": [ 7.664968973579721, 51.078472995982729 ] } },
{ "type": "Feature", "properties": { "strassenschluessel": "05962000003609155", "bezeichnung": "Steinsgüntenbecke" }, "geometry": { "type": "Point", "coordinates": [ 7.627042332821287, 51.090474915628569 ] } },
{ "type": "Feature", "properties": { "strassenschluessel": "05962000003609156", "bezeichnung": "Steinsmark" }, "geometry": { "type": "Point", "coordinates": [ 7.603844050619489, 51.100134613190356 ] } },
{ "type": "Feature", "properties": { "strassenschluessel": "05962000003609157", "bezeichnung": "Wehe" }, "geometry": { "type": "Point", "coordinates": [ 7.606693959731714, 51.110043876564973 ] } },
{ "type": "Feature", "properties": { "strassenschluessel": "05962000003609158", "bezeichnung": "Wieden" }, "geometry": { "type": "Point", "coordinates": [ 7.618791996901059, 51.110073378701529 ] } },
{ "type": "Feature", "properties": { "strassenschluessel": "05962000003609169", "bezeichnung": "Baberg" }, "geometry": { "type": "Point", "coordinates": [ 7.669954013800835, 51.149698193841424 ] } },
{ "type": "Feature", "properties": { "strassenschluessel": "05962000003609170", "bezeichnung": "Beckerhof" }, "geometry": { "type": "Point", "coordinates": [ 7.693581427317662, 51.142838693764467 ] } },
{ "type": "Feature", "properties": { "strassenschluessel": "05962000003609171", "bezeichnung": "Bomme" }, "geometry": { "type": "Point", "coordinates": [ 7.662989999137799, 51.142269652010391 ] } },
{ "type": "Feature", "properties": { "strassenschluessel": "05962000003609173", "bezeichnung": "Buschhausen" }, "geometry": { "type": "Point", "coordinates": [ 7.707589249558683, 51.149396119963086 ] } },
{ "type": "Feature", "properties": { "strassenschluessel": "05962000003609174", "bezeichnung": "Buschhöh" }, "geometry": { "type": "Point", "coordinates": [ 7.705692961199462, 51.143108490231015 ] } },
{ "type": "Feature", "properties": { "strassenschluessel": "05962000003609175", "bezeichnung": "Drögenpütt" }, "geometry": { "type": "Point", "coordinates": [ 7.676074860775591, 51.146203390748028 ] } },
{ "type": "Feature", "properties": { "strassenschluessel": "05962000003609176", "bezeichnung": "Fürwigge" }, "geometry": { "type": "Point", "coordinates": [ 7.686582775312778, 51.150066778473381 ] } },
{ "type": "Feature", "properties": { "strassenschluessel": "05962000003609177", "bezeichnung": "Hasendenn" }, "geometry": { "type": "Point", "coordinates": [ 7.646390866459424, 51.134037474072407 ] } },
{ "type": "Feature", "properties": { "strassenschluessel": "05962000003609178", "bezeichnung": "Hinter der Höh" }, "geometry": { "type": "Point", "coordinates": [ 7.668052113557611, 51.145414669159543 ] } },
{ "type": "Feature", "properties": { "strassenschluessel": "05962000003609179", "bezeichnung": "Hohlinden" }, "geometry": { "type": "Point", "coordinates": [ 7.645493230658944, 51.132626960027025 ] } },
{ "type": "Feature", "properties": { "strassenschluessel": "05962000003609180", "bezeichnung": "Hülseberg" }, "geometry": { "type": "Point", "coordinates": [ 7.67949194807932, 51.14834604645845 ] } },
{ "type": "Feature", "properties": { "strassenschluessel": "05962000003609181", "bezeichnung": "Langenberg" }, "geometry": { "type": "Point", "coordinates": [ 7.644472591761715, 51.126440537825133 ] } },
{ "type": "Feature", "properties": { "strassenschluessel": "05962000003609182", "bezeichnung": "Lengelscheid" }, "geometry": { "type": "Point", "coordinates": [ 7.671291323129003, 51.14163479610653 ] } },
{ "type": "Feature", "properties": { "strassenschluessel": "05962000003609183", "bezeichnung": "Mettgenberg" }, "geometry": { "type": "Point", "coordinates": [ 7.68971691756187, 51.14936750347848 ] } },
{ "type": "Feature", "properties": { "strassenschluessel": "05962000003609184", "bezeichnung": "Neuebrücke" }, "geometry": { "type": "Point", "coordinates": [ 7.631431624378467, 51.125261081760996 ] } },
{ "type": "Feature", "properties": { "strassenschluessel": "05962000003609185", "bezeichnung": "Neuemühle" }, "geometry": { "type": "Point", "coordinates": [ 7.699105238671609, 51.15331624535574 ] } },
{ "type": "Feature", "properties": { "strassenschluessel": "05962000003609186", "bezeichnung": "Neugrünental" }, "geometry": { "type": "Point", "coordinates": [ 7.635886076930125, 51.125193627097694 ] } },
{ "type": "Feature", "properties": { "strassenschluessel": "05962000003609187", "bezeichnung": "Neuhohlinden" }, "geometry": { "type": "Point", "coordinates": [ 7.650900935604229, 51.136491764097677 ] } },
{ "type": "Feature", "properties": { "strassenschluessel": "05962000003609188", "bezeichnung": "Nocken" }, "geometry": { "type": "Point", "coordinates": [ 7.681541245170214, 51.129915289418108 ] } },
{ "type": "Feature", "properties": { "strassenschluessel": "05962000003609189", "bezeichnung": "Ohl" }, "geometry": { "type": "Point", "coordinates": [ 7.646936005095644, 51.129134445888909 ] } },
{ "type": "Feature", "properties": { "strassenschluessel": "05962000003609190", "bezeichnung": "Rollsiepen" }, "geometry": { "type": "Point", "coordinates": [ 7.705621058332484, 51.151205089533491 ] } },
{ "type": "Feature", "properties": { "strassenschluessel": "05962000003609191", "bezeichnung": "Schlund" }, "geometry": { "type": "Point", "coordinates": [ 7.644127509077694, 51.122750488913049 ] } },
{ "type": "Feature", "properties": { "strassenschluessel": "05962000003609192", "bezeichnung": "Schürfelde" }, "geometry": { "type": "Point", "coordinates": [ 7.684866279696156, 51.131004449328778 ] } },
{ "type": "Feature", "properties": { "strassenschluessel": "05962000003609193", "bezeichnung": "Singerbrink" }, "geometry": { "type": "Point", "coordinates": [ 7.649125207729147, 51.131424942541244 ] } },
{ "type": "Feature", "properties": { "strassenschluessel": "05962000003609194", "bezeichnung": "Sulenbecke" }, "geometry": { "type": "Point", "coordinates": [ 7.651340662286369, 51.121893941882981 ] } },
{ "type": "Feature", "properties": { "strassenschluessel": "05962000003609195", "bezeichnung": "Sulenbecker Weg" }, "geometry": { "type": "Point", "coordinates": [ 7.644645934985578, 51.12424520119194 ] } },
{ "type": "Feature", "properties": { "strassenschluessel": "05962000003609196", "bezeichnung": "Werkshagen" }, "geometry": { "type": "Point", "coordinates": [ 7.681004043686515, 51.154358725686507 ] } },
{ "type": "Feature", "properties": { "strassenschluessel": "05962000003609197", "bezeichnung": "Wiebelsaat" }, "geometry": { "type": "Point", "coordinates": [ 7.644752640468174, 51.125208042252389 ] } },
{ "type": "Feature", "properties": { "strassenschluessel": "05962000003609198", "bezeichnung": "Rosenburg" }, "geometry": { "type": "Point", "coordinates": [ 7.671491200292004, 51.136923942148044 ] } },
{ "type": "Feature", "properties": { "strassenschluessel": "05962000003609203", "bezeichnung": "Auf der Heide" }, "geometry": { "type": "Point", "coordinates": [ 7.691853816415809, 51.104120727894326 ] } },
{ "type": "Feature", "properties": { "strassenschluessel": "05962000003609204", "bezeichnung": "Darmche" }, "geometry": { "type": "Point", "coordinates": [ 7.681801863253972, 51.098621504475041 ] } },
{ "type": "Feature", "properties": { "strassenschluessel": "05962000003609205", "bezeichnung": "Grünenthal" }, "geometry": { "type": "Point", "coordinates": [ 7.683905673820035, 51.103144551759385 ] } },
{ "type": "Feature", "properties": { "strassenschluessel": "05962000003609206", "bezeichnung": "Hesselbecke" }, "geometry": { "type": "Point", "coordinates": [ 7.705241993453492, 51.108860210931013 ] } },
{ "type": "Feature", "properties": { "strassenschluessel": "05962000003609207", "bezeichnung": "Hohenhengstenberg" }, "geometry": { "type": "Point", "coordinates": [ 7.698623378575074, 51.111016047440863 ] } },
{ "type": "Feature", "properties": { "strassenschluessel": "05962000003609208", "bezeichnung": "Kittmicke" }, "geometry": { "type": "Point", "coordinates": [ 7.688895291819795, 51.107450717529176 ] } },
{ "type": "Feature", "properties": { "strassenschluessel": "05962000003609209", "bezeichnung": "Listerhammer" }, "geometry": { "type": "Point", "coordinates": [ 7.709628207316547, 51.106637828083336 ] } },
{ "type": "Feature", "properties": { "strassenschluessel": "05962000003609210", "bezeichnung": "Listermühle" }, "geometry": { "type": "Point", "coordinates": [ 7.695785553711771, 51.103426217353153 ] } },
{ "type": "Feature", "properties": { "strassenschluessel": "05962000003609211", "bezeichnung": "Listertal" }, "geometry": { "type": "Point", "coordinates": [ 7.701643622853184, 51.105342314926432 ] } },
{ "type": "Feature", "properties": { "strassenschluessel": "05962000003609212", "bezeichnung": "Niederhengstenberg" }, "geometry": { "type": "Point", "coordinates": [ 7.694560304726877, 51.108429740226981 ] } },
{ "type": "Feature", "properties": { "strassenschluessel": "05962000003609213", "bezeichnung": "Nordhellen" }, "geometry": { "type": "Point", "coordinates": [ 7.696293982813333, 51.097280986867119 ] } },
{ "type": "Feature", "properties": { "strassenschluessel": "05962000003609214", "bezeichnung": "Sebastopol" }, "geometry": { "type": "Point", "coordinates": [ 7.69441360644994, 51.093966391385912 ] } },
{ "type": "Feature", "properties": { "strassenschluessel": "05962000003609215", "bezeichnung": "Sinderhof" }, "geometry": { "type": "Point", "coordinates": [ 7.689380489120189, 51.100130360384519 ] } },
{ "type": "Feature", "properties": { "strassenschluessel": "05962000003609216", "bezeichnung": "Stoltenberg" }, "geometry": { "type": "Point", "coordinates": [ 7.680315717764543, 51.107527625424382 ] } },
{ "type": "Feature", "properties": { "strassenschluessel": "05962000003609217", "bezeichnung": "Untermberge" }, "geometry": { "type": "Point", "coordinates": [ 7.703575799672153, 51.103792979919966 ] } },
{ "type": "Feature", "properties": { "strassenschluessel": "05962000003609218", "bezeichnung": "Willertshagen" }, "geometry": { "type": "Point", "coordinates": [ 7.678603281868519, 51.10705491865199 ] } },
{ "type": "Feature", "properties": { "strassenschluessel": "05962000003609223", "bezeichnung": "Darmcher Grund" }, "geometry": { "type": "Point", "coordinates": [ 7.691400987358843, 51.096732288070946 ] } },
{ "type": "Feature", "properties": { "strassenschluessel": "05962000003609224", "bezeichnung": "Darmcher Weg" }, "geometry": { "type": "Point", "coordinates": [ 7.679185207105607, 51.101121335231717 ] } },
{ "type": "Feature", "properties": { "strassenschluessel": "05962000003609225", "bezeichnung": "Werner-Battenfeld-Straße" }, "geometry": { "type": "Point", "coordinates": [ 7.689287361348355, 51.09768409056629 ] } },
{ "type": "Feature", "properties": { "strassenschluessel": "05962000003609234", "bezeichnung": "Alter Weg" }, "geometry": { "type": "Point", "coordinates": [ 7.748241625420318, 51.118244879304449 ] } },
{ "type": "Feature", "properties": { "strassenschluessel": "05962000003609235", "bezeichnung": "Am Fliederbusch" }, "geometry": { "type": "Point", "coordinates": [ 7.760048001954639, 51.121633411475145 ] } },
{ "type": "Feature", "properties": { "strassenschluessel": "05962000003609236", "bezeichnung": "Am Piwitt" }, "geometry": { "type": "Point", "coordinates": [ 7.754632357729206, 51.124578934869213 ] } },
{ "type": "Feature", "properties": { "strassenschluessel": "05962000003609237", "bezeichnung": "Am Sonnenhang" }, "geometry": { "type": "Point", "coordinates": [ 7.762324575521364, 51.121697917136281 ] } },
{ "type": "Feature", "properties": { "strassenschluessel": "05962000003609238", "bezeichnung": "An den Kämpen" }, "geometry": { "type": "Point", "coordinates": [ 7.752123259731693, 51.121526400096201 ] } },
{ "type": "Feature", "properties": { "strassenschluessel": "05962000003609239", "bezeichnung": "An der Kirche" }, "geometry": { "type": "Point", "coordinates": [ 7.754866804470719, 51.12087719730544 ] } },
{ "type": "Feature", "properties": { "strassenschluessel": "05962000003609240", "bezeichnung": "Auf den Breien" }, "geometry": { "type": "Point", "coordinates": [ 7.761574007479655, 51.121558756834766 ] } },
{ "type": "Feature", "properties": { "strassenschluessel": "05962000003609241", "bezeichnung": "Auf der Hardt" }, "geometry": { "type": "Point", "coordinates": [ 7.742361842832635, 51.120065348499146 ] } },
{ "type": "Feature", "properties": { "strassenschluessel": "05962000003609242", "bezeichnung": "Denkmalsplatz" }, "geometry": { "type": "Point", "coordinates": [ 7.752777496802215, 51.120652395327198 ] } },
{ "type": "Feature", "properties": { "strassenschluessel": "05962000003609243", "bezeichnung": "Ebbestraße" }, "geometry": { "type": "Point", "coordinates": [ 7.751006669371355, 51.120244682132856 ] } },
{ "type": "Feature", "properties": { "strassenschluessel": "05962000003609244", "bezeichnung": "Zum Dutzenstein" }, "geometry": null },
{ "type": "Feature", "properties": { "strassenschluessel": "05962000003609245", "bezeichnung": "Haaner Straße" }, "geometry": { "type": "Point", "coordinates": [ 7.761091147049611, 51.123120503410611 ] } },
{ "type": "Feature", "properties": { "strassenschluessel": "05962000003609246", "bezeichnung": "Hardtweg" }, "geometry": { "type": "Point", "coordinates": [ 7.747134502917383, 51.119840515302961 ] } },
{ "type": "Feature", "properties": { "strassenschluessel": "05962000003609247", "bezeichnung": "Heidehang" }, "geometry": { "type": "Point", "coordinates": [ 7.750255510388719, 51.122640493826268 ] } },
{ "type": "Feature", "properties": { "strassenschluessel": "05962000003609248", "bezeichnung": "Heidewinkel" }, "geometry": { "type": "Point", "coordinates": [ 7.750195640507404, 51.123273618817358 ] } },
{ "type": "Feature", "properties": { "strassenschluessel": "05962000003609249", "bezeichnung": "Ihnestraße" }, "geometry": { "type": "Point", "coordinates": [ 7.753885263554219, 51.119963121306455 ] } },
{ "type": "Feature", "properties": { "strassenschluessel": "05962000003609250", "bezeichnung": "Im Alten Dorf" }, "geometry": { "type": "Point", "coordinates": [ 7.753061692012237, 51.120831720486748 ] } },
{ "type": "Feature", "properties": { "strassenschluessel": "05962000003609251", "bezeichnung": "Im Wiesengrund" }, "geometry": { "type": "Point", "coordinates": [ 7.761984260901693, 51.119361998005907 ] } },
{ "type": "Feature", "properties": { "strassenschluessel": "05962000003609252", "bezeichnung": "In den Bäumen" }, "geometry": { "type": "Point", "coordinates": [ 7.754121341363141, 51.121335702317907 ] } },
{ "type": "Feature", "properties": { "strassenschluessel": "05962000003609253", "bezeichnung": "Krabben" }, "geometry": { "type": "Point", "coordinates": [ 7.754795326232411, 51.118791383066778 ] } },
{ "type": "Feature", "properties": { "strassenschluessel": "05962000003609254", "bezeichnung": "Piepenströtken" }, "geometry": { "type": "Point", "coordinates": [ 7.75429285440361, 51.119881709346544 ] } },
{ "type": "Feature", "properties": { "strassenschluessel": "05962000003609255", "bezeichnung": "Robchestraße" }, "geometry": { "type": "Point", "coordinates": [ 7.744833972615712, 51.117912342759283 ] } },
{ "type": "Feature", "properties": { "strassenschluessel": "05962000003609256", "bezeichnung": "Rosenweg" }, "geometry": { "type": "Point", "coordinates": [ 7.759618869956001, 51.119323656288358 ] } },
{ "type": "Feature", "properties": { "strassenschluessel": "05962000003609257", "bezeichnung": "Schlehdornweg" }, "geometry": { "type": "Point", "coordinates": [ 7.760243959196226, 51.120183869359998 ] } },
{ "type": "Feature", "properties": { "strassenschluessel": "05962000003609258", "bezeichnung": "Schützenstraße" }, "geometry": { "type": "Point", "coordinates": [ 7.744998251518249, 51.117490186794619 ] } },
{ "type": "Feature", "properties": { "strassenschluessel": "05962000003609259", "bezeichnung": "Schulstraße" }, "geometry": { "type": "Point", "coordinates": [ 7.750232013272709, 51.119868178113691 ] } },
{ "type": "Feature", "properties": { "strassenschluessel": "05962000003609260", "bezeichnung": "Stürkergasse" }, "geometry": { "type": "Point", "coordinates": [ 7.751734210702394, 51.121121197235304 ] } },
{ "type": "Feature", "properties": { "strassenschluessel": "05962000003609261", "bezeichnung": "Unterm Busche" }, "geometry": { "type": "Point", "coordinates": [ 7.748354649310548, 51.119516335866734 ] } },
{ "type": "Feature", "properties": { "strassenschluessel": "05962000003609262", "bezeichnung": "Vor der Gathe" }, "geometry": { "type": "Point", "coordinates": [ 7.748546688735345, 51.120862135617635 ] } },
{ "type": "Feature", "properties": { "strassenschluessel": "05962000003609263", "bezeichnung": "Wiedenhoff" }, "geometry": { "type": "Point", "coordinates": [ 7.7589957781926, 51.123268993224848 ] } },
{ "type": "Feature", "properties": { "strassenschluessel": "05962000003609264", "bezeichnung": "Zum Koppenkopf" }, "geometry": { "type": "Point", "coordinates": [ 7.748124136791919, 51.122539799064093 ] } },
{ "type": "Feature", "properties": { "strassenschluessel": "05962000003609265", "bezeichnung": "Auf dem Felde" }, "geometry": { "type": "Point", "coordinates": [ 7.747548964759389, 51.11914295295847 ] } },
{ "type": "Feature", "properties": { "strassenschluessel": "05962000003609266", "bezeichnung": "Nelkenweg" }, "geometry": { "type": "Point", "coordinates": [ 7.763278157646599, 51.120331818375959 ] } },
{ "type": "Feature", "properties": { "strassenschluessel": "05962000003609267", "bezeichnung": "Tulpenweg" }, "geometry": { "type": "Point", "coordinates": [ 7.763065093690456, 51.120950379573955 ] } },
{ "type": "Feature", "properties": { "strassenschluessel": "05962000003609269", "bezeichnung": "Dürrenkamp" }, "geometry": { "type": "Point", "coordinates": [ 7.758300628356352, 51.120954215813867 ] } },
{ "type": "Feature", "properties": { "strassenschluessel": "05962000003609280", "bezeichnung": "An der Hardt" }, "geometry": { "type": "Point", "coordinates": [ 7.748947539677425, 51.101102452052999 ] } },
{ "type": "Feature", "properties": { "strassenschluessel": "05962000003609281", "bezeichnung": "Blomberg" }, "geometry": { "type": "Point", "coordinates": [ 7.719689490483935, 51.110122028081186 ] } },
{ "type": "Feature", "properties": { "strassenschluessel": "05962000003609282", "bezeichnung": "Breddershaus" }, "geometry": { "type": "Point", "coordinates": [ 7.713127081436786, 51.108705287501195 ] } },
{ "type": "Feature", "properties": { "strassenschluessel": "05962000003609283", "bezeichnung": "Elminghausen" }, "geometry": { "type": "Point", "coordinates": [ 7.706739265005545, 51.113149734755027 ] } },
{ "type": "Feature", "properties": { "strassenschluessel": "05962000003609284", "bezeichnung": "Espei" }, "geometry": null },
{ "type": "Feature", "properties": { "strassenschluessel": "05962000003609285", "bezeichnung": "Häusgermühle" }, "geometry": { "type": "Point", "coordinates": [ 7.726478833789917, 51.103151305457828 ] } },
{ "type": "Feature", "properties": { "strassenschluessel": "05962000003609286", "bezeichnung": "Höh" }, "geometry": { "type": "Point", "coordinates": [ 7.745041507437682, 51.112250065008148 ] } },
{ "type": "Feature", "properties": { "strassenschluessel": "05962000003609287", "bezeichnung": "Hösinghausen" }, "geometry": { "type": "Point", "coordinates": [ 7.734995317690938, 51.115374494270526 ] } },
{ "type": "Feature", "properties": { "strassenschluessel": "05962000003609288", "bezeichnung": "Ingemerterhammer" }, "geometry": { "type": "Point", "coordinates": [ 7.737203256747717, 51.10374418978116 ] } },
{ "type": "Feature", "properties": { "strassenschluessel": "05962000003609289", "bezeichnung": "Österfeld" }, "geometry": { "type": "Point", "coordinates": [ 7.724173665559879, 51.108315696217915 ] } },
{ "type": "Feature", "properties": { "strassenschluessel": "05962000003609290", "bezeichnung": "Vestenberg" }, "geometry": { "type": "Point", "coordinates": [ 7.732728528632288, 51.108071011658886 ] } },
{ "type": "Feature", "properties": { "strassenschluessel": "05962000003609291", "bezeichnung": "Westebbe" }, "geometry": { "type": "Point", "coordinates": [ 7.709682577238665, 51.12925301550613 ] } },
{ "type": "Feature", "properties": { "strassenschluessel": "05962000003609292", "bezeichnung": "Rehberg" }, "geometry": { "type": "Point", "coordinates": [ 7.737293940646701, 51.11429224815285 ] } },
{ "type": "Feature", "properties": { "strassenschluessel": "05962000003609299", "bezeichnung": "Ebberg" }, "geometry": { "type": "Point", "coordinates": [ 7.811468725311934, 51.135134444623674 ] } },
{ "type": "Feature", "properties": { "strassenschluessel": "05962000003609300", "bezeichnung": "Echternhagen" }, "geometry": { "type": "Point", "coordinates": [ 7.781228726450014, 51.127517053185045 ] } },
{ "type": "Feature", "properties": { "strassenschluessel": "05962000003609301", "bezeichnung": "Eckertsmühle" }, "geometry": { "type": "Point", "coordinates": [ 7.808627769169363, 51.125774413425198 ] } },
{ "type": "Feature", "properties": { "strassenschluessel": "05962000003609302", "bezeichnung": "Freisemicke" }, "geometry": { "type": "Point", "coordinates": [ 7.789604615602501, 51.120589936308399 ] } },
{ "type": "Feature", "properties": { "strassenschluessel": "05962000003609303", "bezeichnung": "Gerringhausen" }, "geometry": { "type": "Point", "coordinates": [ 7.800921666791969, 51.115565939854669 ] } },
{ "type": "Feature", "properties": { "strassenschluessel": "05962000003609304", "bezeichnung": "Grotewiese" }, "geometry": { "type": "Point", "coordinates": [ 7.811345488043218, 51.11072152176164 ] } },
{ "type": "Feature", "properties": { "strassenschluessel": "05962000003609305", "bezeichnung": "Haumche" }, "geometry": { "type": "Point", "coordinates": [ 7.793526868419964, 51.115794635754348 ] } },
{ "type": "Feature", "properties": { "strassenschluessel": "05962000003609306", "bezeichnung": "Haumchermühle" }, "geometry": { "type": "Point", "coordinates": [ 7.796065212966848, 51.111148520934847 ] } },
{ "type": "Feature", "properties": { "strassenschluessel": "05962000003609307", "bezeichnung": "Mittelhagen" }, "geometry": { "type": "Point", "coordinates": [ 7.77928010047258, 51.125708512732054 ] } },
{ "type": "Feature", "properties": { "strassenschluessel": "05962000003609308", "bezeichnung": "Mühlhofe" }, "geometry": { "type": "Point", "coordinates": [ 7.803153230955626, 51.113230458122906 ] } },
{ "type": "Feature", "properties": { "strassenschluessel": "05962000003609309", "bezeichnung": "Rinkscheid" }, "geometry": { "type": "Point", "coordinates": [ 7.808048151886521, 51.116550137582934 ] } },
{ "type": "Feature", "properties": { "strassenschluessel": "05962000003609310", "bezeichnung": "Schaffeld" }, "geometry": { "type": "Point", "coordinates": [ 7.791501218600432, 51.126620187413018 ] } },
{ "type": "Feature", "properties": { "strassenschluessel": "05962000003609311", "bezeichnung": "Schleifkotten" }, "geometry": { "type": "Point", "coordinates": [ 7.795431501494257, 51.121186920208814 ] } },
{ "type": "Feature", "properties": { "strassenschluessel": "05962000003609312", "bezeichnung": "Schmittepaul" }, "geometry": { "type": "Point", "coordinates": [ 7.810591839806854, 51.121868825392163 ] } },
{ "type": "Feature", "properties": { "strassenschluessel": "05962000003609313", "bezeichnung": "Sellenrade" }, "geometry": { "type": "Point", "coordinates": [ 7.818129536079623, 51.127581832218254 ] } },
{ "type": "Feature", "properties": { "strassenschluessel": "05962000003609314", "bezeichnung": "Sinderhauf" }, "geometry": { "type": "Point", "coordinates": [ 7.774238873075562, 51.12373814631168 ] } },
{ "type": "Feature", "properties": { "strassenschluessel": "05962000003609315", "bezeichnung": "Spädinghausen" }, "geometry": { "type": "Point", "coordinates": [ 7.775018453681961, 51.116597575595854 ] } },
{ "type": "Feature", "properties": { "strassenschluessel": "05962000003609316", "bezeichnung": "Sundfeld" }, "geometry": { "type": "Point", "coordinates": [ 7.78401397013545, 51.115824022362041 ] } },
{ "type": "Feature", "properties": { "strassenschluessel": "05962000003609317", "bezeichnung": "Vorderhagen" }, "geometry": { "type": "Point", "coordinates": [ 7.767302533619031, 51.123515805512909 ] } },
{ "type": "Feature", "properties": { "strassenschluessel": "05962000003609318", "bezeichnung": "Voßsiepen" }, "geometry": { "type": "Point", "coordinates": [ 7.800105037438815, 51.116576646306179 ] } },
{ "type": "Feature", "properties": { "strassenschluessel": "05962000003609319", "bezeichnung": "Karl-Heinrich-Wülfrath-Straße" }, "geometry": { "type": "Point", "coordinates": [ 7.766950994936169, 51.123174790016726 ] } },
{ "type": "Feature", "properties": { "strassenschluessel": "05962000003609329", "bezeichnung": "Ihne" }, "geometry": { "type": "Point", "coordinates": [ 7.782514897345084, 51.110960456720854 ] } },
{ "type": "Feature", "properties": { "strassenschluessel": "05962000003609330", "bezeichnung": "Mittelworbscheid" }, "geometry": { "type": "Point", "coordinates": [ 7.807945145424101, 51.101113972169479 ] } },
{ "type": "Feature", "properties": { "strassenschluessel": "05962000003609331", "bezeichnung": "Oberworbscheid" }, "geometry": { "type": "Point", "coordinates": [ 7.799149736555298, 51.101514535177841 ] } },
{ "type": "Feature", "properties": { "strassenschluessel": "05962000003609332", "bezeichnung": "Siepen" }, "geometry": { "type": "Point", "coordinates": [ 7.815638850759374, 51.107168679271098 ] } },
{ "type": "Feature", "properties": { "strassenschluessel": "05962000003609333", "bezeichnung": "Unterworbscheid" }, "geometry": { "type": "Point", "coordinates": [ 7.81095239530829, 51.102923838307937 ] } },
{ "type": "Feature", "properties": { "strassenschluessel": "05962000003609334", "bezeichnung": "Wickeschliede" }, "geometry": { "type": "Point", "coordinates": [ 7.754868350779547, 51.11171319617408 ] } },
{ "type": "Feature", "properties": { "strassenschluessel": "05962000003609335", "bezeichnung": "Wilkenberg" }, "geometry": { "type": "Point", "coordinates": [ 7.761016665740003, 51.106519796489728 ] } },
{ "type": "Feature", "properties": { "strassenschluessel": "05962000003609336", "bezeichnung": "Wormgermühle" }, "geometry": { "type": "Point", "coordinates": [ 7.770235378963239, 51.112835929580349 ] } },
{ "type": "Feature", "properties": { "strassenschluessel": "05962000003609337", "bezeichnung": "Gewerbegebiet Ihne" }, "geometry": { "type": "Point", "coordinates": [ 7.772749371945578, 51.110822659915321 ] } },
{ "type": "Feature", "properties": { "strassenschluessel": "05962000003609338", "bezeichnung": "Gewerbepark Grünewald" }, "geometry": { "type": "Point", "coordinates": [ 7.693692455842955, 51.087247069380368 ] } },
{ "type": "Feature", "properties": { "strassenschluessel": "05962000003609347", "bezeichnung": "Berg" }, "geometry": { "type": "Point", "coordinates": [ 7.763559054109131, 51.078704067308983 ] } },
{ "type": "Feature", "properties": { "strassenschluessel": "05962000003609348", "bezeichnung": "Berlinghausen" }, "geometry": { "type": "Point", "coordinates": [ 7.776237987696536, 51.079142475434054 ] } },
{ "type": "Feature", "properties": { "strassenschluessel": "05962000003609349", "bezeichnung": "Borneck" }, "geometry": { "type": "Point", "coordinates": [ 7.790261970076328, 51.092896456650756 ] } },
{ "type": "Feature", "properties": { "strassenschluessel": "05962000003609350", "bezeichnung": "Börlinghausen" }, "geometry": { "type": "Point", "coordinates": [ 7.775503061255, 51.077764193962061 ] } },
{ "type": "Feature", "properties": { "strassenschluessel": "05962000003609351", "bezeichnung": "Eseloh" }, "geometry": { "type": "Point", "coordinates": [ 7.773646141489699, 51.091411897047095 ] } },
{ "type": "Feature", "properties": { "strassenschluessel": "05962000003609352", "bezeichnung": "Haustadt" }, "geometry": { "type": "Point", "coordinates": [ 7.785469694753248, 51.092151481701151 ] } },
{ "type": "Feature", "properties": { "strassenschluessel": "05962000003609353", "bezeichnung": "Herringhausen" }, "geometry": { "type": "Point", "coordinates": [ 7.791832472382677, 51.092287025288911 ] } },
{ "type": "Feature", "properties": { "strassenschluessel": "05962000003609354", "bezeichnung": "Listerstraße" }, "geometry": { "type": "Point", "coordinates": [ 7.806703444694512, 51.075980281876703 ] } },
{ "type": "Feature", "properties": { "strassenschluessel": "05962000003609355", "bezeichnung": "Krummenerl" }, "geometry": { "type": "Point", "coordinates": [ 7.758492140683281, 51.079796388204748 ] } },
{ "type": "Feature", "properties": { "strassenschluessel": "05962000003609356", "bezeichnung": "Listerhof" }, "geometry": { "type": "Point", "coordinates": [ 7.758896013223243, 51.083316706459492 ] } },
{ "type": "Feature", "properties": { "strassenschluessel": "05962000003609357", "bezeichnung": "Pütthof" }, "geometry": { "type": "Point", "coordinates": [ 7.789471150677342, 51.097084461320378 ] } },
{ "type": "Feature", "properties": { "strassenschluessel": "05962000003609358", "bezeichnung": "Wiebche" }, "geometry": { "type": "Point", "coordinates": [ 7.779800364932809, 51.097669291659273 ] } },
{ "type": "Feature", "properties": { "strassenschluessel": "05962000003609359", "bezeichnung": "Windebrucher Straße" }, "geometry": { "type": "Point", "coordinates": [ 7.816881551259237, 51.081288630304343 ] } },
{ "type": "Feature", "properties": { "strassenschluessel": "05962000003609360", "bezeichnung": "Eseloher Weg" }, "geometry": { "type": "Point", "coordinates": [ 7.78222984245176, 51.084196235321436 ] } },
{ "type": "Feature", "properties": { "strassenschluessel": "05962000003609361", "bezeichnung": "Lohhagen" }, "geometry": { "type": "Point", "coordinates": [ 7.79174944307162, 51.081893241149913 ] } },
{ "type": "Feature", "properties": { "strassenschluessel": "05962000003609362", "bezeichnung": "Mittellandstraße" }, "geometry": { "type": "Point", "coordinates": [ 7.796974993955745, 51.081476615939124 ] } },
{ "type": "Feature", "properties": { "strassenschluessel": "05962000003609363", "bezeichnung": "Rengerfohr" }, "geometry": { "type": "Point", "coordinates": [ 7.805174484773084, 51.077941251668143 ] } },
{ "type": "Feature", "properties": { "strassenschluessel": "05962000003609365", "bezeichnung": "Überm See" }, "geometry": { "type": "Point", "coordinates": [ 7.799557433774434, 51.079632727362636 ] } },
{ "type": "Feature", "properties": { "strassenschluessel": "05962000003609366", "bezeichnung": "Seeuferstraße" }, "geometry": { "type": "Point", "coordinates": [ 7.817186474670235, 51.082388645870481 ] } },
{ "type": "Feature", "properties": { "strassenschluessel": "05962000003609367", "bezeichnung": "Unterm Weinbusch" }, "geometry": { "type": "Point", "coordinates": [ 7.814183966514228, 51.080385165886184 ] } },
{ "type": "Feature", "properties": { "strassenschluessel": "05962000003609368", "bezeichnung": "Zur Bunne" }, "geometry": { "type": "Point", "coordinates": [ 7.815088873979746, 51.081474095984348 ] } },
{ "type": "Feature", "properties": { "strassenschluessel": "05962000003609369", "bezeichnung": "Heiligenberg" }, "geometry": { "type": "Point", "coordinates": [ 7.814543978758186, 51.076903484850746 ] } },
{ "type": "Feature", "properties": { "strassenschluessel": "05962000003609378", "bezeichnung": "In der Bunne" }, "geometry": { "type": "Point", "coordinates": [ 7.807353897875922, 51.089293817365231 ] } },
{ "type": "Feature", "properties": { "strassenschluessel": "05962000003609380", "bezeichnung": "Bracht" }, "geometry": null },
{ "type": "Feature", "properties": { "strassenschluessel": "05962000003609381", "bezeichnung": "Buntelichte" }, "geometry": { "type": "Point", "coordinates": [ 7.697989610398643, 51.081708548937755 ] } },
{ "type": "Feature", "properties": { "strassenschluessel": "05962000003609382", "bezeichnung": "Grünewald" }, "geometry": { "type": "Point", "coordinates": [ 7.690479316618315, 51.088463634978417 ] } },
{ "type": "Feature", "properties": { "strassenschluessel": "05962000003609383", "bezeichnung": "Hardenberg" }, "geometry": { "type": "Point", "coordinates": [ 7.726714715477677, 51.095788598503731 ] } },
{ "type": "Feature", "properties": { "strassenschluessel": "05962000003609384", "bezeichnung": "Herberg" }, "geometry": { "type": "Point", "coordinates": [ 7.739271760919777, 51.082174686519977 ] } },
{ "type": "Feature", "properties": { "strassenschluessel": "05962000003609385", "bezeichnung": "Holbecke" }, "geometry": { "type": "Point", "coordinates": [ 7.745155117782923, 51.093339418056573 ] } },
{ "type": "Feature", "properties": { "strassenschluessel": "05962000003609386", "bezeichnung": "Imhausen" }, "geometry": { "type": "Point", "coordinates": [ 7.750637777277245, 51.0832600030826 ] } },
{ "type": "Feature", "properties": { "strassenschluessel": "05962000003609387", "bezeichnung": "Ingemert" }, "geometry": { "type": "Point", "coordinates": [ 7.721954871088132, 51.078750165181418 ] } },
{ "type": "Feature", "properties": { "strassenschluessel": "05962000003609388", "bezeichnung": "Ingemertermühle" }, "geometry": { "type": "Point", "coordinates": [ 7.740650766148758, 51.07685141477635 ] } },
{ "type": "Feature", "properties": { "strassenschluessel": "05962000003609389", "bezeichnung": "Ingemerterstraße" }, "geometry": { "type": "Point", "coordinates": [ 7.71420036763916, 51.073131673117672 ] } },
{ "type": "Feature", "properties": { "strassenschluessel": "05962000003609390", "bezeichnung": "Langenohl" }, "geometry": { "type": "Point", "coordinates": [ 7.699621259533366, 51.086531972547846 ] } },
{ "type": "Feature", "properties": { "strassenschluessel": "05962000003609391", "bezeichnung": "Möllsiepen" }, "geometry": { "type": "Point", "coordinates": [ 7.723510611366046, 51.102017729240643 ] } },
{ "type": "Feature", "properties": { "strassenschluessel": "05962000003609392", "bezeichnung": "Oberingemert" }, "geometry": { "type": "Point", "coordinates": [ 7.713055900563852, 51.077347987773315 ] } },
{ "type": "Feature", "properties": { "strassenschluessel": "05962000003609393", "bezeichnung": "Reuen" }, "geometry": { "type": "Point", "coordinates": [ 7.713154920812661, 51.089117630674153 ] } },
{ "type": "Feature", "properties": { "strassenschluessel": "05962000003609394", "bezeichnung": "Schoppen" }, "geometry": { "type": "Point", "coordinates": [ 7.730314763767621, 51.080064162337841 ] } },
{ "type": "Feature", "properties": { "strassenschluessel": "05962000003609395", "bezeichnung": "Valbert-Bahnhof" }, "geometry": { "type": "Point", "coordinates": [ 7.721743865118082, 51.104969048048389 ] } },
{ "type": "Feature", "properties": { "strassenschluessel": "05962000003609397", "bezeichnung": "Feldlage Meinerzhagen" }, "geometry": { "type": "Point", "coordinates": [ 7.75143783010259, 51.117957264468586 ] } }
]
}
