{
"type": "FeatureCollection",
"features": [
{ "type": "Feature", "properties": { "strassenschluessel": "05962000004006901", "bezeichnung": "An der Schleifmühle" }, "geometry": { "type": "Point", "coordinates": [ 7.817613453745293, 51.426188185051842 ] } },
{ "type": "Feature", "properties": { "strassenschluessel": "05962000004006902", "bezeichnung": "Zur Arche" }, "geometry": { "type": "Point", "coordinates": [ 7.819263064646401, 51.426534470392212 ] } },
{ "type": "Feature", "properties": { "strassenschluessel": "05962000004006903", "bezeichnung": "Am Puddelhammer" }, "geometry": { "type": "Point", "coordinates": [ 7.814432154593644, 51.427404087109529 ] } },
{ "type": "Feature", "properties": { "strassenschluessel": "05962000004006904", "bezeichnung": "Nadlerweg" }, "geometry": { "type": "Point", "coordinates": [ 7.812063212607836, 51.428858421954075 ] } },
{ "type": "Feature", "properties": { "strassenschluessel": "05962000004006905", "bezeichnung": "Joseph-Görres-Straße" }, "geometry": { "type": "Point", "coordinates": [ 7.813312779185544, 51.428568210790345 ] } },
{ "type": "Feature", "properties": { "strassenschluessel": "05962000004006906", "bezeichnung": "Am Limberg" }, "geometry": { "type": "Point", "coordinates": [ 7.815541444799738, 51.42833337616257 ] } },
{ "type": "Feature", "properties": { "strassenschluessel": "05962000004006907", "bezeichnung": "Damaschkestraße" }, "geometry": { "type": "Point", "coordinates": [ 7.812543743620547, 51.429529105289127 ] } },
{ "type": "Feature", "properties": { "strassenschluessel": "05962000004006908", "bezeichnung": "Rauherfeld" }, "geometry": { "type": "Point", "coordinates": [ 7.812375806904273, 51.430518495243298 ] } },
{ "type": "Feature", "properties": { "strassenschluessel": "05962000004006909", "bezeichnung": "Reidemeisterstraße" }, "geometry": { "type": "Point", "coordinates": [ 7.81367384948907, 51.429945694857608 ] } },
{ "type": "Feature", "properties": { "strassenschluessel": "05962000004006910", "bezeichnung": "Friesenstraße" }, "geometry": { "type": "Point", "coordinates": [ 7.816546429265881, 51.431030388029114 ] } },
{ "type": "Feature", "properties": { "strassenschluessel": "05962000004006911", "bezeichnung": "Jahnstraße" }, "geometry": { "type": "Point", "coordinates": [ 7.81410017231625, 51.430188393721771 ] } },
{ "type": "Feature", "properties": { "strassenschluessel": "05962000004006912", "bezeichnung": "Münkerstraße" }, "geometry": { "type": "Point", "coordinates": [ 7.815477830942155, 51.432719499938173 ] } },
{ "type": "Feature", "properties": { "strassenschluessel": "05962000004006913", "bezeichnung": "Richard-Schirrmann-Straße" }, "geometry": { "type": "Point", "coordinates": [ 7.816146668437296, 51.4319576165827 ] } },
{ "type": "Feature", "properties": { "strassenschluessel": "05962000004006914", "bezeichnung": "Auf der Kluse" }, "geometry": { "type": "Point", "coordinates": [ 7.81604994435532, 51.433252882579545 ] } },
{ "type": "Feature", "properties": { "strassenschluessel": "05962000004006915", "bezeichnung": "Oesberner Weg" }, "geometry": { "type": "Point", "coordinates": [ 7.809614676234038, 51.433132495110108 ] } },
{ "type": "Feature", "properties": { "strassenschluessel": "05962000004006916", "bezeichnung": "Feldlage Menden" }, "geometry": { "type": "Point", "coordinates": [ 7.777418407255336, 51.44753478179323 ] } },
{ "type": "Feature", "properties": { "strassenschluessel": "05962000004006917", "bezeichnung": "Balver Straße" }, "geometry": { "type": "Point", "coordinates": [ 7.808969816008271, 51.43038471592741 ] } },
{ "type": "Feature", "properties": { "strassenschluessel": "05962000004006918", "bezeichnung": "Carl-Eichelberg-Straße" }, "geometry": null },
{ "type": "Feature", "properties": { "strassenschluessel": "05962000004006919", "bezeichnung": "Am Alten Schornstein" }, "geometry": { "type": "Point", "coordinates": [ 7.821252500553278, 51.422230850675128 ] } },
{ "type": "Feature", "properties": { "strassenschluessel": "05962000004006920", "bezeichnung": "Am Törnigskamp" }, "geometry": { "type": "Point", "coordinates": [ 7.803636378611095, 51.430663610171294 ] } },
{ "type": "Feature", "properties": { "strassenschluessel": "05962000004006921", "bezeichnung": "An der Hl.-Kreuz-Kirche" }, "geometry": { "type": "Point", "coordinates": [ 7.804570506737932, 51.43129160182405 ] } },
{ "type": "Feature", "properties": { "strassenschluessel": "05962000004006922", "bezeichnung": "Siemensstraße" }, "geometry": { "type": "Point", "coordinates": [ 7.805250090439643, 51.430592673498282 ] } },
{ "type": "Feature", "properties": { "strassenschluessel": "05962000004006923", "bezeichnung": "Horlecke" }, "geometry": { "type": "Point", "coordinates": [ 7.811960444230531, 51.424932929434831 ] } },
{ "type": "Feature", "properties": { "strassenschluessel": "05962000004006924", "bezeichnung": "Keplerstraße" }, "geometry": { "type": "Point", "coordinates": [ 7.813837647030511, 51.425163169964222 ] } },
{ "type": "Feature", "properties": { "strassenschluessel": "05962000004006925", "bezeichnung": "Dieselweg" }, "geometry": { "type": "Point", "coordinates": [ 7.815715463174173, 51.423866463208228 ] } },
{ "type": "Feature", "properties": { "strassenschluessel": "05962000004006926", "bezeichnung": "Bessemerweg" }, "geometry": { "type": "Point", "coordinates": [ 7.820260266388483, 51.4226417329429 ] } },
{ "type": "Feature", "properties": { "strassenschluessel": "05962000004006927", "bezeichnung": "Intzestraße" }, "geometry": { "type": "Point", "coordinates": [ 7.811996813489253, 51.424477272969789 ] } },
{ "type": "Feature", "properties": { "strassenschluessel": "05962000004006928", "bezeichnung": "Leibnizstraße" }, "geometry": { "type": "Point", "coordinates": [ 7.811456179997823, 51.423758237188146 ] } },
{ "type": "Feature", "properties": { "strassenschluessel": "05962000004006929", "bezeichnung": "Gutenbergstraße" }, "geometry": { "type": "Point", "coordinates": [ 7.808254920643721, 51.424299052255634 ] } },
{ "type": "Feature", "properties": { "strassenschluessel": "05962000004006930", "bezeichnung": "Eupener Straße" }, "geometry": { "type": "Point", "coordinates": [ 7.805433890859385, 51.424843610908901 ] } },
{ "type": "Feature", "properties": { "strassenschluessel": "05962000004006931", "bezeichnung": "Friedrich-Glunz-Straße" }, "geometry": { "type": "Point", "coordinates": [ 7.806156554920195, 51.426717895910862 ] } },
{ "type": "Feature", "properties": { "strassenschluessel": "05962000004006932", "bezeichnung": "Wilhelm-Dortmann-Straße" }, "geometry": { "type": "Point", "coordinates": [ 7.803170843963085, 51.423163787391751 ] } },
{ "type": "Feature", "properties": { "strassenschluessel": "05962000004006933", "bezeichnung": "Am Haunsberg" }, "geometry": { "type": "Point", "coordinates": [ 7.801288391734821, 51.423759910263385 ] } },
{ "type": "Feature", "properties": { "strassenschluessel": "05962000004006934", "bezeichnung": "Oeseufer" }, "geometry": { "type": "Point", "coordinates": [ 7.800658948317997, 51.42396051849169 ] } },
{ "type": "Feature", "properties": { "strassenschluessel": "05962000004006935", "bezeichnung": "Am Vogelsang" }, "geometry": { "type": "Point", "coordinates": [ 7.800561329152068, 51.422959532826077 ] } },
{ "type": "Feature", "properties": { "strassenschluessel": "05962000004006936", "bezeichnung": "Kösterskämpchen" }, "geometry": { "type": "Point", "coordinates": [ 7.798461336909455, 51.424094611587691 ] } },
{ "type": "Feature", "properties": { "strassenschluessel": "05962000004006937", "bezeichnung": "An der Walkenmühle" }, "geometry": { "type": "Point", "coordinates": [ 7.799899488037772, 51.42453282799741 ] } },
{ "type": "Feature", "properties": { "strassenschluessel": "05962000004006938", "bezeichnung": "An der Fingerhutsmühle" }, "geometry": { "type": "Point", "coordinates": [ 7.800017740960755, 51.42626120386965 ] } },
{ "type": "Feature", "properties": { "strassenschluessel": "05962000004006939", "bezeichnung": "Wünnefeld" }, "geometry": { "type": "Point", "coordinates": [ 7.802398025481557, 51.426727473777369 ] } },
{ "type": "Feature", "properties": { "strassenschluessel": "05962000004006940", "bezeichnung": "Trift" }, "geometry": { "type": "Point", "coordinates": [ 7.80083557464717, 51.427344834283346 ] } },
{ "type": "Feature", "properties": { "strassenschluessel": "05962000004006942", "bezeichnung": "Iserlohner Landstraße" }, "geometry": { "type": "Point", "coordinates": [ 7.795849484397783, 51.423154470487283 ] } },
{ "type": "Feature", "properties": { "strassenschluessel": "05962000004006943", "bezeichnung": "Apricker Weg" }, "geometry": { "type": "Point", "coordinates": [ 7.802365609879587, 51.423017836550841 ] } },
{ "type": "Feature", "properties": { "strassenschluessel": "05962000004006944", "bezeichnung": "Wilhelmine-Trurnit-Straße" }, "geometry": { "type": "Point", "coordinates": [ 7.744013694928292, 51.447228625834832 ] } },
{ "type": "Feature", "properties": { "strassenschluessel": "05962000004006945", "bezeichnung": "Reifenbergring" }, "geometry": null },
{ "type": "Feature", "properties": { "strassenschluessel": "05962000004006946", "bezeichnung": "Samuel-Rothschild-Straße" }, "geometry": null },
{ "type": "Feature", "properties": { "strassenschluessel": "05962000004006951", "bezeichnung": "Biggelebenstraße" }, "geometry": { "type": "Point", "coordinates": [ 7.789488926255563, 51.421248194199357 ] } },
{ "type": "Feature", "properties": { "strassenschluessel": "05962000004006952", "bezeichnung": "Hassenbruch" }, "geometry": { "type": "Point", "coordinates": [ 7.793475133284653, 51.422708890627582 ] } },
{ "type": "Feature", "properties": { "strassenschluessel": "05962000004006953", "bezeichnung": "Wulffstraße" }, "geometry": { "type": "Point", "coordinates": [ 7.791726042631953, 51.422588063860964 ] } },
{ "type": "Feature", "properties": { "strassenschluessel": "05962000004006954", "bezeichnung": "Overhuesstraße" }, "geometry": { "type": "Point", "coordinates": [ 7.790146258064544, 51.423245146254274 ] } },
{ "type": "Feature", "properties": { "strassenschluessel": "05962000004006955", "bezeichnung": "Von-Ketteler-Straße" }, "geometry": { "type": "Point", "coordinates": [ 7.794118009492043, 51.424478777054361 ] } },
{ "type": "Feature", "properties": { "strassenschluessel": "05962000004006956", "bezeichnung": "Waldemei" }, "geometry": { "type": "Point", "coordinates": [ 7.791296217380758, 51.426060922781787 ] } },
{ "type": "Feature", "properties": { "strassenschluessel": "05962000004006957", "bezeichnung": "Am Obsthof" }, "geometry": { "type": "Point", "coordinates": [ 7.795667218073414, 51.425376524690584 ] } },
{ "type": "Feature", "properties": { "strassenschluessel": "05962000004006958", "bezeichnung": "Theodor-Hürth-Straße" }, "geometry": { "type": "Point", "coordinates": [ 7.795607493319931, 51.424986563126922 ] } },
{ "type": "Feature", "properties": { "strassenschluessel": "05962000004006959", "bezeichnung": "Vikar-Dissen-Weg" }, "geometry": { "type": "Point", "coordinates": [ 7.79632848861214, 51.426413742881202 ] } },
{ "type": "Feature", "properties": { "strassenschluessel": "05962000004006960", "bezeichnung": "Rohnheide" }, "geometry": { "type": "Point", "coordinates": [ 7.796743907983983, 51.427188934316497 ] } },
{ "type": "Feature", "properties": { "strassenschluessel": "05962000004006961", "bezeichnung": "Siebergskamp" }, "geometry": { "type": "Point", "coordinates": [ 7.798664790781978, 51.427638918022268 ] } },
{ "type": "Feature", "properties": { "strassenschluessel": "05962000004006962", "bezeichnung": "Franz-Schweitzer-Straße" }, "geometry": { "type": "Point", "coordinates": [ 7.796140240803147, 51.428245749061375 ] } },
{ "type": "Feature", "properties": { "strassenschluessel": "05962000004006963", "bezeichnung": "Kaplan-Wiesemann-Straße" }, "geometry": { "type": "Point", "coordinates": [ 7.795105498715394, 51.427204808577031 ] } },
{ "type": "Feature", "properties": { "strassenschluessel": "05962000004006964", "bezeichnung": "Westerburgstraße" }, "geometry": { "type": "Point", "coordinates": [ 7.793097236155362, 51.42751060312726 ] } },
{ "type": "Feature", "properties": { "strassenschluessel": "05962000004006965", "bezeichnung": "Joseph-Beierle-Straße" }, "geometry": { "type": "Point", "coordinates": [ 7.797009142645085, 51.428712637709793 ] } },
{ "type": "Feature", "properties": { "strassenschluessel": "05962000004006966", "bezeichnung": "Pater-Alker-Weg" }, "geometry": { "type": "Point", "coordinates": [ 7.796649675303749, 51.428831071996576 ] } },
{ "type": "Feature", "properties": { "strassenschluessel": "05962000004006967", "bezeichnung": "Alte Gärtnerei" }, "geometry": { "type": "Point", "coordinates": [ 7.793943547807785, 51.425060788153104 ] } },
{ "type": "Feature", "properties": { "strassenschluessel": "05962000004006970", "bezeichnung": "Renneweg" }, "geometry": { "type": "Point", "coordinates": [ 7.798218292650093, 51.42975751627398 ] } },
{ "type": "Feature", "properties": { "strassenschluessel": "05962000004006971", "bezeichnung": "Am Felsenkeller" }, "geometry": { "type": "Point", "coordinates": [ 7.798480635401049, 51.426818706152325 ] } },
{ "type": "Feature", "properties": { "strassenschluessel": "05962000004006972", "bezeichnung": "Schattweg" }, "geometry": { "type": "Point", "coordinates": [ 7.799448659112044, 51.4296366881361 ] } },
{ "type": "Feature", "properties": { "strassenschluessel": "05962000004006973", "bezeichnung": "Humboldtweg" }, "geometry": { "type": "Point", "coordinates": [ 7.7978550039328, 51.430805662258507 ] } },
{ "type": "Feature", "properties": { "strassenschluessel": "05962000004006974", "bezeichnung": "Klosterstraße" }, "geometry": { "type": "Point", "coordinates": [ 7.797374893124035, 51.432571738431882 ] } },
{ "type": "Feature", "properties": { "strassenschluessel": "05962000004006975", "bezeichnung": "Vinckeweg" }, "geometry": { "type": "Point", "coordinates": [ 7.796656494158484, 51.430755668849947 ] } },
{ "type": "Feature", "properties": { "strassenschluessel": "05962000004006976", "bezeichnung": "Röntgenstraße" }, "geometry": { "type": "Point", "coordinates": [ 7.796638560227503, 51.43195072873079 ] } },
{ "type": "Feature", "properties": { "strassenschluessel": "05962000004006977", "bezeichnung": "Windthorststraße" }, "geometry": { "type": "Point", "coordinates": [ 7.795192536120158, 51.43182001835963 ] } },
{ "type": "Feature", "properties": { "strassenschluessel": "05962000004006978", "bezeichnung": "Am Ziegelbrand" }, "geometry": { "type": "Point", "coordinates": [ 7.793390225788522, 51.433676395640141 ] } },
{ "type": "Feature", "properties": { "strassenschluessel": "05962000004006979", "bezeichnung": "Gisbert-Kranz-Straße" }, "geometry": { "type": "Point", "coordinates": [ 7.792508723465565, 51.432883722729613 ] } },
{ "type": "Feature", "properties": { "strassenschluessel": "05962000004006981", "bezeichnung": "Bürgermeister-Rau-Straße" }, "geometry": { "type": "Point", "coordinates": [ 7.787232813884092, 51.430678500046483 ] } },
{ "type": "Feature", "properties": { "strassenschluessel": "05962000004006982", "bezeichnung": "Leitmecke" }, "geometry": { "type": "Point", "coordinates": [ 7.787683396050798, 51.432005664719881 ] } },
{ "type": "Feature", "properties": { "strassenschluessel": "05962000004006983", "bezeichnung": "Heimkerweg" }, "geometry": { "type": "Point", "coordinates": [ 7.788390813353879, 51.432323581326642 ] } },
{ "type": "Feature", "properties": { "strassenschluessel": "05962000004006984", "bezeichnung": "Bischof-Drobe-Straße" }, "geometry": { "type": "Point", "coordinates": [ 7.790654964626549, 51.4335080812711 ] } },
{ "type": "Feature", "properties": { "strassenschluessel": "05962000004006985", "bezeichnung": "Nibelungenstraße" }, "geometry": { "type": "Point", "coordinates": [ 7.789283437852285, 51.433655109729855 ] } },
{ "type": "Feature", "properties": { "strassenschluessel": "05962000004006986", "bezeichnung": "Sugambernweg" }, "geometry": { "type": "Point", "coordinates": [ 7.787691296140458, 51.433357735429674 ] } },
{ "type": "Feature", "properties": { "strassenschluessel": "05962000004006987", "bezeichnung": "Hombergskamp" }, "geometry": { "type": "Point", "coordinates": [ 7.786171552368563, 51.43329700155725 ] } },
{ "type": "Feature", "properties": { "strassenschluessel": "05962000004006988", "bezeichnung": "Bischof-Henninghaus-Straße" }, "geometry": { "type": "Point", "coordinates": [ 7.78385287530724, 51.433966344738209 ] } },
{ "type": "Feature", "properties": { "strassenschluessel": "05962000004006989", "bezeichnung": "Am Hahnenbusch" }, "geometry": { "type": "Point", "coordinates": [ 7.78210523242192, 51.431928938043981 ] } },
{ "type": "Feature", "properties": { "strassenschluessel": "05962000004006990", "bezeichnung": "Radestaken" }, "geometry": { "type": "Point", "coordinates": [ 7.780159512361497, 51.433015152243634 ] } },
{ "type": "Feature", "properties": { "strassenschluessel": "05962000004006991", "bezeichnung": "Pastor-Funke-Straße" }, "geometry": { "type": "Point", "coordinates": [ 7.780575631572265, 51.429927376764908 ] } },
{ "type": "Feature", "properties": { "strassenschluessel": "05962000004007001", "bezeichnung": "Am Hünenköpfchen" }, "geometry": { "type": "Point", "coordinates": [ 7.807458048467709, 51.434128723067182 ] } },
{ "type": "Feature", "properties": { "strassenschluessel": "05962000004007002", "bezeichnung": "Schützenstraße" }, "geometry": { "type": "Point", "coordinates": [ 7.804355610145934, 51.434293842881083 ] } },
{ "type": "Feature", "properties": { "strassenschluessel": "05962000004007003", "bezeichnung": "Wennem.-Schmittmann-Straße" }, "geometry": { "type": "Point", "coordinates": [ 7.804026464391472, 51.433276157691715 ] } },
{ "type": "Feature", "properties": { "strassenschluessel": "05962000004007004", "bezeichnung": "Twiete" }, "geometry": { "type": "Point", "coordinates": [ 7.80264029010983, 51.434362309055373 ] } },
{ "type": "Feature", "properties": { "strassenschluessel": "05962000004007005", "bezeichnung": "Rodenbergstraße" }, "geometry": { "type": "Point", "coordinates": [ 7.80217342663583, 51.433653993414616 ] } },
{ "type": "Feature", "properties": { "strassenschluessel": "05962000004007006", "bezeichnung": "Wilhelmstraße" }, "geometry": { "type": "Point", "coordinates": [ 7.801103342293731, 51.433596662549881 ] } },
{ "type": "Feature", "properties": { "strassenschluessel": "05962000004007007", "bezeichnung": "Kolpingstraße" }, "geometry": { "type": "Point", "coordinates": [ 7.800349570473783, 51.433849744402693 ] } },
{ "type": "Feature", "properties": { "strassenschluessel": "05962000004007008", "bezeichnung": "Brückstraße" }, "geometry": { "type": "Point", "coordinates": [ 7.798908743524473, 51.433985007767141 ] } },
{ "type": "Feature", "properties": { "strassenschluessel": "05962000004007009", "bezeichnung": "Baustraße" }, "geometry": { "type": "Point", "coordinates": [ 7.798422912690609, 51.434458696090047 ] } },
{ "type": "Feature", "properties": { "strassenschluessel": "05962000004007010", "bezeichnung": "Kapellengasse" }, "geometry": { "type": "Point", "coordinates": [ 7.799187624545696, 51.435732535533248 ] } },
{ "type": "Feature", "properties": { "strassenschluessel": "05962000004007011", "bezeichnung": "Kapellenstraße" }, "geometry": { "type": "Point", "coordinates": [ 7.800466764966997, 51.435661059833699 ] } },
{ "type": "Feature", "properties": { "strassenschluessel": "05962000004007012", "bezeichnung": "Lohmühle" }, "geometry": { "type": "Point", "coordinates": [ 7.795452520351751, 51.435510807258822 ] } },
{ "type": "Feature", "properties": { "strassenschluessel": "05962000004007013", "bezeichnung": "Walramstraße" }, "geometry": { "type": "Point", "coordinates": [ 7.797918907067404, 51.434137989935664 ] } },
{ "type": "Feature", "properties": { "strassenschluessel": "05962000004007016", "bezeichnung": "Obere Promenade" }, "geometry": { "type": "Point", "coordinates": [ 7.796024599202766, 51.434100285255234 ] } },
{ "type": "Feature", "properties": { "strassenschluessel": "05962000004007021", "bezeichnung": "Apothekergasse" }, "geometry": { "type": "Point", "coordinates": [ 7.795469245350627, 51.438633048864894 ] } },
{ "type": "Feature", "properties": { "strassenschluessel": "05962000004007022", "bezeichnung": "Bahnhofstraße" }, "geometry": { "type": "Point", "coordinates": [ 7.794716018352593, 51.437104849493153 ] } },
{ "type": "Feature", "properties": { "strassenschluessel": "05962000004007023", "bezeichnung": "An der Stadtmauer" }, "geometry": { "type": "Point", "coordinates": [ 7.794900456131593, 51.438927859229814 ] } },
{ "type": "Feature", "properties": { "strassenschluessel": "05962000004007024", "bezeichnung": "Brandstraße" }, "geometry": { "type": "Point", "coordinates": [ 7.796624292145192, 51.43729304190915 ] } },
{ "type": "Feature", "properties": { "strassenschluessel": "05962000004007025", "bezeichnung": "Färbergasse" }, "geometry": { "type": "Point", "coordinates": [ 7.796338795763352, 51.436383519503821 ] } },
{ "type": "Feature", "properties": { "strassenschluessel": "05962000004007026", "bezeichnung": "Gerberstraße" }, "geometry": { "type": "Point", "coordinates": [ 7.797137012251969, 51.436930799385415 ] } },
{ "type": "Feature", "properties": { "strassenschluessel": "05962000004007027", "bezeichnung": "Hauptstraße" }, "geometry": { "type": "Point", "coordinates": [ 7.79689544964693, 51.436547390020969 ] } },
{ "type": "Feature", "properties": { "strassenschluessel": "05962000004007028", "bezeichnung": "Hochstraße" }, "geometry": { "type": "Point", "coordinates": [ 7.7966106340724, 51.436652121874623 ] } },
{ "type": "Feature", "properties": { "strassenschluessel": "05962000004007029", "bezeichnung": "Kirchplatz" }, "geometry": { "type": "Point", "coordinates": [ 7.796859811412138, 51.437886251204773 ] } },
{ "type": "Feature", "properties": { "strassenschluessel": "05962000004007030", "bezeichnung": "Kirchstraße" }, "geometry": { "type": "Point", "coordinates": [ 7.794687327844821, 51.438564304887763 ] } },
{ "type": "Feature", "properties": { "strassenschluessel": "05962000004007031", "bezeichnung": "Marktplatz" }, "geometry": { "type": "Point", "coordinates": [ 7.79552022597884, 51.438336989862833 ] } },
{ "type": "Feature", "properties": { "strassenschluessel": "05962000004007032", "bezeichnung": "Marktstraße" }, "geometry": { "type": "Point", "coordinates": [ 7.796293370791762, 51.437707110169548 ] } },
{ "type": "Feature", "properties": { "strassenschluessel": "05962000004007033", "bezeichnung": "Neumarkt" }, "geometry": { "type": "Point", "coordinates": [ 7.79400073601372, 51.437229715029332 ] } },
{ "type": "Feature", "properties": { "strassenschluessel": "05962000004007034", "bezeichnung": "Ostwall" }, "geometry": { "type": "Point", "coordinates": [ 7.798608585912476, 51.436044676833376 ] } },
{ "type": "Feature", "properties": { "strassenschluessel": "05962000004007035", "bezeichnung": "Pastoratstraße" }, "geometry": { "type": "Point", "coordinates": [ 7.79833472562669, 51.436603931254886 ] } },
{ "type": "Feature", "properties": { "strassenschluessel": "05962000004007036", "bezeichnung": "Querstraße" }, "geometry": { "type": "Point", "coordinates": [ 7.794468982756327, 51.438120863145485 ] } },
{ "type": "Feature", "properties": { "strassenschluessel": "05962000004007037", "bezeichnung": "Sackgasse" }, "geometry": { "type": "Point", "coordinates": [ 7.795087637285889, 51.436962518607459 ] } },
{ "type": "Feature", "properties": { "strassenschluessel": "05962000004007038", "bezeichnung": "Südwall" }, "geometry": { "type": "Point", "coordinates": [ 7.797742559740175, 51.435562669716369 ] } },
{ "type": "Feature", "properties": { "strassenschluessel": "05962000004007039", "bezeichnung": "Synagogengasse" }, "geometry": { "type": "Point", "coordinates": [ 7.795431760323479, 51.436855162680835 ] } },
{ "type": "Feature", "properties": { "strassenschluessel": "05962000004007040", "bezeichnung": "Turmstraße" }, "geometry": { "type": "Point", "coordinates": [ 7.793290061341482, 51.437606524015607 ] } },
{ "type": "Feature", "properties": { "strassenschluessel": "05962000004007041", "bezeichnung": "Vinzenzstraße" }, "geometry": { "type": "Point", "coordinates": [ 7.795759604028068, 51.436364514006243 ] } },
{ "type": "Feature", "properties": { "strassenschluessel": "05962000004007042", "bezeichnung": "Wasserstraße" }, "geometry": { "type": "Point", "coordinates": [ 7.795359510372525, 51.436599075822535 ] } },
{ "type": "Feature", "properties": { "strassenschluessel": "05962000004007043", "bezeichnung": "Nordwall" }, "geometry": { "type": "Point", "coordinates": [ 7.796094531009059, 51.439155682151608 ] } },
{ "type": "Feature", "properties": { "strassenschluessel": "05962000004007044", "bezeichnung": "Westwall" }, "geometry": { "type": "Point", "coordinates": [ 7.792831033285998, 51.436680009430667 ] } },
{ "type": "Feature", "properties": { "strassenschluessel": "05962000004007046", "bezeichnung": "Bromberken" }, "geometry": { "type": "Point", "coordinates": [ 7.795372857813937, 51.440043016332439 ] } },
{ "type": "Feature", "properties": { "strassenschluessel": "05962000004007047", "bezeichnung": "Zeppelinstraße" }, "geometry": { "type": "Point", "coordinates": [ 7.791692983842966, 51.442081852546188 ] } },
{ "type": "Feature", "properties": { "strassenschluessel": "05962000004007048", "bezeichnung": "Gartenstraße" }, "geometry": { "type": "Point", "coordinates": [ 7.792339787234115, 51.440551155591969 ] } },
{ "type": "Feature", "properties": { "strassenschluessel": "05962000004007049", "bezeichnung": "Am alten Amt" }, "geometry": { "type": "Point", "coordinates": [ 7.789915010339186, 51.441434162205425 ] } },
{ "type": "Feature", "properties": { "strassenschluessel": "05962000004007050", "bezeichnung": "Unnaer Straße" }, "geometry": { "type": "Point", "coordinates": [ 7.790755757828402, 51.440728960134074 ] } },
{ "type": "Feature", "properties": { "strassenschluessel": "05962000004007051", "bezeichnung": "Poststraße" }, "geometry": { "type": "Point", "coordinates": [ 7.791753435957329, 51.439160331755396 ] } },
{ "type": "Feature", "properties": { "strassenschluessel": "05962000004007052", "bezeichnung": "Kaiserstraße" }, "geometry": { "type": "Point", "coordinates": [ 7.791942291303555, 51.441541891891418 ] } },
{ "type": "Feature", "properties": { "strassenschluessel": "05962000004007053", "bezeichnung": "Papenhausenstraße" }, "geometry": { "type": "Point", "coordinates": [ 7.79210365713949, 51.4386160332811 ] } },
{ "type": "Feature", "properties": { "strassenschluessel": "05962000004007054", "bezeichnung": "Hördinger Kamp" }, "geometry": { "type": "Point", "coordinates": [ 7.790110844661273, 51.439049177806567 ] } },
{ "type": "Feature", "properties": { "strassenschluessel": "05962000004007055", "bezeichnung": "Pastor-Quade-Straße" }, "geometry": { "type": "Point", "coordinates": [ 7.791751795041714, 51.438130376633751 ] } },
{ "type": "Feature", "properties": { "strassenschluessel": "05962000004007056", "bezeichnung": "Bodelschwinghstraße" }, "geometry": { "type": "Point", "coordinates": [ 7.790202272319289, 51.438298026155756 ] } },
{ "type": "Feature", "properties": { "strassenschluessel": "05962000004007057", "bezeichnung": "Daimlerstraße" }, "geometry": { "type": "Point", "coordinates": [ 7.787179849967018, 51.439812646331063 ] } },
{ "type": "Feature", "properties": { "strassenschluessel": "05962000004007058", "bezeichnung": "Untere Promenade" }, "geometry": { "type": "Point", "coordinates": [ 7.785065914032141, 51.440054463483754 ] } },
{ "type": "Feature", "properties": { "strassenschluessel": "05962000004007060", "bezeichnung": "Märkische Straße" }, "geometry": { "type": "Point", "coordinates": [ 7.787712524843314, 51.441371030725058 ] } },
{ "type": "Feature", "properties": { "strassenschluessel": "05962000004007061", "bezeichnung": "Am Hönneufer" }, "geometry": { "type": "Point", "coordinates": [ 7.789516231135188, 51.438211443233143 ] } },
{ "type": "Feature", "properties": { "strassenschluessel": "05962000004007062", "bezeichnung": "Am Wasserrad" }, "geometry": { "type": "Point", "coordinates": [ 7.79062094945461, 51.436945242168676 ] } },
{ "type": "Feature", "properties": { "strassenschluessel": "05962000004007063", "bezeichnung": "An der Gracht" }, "geometry": { "type": "Point", "coordinates": [ 7.788286701235545, 51.438726406596764 ] } },
{ "type": "Feature", "properties": { "strassenschluessel": "05962000004007065", "bezeichnung": "Krankenhausweg" }, "geometry": { "type": "Point", "coordinates": [ 7.798382092239966, 51.438137309947621 ] } },
{ "type": "Feature", "properties": { "strassenschluessel": "05962000004007066", "bezeichnung": "Am Stein" }, "geometry": { "type": "Point", "coordinates": [ 7.80193670194566, 51.437278333870658 ] } },
{ "type": "Feature", "properties": { "strassenschluessel": "05962000004007067", "bezeichnung": "Bittfahrt" }, "geometry": { "type": "Point", "coordinates": [ 7.799977567966529, 51.438271371491069 ] } },
{ "type": "Feature", "properties": { "strassenschluessel": "05962000004007068", "bezeichnung": "Antoniusweg" }, "geometry": { "type": "Point", "coordinates": [ 7.802386083097942, 51.437621565402864 ] } },
{ "type": "Feature", "properties": { "strassenschluessel": "05962000004007069", "bezeichnung": "Am Kapellenberg" }, "geometry": { "type": "Point", "coordinates": [ 7.80452721543707, 51.437847257358115 ] } },
{ "type": "Feature", "properties": { "strassenschluessel": "05962000004007071", "bezeichnung": "Am Goldacker" }, "geometry": { "type": "Point", "coordinates": [ 7.803501952003066, 51.438654813699969 ] } },
{ "type": "Feature", "properties": { "strassenschluessel": "05962000004007072", "bezeichnung": "An den Posten" }, "geometry": { "type": "Point", "coordinates": [ 7.804057996154905, 51.438983417830492 ] } },
{ "type": "Feature", "properties": { "strassenschluessel": "05962000004007073", "bezeichnung": "Fuchshöhlenweg" }, "geometry": { "type": "Point", "coordinates": [ 7.801942243539856, 51.438987864011217 ] } },
{ "type": "Feature", "properties": { "strassenschluessel": "05962000004007074", "bezeichnung": "Hahnenwall" }, "geometry": { "type": "Point", "coordinates": [ 7.798743446329545, 51.439064536726896 ] } },
{ "type": "Feature", "properties": { "strassenschluessel": "05962000004007075", "bezeichnung": "Ob dem Glockenteich" }, "geometry": { "type": "Point", "coordinates": [ 7.800632105842136, 51.439477385828326 ] } },
{ "type": "Feature", "properties": { "strassenschluessel": "05962000004007076", "bezeichnung": "An der Gollackswiese" }, "geometry": { "type": "Point", "coordinates": [ 7.804485371193479, 51.440822035386645 ] } },
{ "type": "Feature", "properties": { "strassenschluessel": "05962000004007077", "bezeichnung": "Gollacksplatz" }, "geometry": { "type": "Point", "coordinates": [ 7.805828970765222, 51.441565037848278 ] } },
{ "type": "Feature", "properties": { "strassenschluessel": "05962000004007078", "bezeichnung": "Werringser Straße" }, "geometry": { "type": "Point", "coordinates": [ 7.8024984132471, 51.441311678579396 ] } },
{ "type": "Feature", "properties": { "strassenschluessel": "05962000004007079", "bezeichnung": "Im Tiefen Winkel" }, "geometry": { "type": "Point", "coordinates": [ 7.804169216055165, 51.443425277891528 ] } },
{ "type": "Feature", "properties": { "strassenschluessel": "05962000004007080", "bezeichnung": "Marderweg" }, "geometry": { "type": "Point", "coordinates": [ 7.808985535302244, 51.443463141165545 ] } },
{ "type": "Feature", "properties": { "strassenschluessel": "05962000004007090", "bezeichnung": "Höhenweg" }, "geometry": { "type": "Point", "coordinates": [ 7.796340212185977, 51.445643798748669 ] } },
{ "type": "Feature", "properties": { "strassenschluessel": "05962000004007091", "bezeichnung": "Kalverschnack" }, "geometry": { "type": "Point", "coordinates": [ 7.79848436521278, 51.443689674780885 ] } },
{ "type": "Feature", "properties": { "strassenschluessel": "05962000004007092", "bezeichnung": "Am Lahrkreuz" }, "geometry": { "type": "Point", "coordinates": [ 7.801572614659093, 51.443538806875011 ] } },
{ "type": "Feature", "properties": { "strassenschluessel": "05962000004007093", "bezeichnung": "Auf dem Schießstand" }, "geometry": { "type": "Point", "coordinates": [ 7.799897236785343, 51.44434600526094 ] } },
{ "type": "Feature", "properties": { "strassenschluessel": "05962000004007094", "bezeichnung": "Augustin-Wibbelt-Straße" }, "geometry": { "type": "Point", "coordinates": [ 7.800149490238276, 51.445107461426581 ] } },
{ "type": "Feature", "properties": { "strassenschluessel": "05962000004007095", "bezeichnung": "Wilhelm-Busch-Straße" }, "geometry": { "type": "Point", "coordinates": [ 7.800261116123212, 51.444377093237932 ] } },
{ "type": "Feature", "properties": { "strassenschluessel": "05962000004007096", "bezeichnung": "Fritz-Reuter-Straße" }, "geometry": { "type": "Point", "coordinates": [ 7.801583661287335, 51.444785110898536 ] } },
{ "type": "Feature", "properties": { "strassenschluessel": "05962000004007097", "bezeichnung": "Joachim-Ringelnatz-Straße" }, "geometry": { "type": "Point", "coordinates": [ 7.799611699828167, 51.44570754799841 ] } },
{ "type": "Feature", "properties": { "strassenschluessel": "05962000004007098", "bezeichnung": "Albrecht-Dürer-Straße" }, "geometry": { "type": "Point", "coordinates": [ 7.807185718288246, 51.444131237854421 ] } },
{ "type": "Feature", "properties": { "strassenschluessel": "05962000004007099", "bezeichnung": "Karl-Spitzweg-Straße" }, "geometry": { "type": "Point", "coordinates": [ 7.804834166824588, 51.44428955994244 ] } },
{ "type": "Feature", "properties": { "strassenschluessel": "05962000004007100", "bezeichnung": "Ludwig-Richter-Straße" }, "geometry": { "type": "Point", "coordinates": [ 7.804786567582307, 51.44496629882682 ] } },
{ "type": "Feature", "properties": { "strassenschluessel": "05962000004007101", "bezeichnung": "Lortzingstraße" }, "geometry": { "type": "Point", "coordinates": [ 7.795697822109795, 51.447088856464561 ] } },
{ "type": "Feature", "properties": { "strassenschluessel": "05962000004007102", "bezeichnung": "Ob dem Lahrtal" }, "geometry": { "type": "Point", "coordinates": [ 7.794027129362357, 51.447888996523851 ] } },
{ "type": "Feature", "properties": { "strassenschluessel": "05962000004007103", "bezeichnung": "Kreutzerstraße" }, "geometry": { "type": "Point", "coordinates": [ 7.80165202112035, 51.448200076136878 ] } },
{ "type": "Feature", "properties": { "strassenschluessel": "05962000004007104", "bezeichnung": "Richard-Wagner-Straße" }, "geometry": { "type": "Point", "coordinates": [ 7.796387725189078, 51.446458301192344 ] } },
{ "type": "Feature", "properties": { "strassenschluessel": "05962000004007105", "bezeichnung": "Richard-Strauß-Straße" }, "geometry": { "type": "Point", "coordinates": [ 7.797027044112022, 51.446571826165808 ] } },
{ "type": "Feature", "properties": { "strassenschluessel": "05962000004007106", "bezeichnung": "Im Lahrfeld" }, "geometry": { "type": "Point", "coordinates": [ 7.804847135957679, 51.445095784229721 ] } },
{ "type": "Feature", "properties": { "strassenschluessel": "05962000004007107", "bezeichnung": "Schubertstraße" }, "geometry": { "type": "Point", "coordinates": [ 7.801983302848952, 51.446767679130126 ] } },
{ "type": "Feature", "properties": { "strassenschluessel": "05962000004007108", "bezeichnung": "Schumannstraße" }, "geometry": { "type": "Point", "coordinates": [ 7.802778129096574, 51.446441053588856 ] } },
{ "type": "Feature", "properties": { "strassenschluessel": "05962000004007109", "bezeichnung": "Lisztstraße" }, "geometry": { "type": "Point", "coordinates": [ 7.803424321755807, 51.445519282478649 ] } },
{ "type": "Feature", "properties": { "strassenschluessel": "05962000004007110", "bezeichnung": "Beethovenstraße" }, "geometry": { "type": "Point", "coordinates": [ 7.806331352064284, 51.446187763668192 ] } },
{ "type": "Feature", "properties": { "strassenschluessel": "05962000004007111", "bezeichnung": "Emil-Nolde-Straße" }, "geometry": { "type": "Point", "coordinates": [ 7.807668115186577, 51.445352337512432 ] } },
{ "type": "Feature", "properties": { "strassenschluessel": "05962000004007112", "bezeichnung": "August-Macke-Straße" }, "geometry": { "type": "Point", "coordinates": [ 7.809973663317268, 51.445485721364491 ] } },
{ "type": "Feature", "properties": { "strassenschluessel": "05962000004007113", "bezeichnung": "Von-Lilien-Straße" }, "geometry": { "type": "Point", "coordinates": [ 7.808583634463383, 51.444517660436667 ] } },
{ "type": "Feature", "properties": { "strassenschluessel": "05962000004007114", "bezeichnung": "Hans-Holbein-Straße" }, "geometry": { "type": "Point", "coordinates": [ 7.808348686435782, 51.447308919638431 ] } },
{ "type": "Feature", "properties": { "strassenschluessel": "05962000004007115", "bezeichnung": "Brucknerstraße" }, "geometry": { "type": "Point", "coordinates": [ 7.807174885493932, 51.447498741146859 ] } },
{ "type": "Feature", "properties": { "strassenschluessel": "05962000004007116", "bezeichnung": "Händelstraße" }, "geometry": { "type": "Point", "coordinates": [ 7.806464624336777, 51.447690483516432 ] } },
{ "type": "Feature", "properties": { "strassenschluessel": "05962000004007117", "bezeichnung": "Mendelssohnstraße" }, "geometry": { "type": "Point", "coordinates": [ 7.805199522412751, 51.448374909221393 ] } },
{ "type": "Feature", "properties": { "strassenschluessel": "05962000004007118", "bezeichnung": "Gluckstraße" }, "geometry": { "type": "Point", "coordinates": [ 7.80533221306678, 51.449793375709362 ] } },
{ "type": "Feature", "properties": { "strassenschluessel": "05962000004007119", "bezeichnung": "Gustav-Mahler-Straße" }, "geometry": { "type": "Point", "coordinates": [ 7.803308000238686, 51.448968095853253 ] } },
{ "type": "Feature", "properties": { "strassenschluessel": "05962000004007125", "bezeichnung": "Lahrweg" }, "geometry": { "type": "Point", "coordinates": [ 7.801223610899151, 51.442747517149883 ] } },
{ "type": "Feature", "properties": { "strassenschluessel": "05962000004007126", "bezeichnung": "Am Kohlpütt" }, "geometry": { "type": "Point", "coordinates": [ 7.796984814751908, 51.44129506152801 ] } },
{ "type": "Feature", "properties": { "strassenschluessel": "05962000004007127", "bezeichnung": "Pellenberg" }, "geometry": { "type": "Point", "coordinates": [ 7.795984267064406, 51.44138508894936 ] } },
{ "type": "Feature", "properties": { "strassenschluessel": "05962000004007128", "bezeichnung": "Schwitter Weg" }, "geometry": { "type": "Point", "coordinates": [ 7.794675763066617, 51.443823138592379 ] } },
{ "type": "Feature", "properties": { "strassenschluessel": "05962000004007129", "bezeichnung": "Dechant-Röper-Straße" }, "geometry": { "type": "Point", "coordinates": [ 7.796194861053831, 51.444308440320697 ] } },
{ "type": "Feature", "properties": { "strassenschluessel": "05962000004007130", "bezeichnung": "Walburgisstraße" }, "geometry": { "type": "Point", "coordinates": [ 7.789643605382565, 51.442424834475233 ] } },
{ "type": "Feature", "properties": { "strassenschluessel": "05962000004007131", "bezeichnung": "Hofeskamp" }, "geometry": { "type": "Point", "coordinates": [ 7.789966536052192, 51.442965644723344 ] } },
{ "type": "Feature", "properties": { "strassenschluessel": "05962000004007132", "bezeichnung": "Schillerstraße" }, "geometry": { "type": "Point", "coordinates": [ 7.791413963926944, 51.443549237780395 ] } },
{ "type": "Feature", "properties": { "strassenschluessel": "05962000004007133", "bezeichnung": "Lessingstraße" }, "geometry": { "type": "Point", "coordinates": [ 7.791240366588236, 51.445695977070976 ] } },
{ "type": "Feature", "properties": { "strassenschluessel": "05962000004007134", "bezeichnung": "Stormstraße" }, "geometry": { "type": "Point", "coordinates": [ 7.792556812710741, 51.444611301329068 ] } },
{ "type": "Feature", "properties": { "strassenschluessel": "05962000004007135", "bezeichnung": "Körnerstraße" }, "geometry": { "type": "Point", "coordinates": [ 7.791421998180413, 51.445971825785605 ] } },
{ "type": "Feature", "properties": { "strassenschluessel": "05962000004007136", "bezeichnung": "Herderstraße" }, "geometry": { "type": "Point", "coordinates": [ 7.791721676977372, 51.446383936636686 ] } },
{ "type": "Feature", "properties": { "strassenschluessel": "05962000004007137", "bezeichnung": "Bachstraße" }, "geometry": { "type": "Point", "coordinates": [ 7.787547263716113, 51.445158750927973 ] } },
{ "type": "Feature", "properties": { "strassenschluessel": "05962000004007138", "bezeichnung": "Zum Mühlenteich" }, "geometry": { "type": "Point", "coordinates": [ 7.789835061936004, 51.447713845264722 ] } },
{ "type": "Feature", "properties": { "strassenschluessel": "05962000004007139", "bezeichnung": "An der Sägemühle" }, "geometry": { "type": "Point", "coordinates": [ 7.788457972356381, 51.44728820804832 ] } },
{ "type": "Feature", "properties": { "strassenschluessel": "05962000004007140", "bezeichnung": "Stiftstraße" }, "geometry": { "type": "Point", "coordinates": [ 7.791370484589702, 51.448177364400685 ] } },
{ "type": "Feature", "properties": { "strassenschluessel": "05962000004007141", "bezeichnung": "Werler Straße" }, "geometry": { "type": "Point", "coordinates": [ 7.786608177624273, 51.447813701586767 ] } },
{ "type": "Feature", "properties": { "strassenschluessel": "05962000004007142", "bezeichnung": "Ewaldistraße" }, "geometry": { "type": "Point", "coordinates": [ 7.78848988747253, 51.448625326492895 ] } },
{ "type": "Feature", "properties": { "strassenschluessel": "05962000004007143", "bezeichnung": "Platanenweg" }, "geometry": { "type": "Point", "coordinates": [ 7.788979718781419, 51.449099054739818 ] } },
{ "type": "Feature", "properties": { "strassenschluessel": "05962000004007144", "bezeichnung": "Fichtenstraße" }, "geometry": { "type": "Point", "coordinates": [ 7.787906770493463, 51.44997970102937 ] } },
{ "type": "Feature", "properties": { "strassenschluessel": "05962000004007145", "bezeichnung": "Von-Mellin-Straße" }, "geometry": { "type": "Point", "coordinates": [ 7.790464882998348, 51.449140446620902 ] } },
{ "type": "Feature", "properties": { "strassenschluessel": "05962000004007146", "bezeichnung": "Akazienweg" }, "geometry": { "type": "Point", "coordinates": [ 7.790110252365531, 51.451230515865042 ] } },
{ "type": "Feature", "properties": { "strassenschluessel": "05962000004007147", "bezeichnung": "Ahornweg" }, "geometry": { "type": "Point", "coordinates": [ 7.790410894304906, 51.450029439039398 ] } },
{ "type": "Feature", "properties": { "strassenschluessel": "05962000004007148", "bezeichnung": "Graf-Von-Galen-Straße" }, "geometry": { "type": "Point", "coordinates": [ 7.790834898641178, 51.449801723045773 ] } },
{ "type": "Feature", "properties": { "strassenschluessel": "05962000004007149", "bezeichnung": "Eibenweg" }, "geometry": { "type": "Point", "coordinates": [ 7.791071161727663, 51.449407862175264 ] } },
{ "type": "Feature", "properties": { "strassenschluessel": "05962000004007150", "bezeichnung": "Eschenweg" }, "geometry": { "type": "Point", "coordinates": [ 7.792155869498828, 51.448770809443481 ] } },
{ "type": "Feature", "properties": { "strassenschluessel": "05962000004007151", "bezeichnung": "Auf der Haar" }, "geometry": { "type": "Point", "coordinates": [ 7.792442101073944, 51.449301890969217 ] } },
{ "type": "Feature", "properties": { "strassenschluessel": "05962000004007152", "bezeichnung": "Kleine Hardt" }, "geometry": { "type": "Point", "coordinates": [ 7.792030793326833, 51.450449866494004 ] } },
{ "type": "Feature", "properties": { "strassenschluessel": "05962000004007160", "bezeichnung": "Hönnenwerth" }, "geometry": { "type": "Point", "coordinates": [ 7.786699570528029, 51.441604834812871 ] } },
{ "type": "Feature", "properties": { "strassenschluessel": "05962000004007161", "bezeichnung": "Schmölen-Allee" }, "geometry": { "type": "Point", "coordinates": [ 7.785596478622733, 51.443562358871404 ] } },
{ "type": "Feature", "properties": { "strassenschluessel": "05962000004007162", "bezeichnung": "Carl-Benz-Straße" }, "geometry": { "type": "Point", "coordinates": [ 7.783677160132277, 51.444757090368235 ] } },
{ "type": "Feature", "properties": { "strassenschluessel": "05962000004007173", "bezeichnung": "Fröndenberger Straße" }, "geometry": { "type": "Point", "coordinates": [ 7.779072900200372, 51.451238014693047 ] } },
{ "type": "Feature", "properties": { "strassenschluessel": "05962000004007174", "bezeichnung": "Grimmestraße" }, "geometry": { "type": "Point", "coordinates": [ 7.784336384880621, 51.446914490567174 ] } },
{ "type": "Feature", "properties": { "strassenschluessel": "05962000004007175", "bezeichnung": "Max-Eyth-Straße" }, "geometry": { "type": "Point", "coordinates": [ 7.780299339001819, 51.447988551296184 ] } },
{ "type": "Feature", "properties": { "strassenschluessel": "05962000004007176", "bezeichnung": "Th.-Max-Klusendick-Straße" }, "geometry": { "type": "Point", "coordinates": [ 7.782360890263322, 51.449225456460184 ] } },
{ "type": "Feature", "properties": { "strassenschluessel": "05962000004007177", "bezeichnung": "Carl-Schmöle-Straße" }, "geometry": { "type": "Point", "coordinates": [ 7.78274300904367, 51.450374795383865 ] } },
{ "type": "Feature", "properties": { "strassenschluessel": "05962000004007178", "bezeichnung": "Wöhlerstraße" }, "geometry": { "type": "Point", "coordinates": [ 7.785006594390142, 51.449292490016866 ] } },
{ "type": "Feature", "properties": { "strassenschluessel": "05962000004007179", "bezeichnung": "Tammannstraße" }, "geometry": { "type": "Point", "coordinates": [ 7.784991067805077, 51.447977193598994 ] } },
{ "type": "Feature", "properties": { "strassenschluessel": "05962000004007180", "bezeichnung": "Op De Höchte" }, "geometry": { "type": "Point", "coordinates": [ 7.786485362037097, 51.450702109307244 ] } },
{ "type": "Feature", "properties": { "strassenschluessel": "05962000004007181", "bezeichnung": "Franz-Kissing-Straße" }, "geometry": { "type": "Point", "coordinates": [ 7.781897363832739, 51.450621553840435 ] } },
{ "type": "Feature", "properties": { "strassenschluessel": "05962000004007183", "bezeichnung": "Walter-Ulmke-Straße" }, "geometry": { "type": "Point", "coordinates": [ 7.779499120685117, 51.452813759470999 ] } },
{ "type": "Feature", "properties": { "strassenschluessel": "05962000004007184", "bezeichnung": "Alter Bösperder Weg" }, "geometry": { "type": "Point", "coordinates": [ 7.775015461474004, 51.458059072541936 ] } },
{ "type": "Feature", "properties": { "strassenschluessel": "05962000004007189", "bezeichnung": "Lippestraße" }, "geometry": null },
{ "type": "Feature", "properties": { "strassenschluessel": "05962000004007190", "bezeichnung": "Alter Bruch" }, "geometry": { "type": "Point", "coordinates": [ 7.771471401553561, 51.453139131075339 ] } },
{ "type": "Feature", "properties": { "strassenschluessel": "05962000004007192", "bezeichnung": "Holtewiese" }, "geometry": { "type": "Point", "coordinates": [ 7.771097209818053, 51.451961566361661 ] } },
{ "type": "Feature", "properties": { "strassenschluessel": "05962000004007193", "bezeichnung": "Landwehr" }, "geometry": { "type": "Point", "coordinates": [ 7.772712815865318, 51.453782661517451 ] } },
{ "type": "Feature", "properties": { "strassenschluessel": "05962000004007194", "bezeichnung": "Nikolaus-Groß-Straße" }, "geometry": { "type": "Point", "coordinates": [ 7.771629694151127, 51.451652624493505 ] } },
{ "type": "Feature", "properties": { "strassenschluessel": "05962000004007195", "bezeichnung": "Von-Lüninck-Straße" }, "geometry": { "type": "Point", "coordinates": [ 7.775001321311212, 51.449519833198302 ] } },
{ "type": "Feature", "properties": { "strassenschluessel": "05962000004007196", "bezeichnung": "Wunne" }, "geometry": { "type": "Point", "coordinates": [ 7.77427723687528, 51.451157057456406 ] } },
{ "type": "Feature", "properties": { "strassenschluessel": "05962000004007197", "bezeichnung": "Westfalenstraße" }, "geometry": { "type": "Point", "coordinates": [ 7.771496996338611, 51.448340776795682 ] } },
{ "type": "Feature", "properties": { "strassenschluessel": "05962000004007199", "bezeichnung": "Unnaer Landstraße" }, "geometry": { "type": "Point", "coordinates": [ 7.768460016967727, 51.447619501861944 ] } },
{ "type": "Feature", "properties": { "strassenschluessel": "05962000004007200", "bezeichnung": "Alte Provinzialstraße" }, "geometry": { "type": "Point", "coordinates": [ 7.775473327146285, 51.445917975872192 ] } },
{ "type": "Feature", "properties": { "strassenschluessel": "05962000004007201", "bezeichnung": "Klevesberg" }, "geometry": { "type": "Point", "coordinates": [ 7.777912061572786, 51.444367772346318 ] } },
{ "type": "Feature", "properties": { "strassenschluessel": "05962000004007202", "bezeichnung": "Von-Hardenberg-Straße" }, "geometry": { "type": "Point", "coordinates": [ 7.778846558063139, 51.441364821525035 ] } },
{ "type": "Feature", "properties": { "strassenschluessel": "05962000004007203", "bezeichnung": "Freih.-V.Stein-Straße" }, "geometry": { "type": "Point", "coordinates": [ 7.776983369468732, 51.444522492851412 ] } },
{ "type": "Feature", "properties": { "strassenschluessel": "05962000004007204", "bezeichnung": "Arndtstraße" }, "geometry": { "type": "Point", "coordinates": [ 7.775554733320793, 51.443417914198648 ] } },
{ "type": "Feature", "properties": { "strassenschluessel": "05962000004007205", "bezeichnung": "Grüner Weg" }, "geometry": { "type": "Point", "coordinates": [ 7.776459234170917, 51.44144281777217 ] } },
{ "type": "Feature", "properties": { "strassenschluessel": "05962000004007206", "bezeichnung": "Droste-Hülshoff-Straße" }, "geometry": { "type": "Point", "coordinates": [ 7.770481386478445, 51.445473591173723 ] } },
{ "type": "Feature", "properties": { "strassenschluessel": "05962000004007207", "bezeichnung": "Am Galgenfeld" }, "geometry": { "type": "Point", "coordinates": [ 7.773891830756688, 51.444132818996579 ] } },
{ "type": "Feature", "properties": { "strassenschluessel": "05962000004007208", "bezeichnung": "Von-Ranke-Straße" }, "geometry": { "type": "Point", "coordinates": [ 7.771874286220031, 51.44568257775029 ] } },
{ "type": "Feature", "properties": { "strassenschluessel": "05962000004007209", "bezeichnung": "Virchowstraße" }, "geometry": { "type": "Point", "coordinates": [ 7.772471170942004, 51.445761720681816 ] } },
{ "type": "Feature", "properties": { "strassenschluessel": "05962000004007210", "bezeichnung": "Mommsenstraße" }, "geometry": { "type": "Point", "coordinates": [ 7.770976556239182, 51.445501821740727 ] } },
{ "type": "Feature", "properties": { "strassenschluessel": "05962000004007211", "bezeichnung": "Feldstraße" }, "geometry": { "type": "Point", "coordinates": [ 7.766497236500975, 51.447414479460434 ] } },
{ "type": "Feature", "properties": { "strassenschluessel": "05962000004007212", "bezeichnung": "Christine-Koch-Straße" }, "geometry": { "type": "Point", "coordinates": [ 7.76990942716355, 51.445527992077821 ] } },
{ "type": "Feature", "properties": { "strassenschluessel": "05962000004007213", "bezeichnung": "Von-Hatzfeld-Straße" }, "geometry": { "type": "Point", "coordinates": [ 7.768769918853939, 51.444234082055694 ] } },
{ "type": "Feature", "properties": { "strassenschluessel": "05962000004007214", "bezeichnung": "Wagenfeldstraße" }, "geometry": null },
{ "type": "Feature", "properties": { "strassenschluessel": "05962000004007215", "bezeichnung": "Pater-Kolbe-Straße" }, "geometry": { "type": "Point", "coordinates": [ 7.765960271188457, 51.445834550938805 ] } },
{ "type": "Feature", "properties": { "strassenschluessel": "05962000004007216", "bezeichnung": "Hedwig-Dransfeld-Straße" }, "geometry": { "type": "Point", "coordinates": [ 7.762079079946527, 51.441042279951517 ] } },
{ "type": "Feature", "properties": { "strassenschluessel": "05962000004007217", "bezeichnung": "Bismarckstraße" }, "geometry": { "type": "Point", "coordinates": [ 7.772985053278082, 51.444517552553428 ] } },
{ "type": "Feature", "properties": { "strassenschluessel": "05962000004007218", "bezeichnung": "Am Papenbusch" }, "geometry": { "type": "Point", "coordinates": [ 7.766501098784483, 51.44128397256609 ] } },
{ "type": "Feature", "properties": { "strassenschluessel": "05962000004007219", "bezeichnung": "An der Beile" }, "geometry": { "type": "Point", "coordinates": [ 7.770104522170137, 51.440787485885643 ] } },
{ "type": "Feature", "properties": { "strassenschluessel": "05962000004007220", "bezeichnung": "Delyner Straße" }, "geometry": { "type": "Point", "coordinates": [ 7.771746888422102, 51.443971218635689 ] } },
{ "type": "Feature", "properties": { "strassenschluessel": "05962000004007221", "bezeichnung": "Hermann-Bauer-Straße" }, "geometry": { "type": "Point", "coordinates": [ 7.76989519823069, 51.442680520002398 ] } },
{ "type": "Feature", "properties": { "strassenschluessel": "05962000004007222", "bezeichnung": "Robert-Leusmann-Straße" }, "geometry": { "type": "Point", "coordinates": [ 7.771602747248799, 51.442769428537936 ] } },
{ "type": "Feature", "properties": { "strassenschluessel": "05962000004007223", "bezeichnung": "Eisenberger Straße" }, "geometry": { "type": "Point", "coordinates": [ 7.771732530233546, 51.4411457132707 ] } },
{ "type": "Feature", "properties": { "strassenschluessel": "05962000004007224", "bezeichnung": "Heinrich-Schulte-Straße" }, "geometry": { "type": "Point", "coordinates": [ 7.766316109896086, 51.444722993279598 ] } },
{ "type": "Feature", "properties": { "strassenschluessel": "05962000004007225", "bezeichnung": "Gertrud-Bäumer-Straße" }, "geometry": { "type": "Point", "coordinates": [ 7.762523504241713, 51.440021276306183 ] } },
{ "type": "Feature", "properties": { "strassenschluessel": "05962000004007226", "bezeichnung": "Lerchenstraße" }, "geometry": { "type": "Point", "coordinates": [ 7.763368385933533, 51.439513342662821 ] } },
{ "type": "Feature", "properties": { "strassenschluessel": "05962000004007227", "bezeichnung": "Anne-Frank-Straße" }, "geometry": { "type": "Point", "coordinates": [ 7.767173120891518, 51.444034046634172 ] } },
{ "type": "Feature", "properties": { "strassenschluessel": "05962000004007228", "bezeichnung": "Meisenweg" }, "geometry": { "type": "Point", "coordinates": [ 7.755269588056379, 51.437317556976922 ] } },
{ "type": "Feature", "properties": { "strassenschluessel": "05962000004007229", "bezeichnung": "Elsternweg" }, "geometry": { "type": "Point", "coordinates": [ 7.759434890183754, 51.44040378654568 ] } },
{ "type": "Feature", "properties": { "strassenschluessel": "05962000004007230", "bezeichnung": "Kiebitzweg" }, "geometry": { "type": "Point", "coordinates": [ 7.755360463193512, 51.436378961859646 ] } },
{ "type": "Feature", "properties": { "strassenschluessel": "05962000004007231", "bezeichnung": "Bräukerweg" }, "geometry": { "type": "Point", "coordinates": [ 7.772032169276945, 51.438909927895601 ] } },
{ "type": "Feature", "properties": { "strassenschluessel": "05962000004007232", "bezeichnung": "Goerdelerstraße" }, "geometry": { "type": "Point", "coordinates": [ 7.772271184912286, 51.439684202853783 ] } },
{ "type": "Feature", "properties": { "strassenschluessel": "05962000004007233", "bezeichnung": "Von-Stauffenberg-Straße" }, "geometry": { "type": "Point", "coordinates": [ 7.769227393365415, 51.439527300855126 ] } },
{ "type": "Feature", "properties": { "strassenschluessel": "05962000004007239", "bezeichnung": "Dreimorgen" }, "geometry": { "type": "Point", "coordinates": [ 7.774776700702542, 51.439446368016092 ] } },
{ "type": "Feature", "properties": { "strassenschluessel": "05962000004007240", "bezeichnung": "Ostpreußenstraße" }, "geometry": { "type": "Point", "coordinates": [ 7.770490229823126, 51.438599582705727 ] } },
{ "type": "Feature", "properties": { "strassenschluessel": "05962000004007241", "bezeichnung": "Mecklenburgstraße" }, "geometry": { "type": "Point", "coordinates": [ 7.769363637569009, 51.438512261643297 ] } },
{ "type": "Feature", "properties": { "strassenschluessel": "05962000004007242", "bezeichnung": "Brandenburgstraße" }, "geometry": { "type": "Point", "coordinates": [ 7.769901424126016, 51.43813761360375 ] } },
{ "type": "Feature", "properties": { "strassenschluessel": "05962000004007243", "bezeichnung": "Danzigstraße" }, "geometry": { "type": "Point", "coordinates": [ 7.765566048632705, 51.437635977372743 ] } },
{ "type": "Feature", "properties": { "strassenschluessel": "05962000004007244", "bezeichnung": "Schlesienstraße" }, "geometry": { "type": "Point", "coordinates": [ 7.773341318622251, 51.437757137947969 ] } },
{ "type": "Feature", "properties": { "strassenschluessel": "05962000004007245", "bezeichnung": "Pommernstraße" }, "geometry": { "type": "Point", "coordinates": [ 7.771513341145185, 51.436651448410728 ] } },
{ "type": "Feature", "properties": { "strassenschluessel": "05962000004007246", "bezeichnung": "Westpreußenstraße" }, "geometry": { "type": "Point", "coordinates": [ 7.769984429370886, 51.435683366007382 ] } },
{ "type": "Feature", "properties": { "strassenschluessel": "05962000004007247", "bezeichnung": "Im Wannebachtal" }, "geometry": { "type": "Point", "coordinates": [ 7.770742331932348, 51.434643921786261 ] } },
{ "type": "Feature", "properties": { "strassenschluessel": "05962000004007248", "bezeichnung": "Thüringenstraße" }, "geometry": { "type": "Point", "coordinates": [ 7.772798365907727, 51.434786887885849 ] } },
{ "type": "Feature", "properties": { "strassenschluessel": "05962000004007249", "bezeichnung": "Sachsenstraße" }, "geometry": { "type": "Point", "coordinates": [ 7.776998315490563, 51.436799409272339 ] } },
{ "type": "Feature", "properties": { "strassenschluessel": "05962000004007250", "bezeichnung": "Sudetenstraße" }, "geometry": { "type": "Point", "coordinates": [ 7.775151632437736, 51.436272315643528 ] } },
{ "type": "Feature", "properties": { "strassenschluessel": "05962000004007251", "bezeichnung": "Richard-Rinker-Straße" }, "geometry": { "type": "Point", "coordinates": [ 7.781535112682476, 51.43817923836842 ] } },
{ "type": "Feature", "properties": { "strassenschluessel": "05962000004007252", "bezeichnung": "Galbreite" }, "geometry": { "type": "Point", "coordinates": [ 7.784153799742596, 51.438902089041733 ] } },
{ "type": "Feature", "properties": { "strassenschluessel": "05962000004007253", "bezeichnung": "Frielingsen" }, "geometry": { "type": "Point", "coordinates": [ 7.779632885451568, 51.440834507965221 ] } },
{ "type": "Feature", "properties": { "strassenschluessel": "05962000004007254", "bezeichnung": "Baufastraße" }, "geometry": { "type": "Point", "coordinates": [ 7.782559120754563, 51.438851457411594 ] } },
{ "type": "Feature", "properties": { "strassenschluessel": "05962000004007255", "bezeichnung": "Westtangente" }, "geometry": { "type": "Point", "coordinates": [ 7.785952988174442, 51.437784625982736 ] } },
{ "type": "Feature", "properties": { "strassenschluessel": "05962000004007256", "bezeichnung": "Elsa-Brändström-Weg" }, "geometry": { "type": "Point", "coordinates": [ 7.780816928584798, 51.435909152366577 ] } },
{ "type": "Feature", "properties": { "strassenschluessel": "05962000004007257", "bezeichnung": "Am Brandbusch" }, "geometry": { "type": "Point", "coordinates": [ 7.779241879544484, 51.436846166437959 ] } },
{ "type": "Feature", "properties": { "strassenschluessel": "05962000004007258", "bezeichnung": "Am Vollmersbusch" }, "geometry": { "type": "Point", "coordinates": [ 7.77562730064485, 51.435554080673946 ] } },
{ "type": "Feature", "properties": { "strassenschluessel": "05962000004007259", "bezeichnung": "Berliner Straße" }, "geometry": { "type": "Point", "coordinates": [ 7.776469269716483, 51.433266755359121 ] } },
{ "type": "Feature", "properties": { "strassenschluessel": "05962000004007260", "bezeichnung": "In den Liethen" }, "geometry": null },
{ "type": "Feature", "properties": { "strassenschluessel": "05962000004007261", "bezeichnung": "Harzstraße" }, "geometry": { "type": "Point", "coordinates": [ 7.775765818318439, 51.434327640094217 ] } },
{ "type": "Feature", "properties": { "strassenschluessel": "05962000004007262", "bezeichnung": "Hunsrückstraße" }, "geometry": { "type": "Point", "coordinates": [ 7.775165519732922, 51.434422909919384 ] } },
{ "type": "Feature", "properties": { "strassenschluessel": "05962000004007263", "bezeichnung": "Rhönstraße" }, "geometry": { "type": "Point", "coordinates": [ 7.779815825309374, 51.435150128571273 ] } },
{ "type": "Feature", "properties": { "strassenschluessel": "05962000004007264", "bezeichnung": "Schwarzwaldstraße" }, "geometry": { "type": "Point", "coordinates": [ 7.781040376841499, 51.435701542455014 ] } },
{ "type": "Feature", "properties": { "strassenschluessel": "05962000004007265", "bezeichnung": "Am Galbusch" }, "geometry": { "type": "Point", "coordinates": [ 7.786207472733617, 51.436643920880186 ] } },
{ "type": "Feature", "properties": { "strassenschluessel": "05962000004007270", "bezeichnung": "Manöverweg" }, "geometry": { "type": "Point", "coordinates": [ 7.769624589105902, 51.434891064862768 ] } },
{ "type": "Feature", "properties": { "strassenschluessel": "05962000004007271", "bezeichnung": "Wolfspfad" }, "geometry": { "type": "Point", "coordinates": [ 7.765587433421867, 51.435740610151356 ] } },
{ "type": "Feature", "properties": { "strassenschluessel": "05962000004007272", "bezeichnung": "Fasanenweg" }, "geometry": { "type": "Point", "coordinates": [ 7.764619005762806, 51.434380287230219 ] } },
{ "type": "Feature", "properties": { "strassenschluessel": "05962000004007273", "bezeichnung": "Mörikestraße" }, "geometry": { "type": "Point", "coordinates": [ 7.765556142305401, 51.433383185150198 ] } },
{ "type": "Feature", "properties": { "strassenschluessel": "05962000004007274", "bezeichnung": "Eichendorffstraße" }, "geometry": { "type": "Point", "coordinates": [ 7.764716300377386, 51.432374960920519 ] } },
{ "type": "Feature", "properties": { "strassenschluessel": "05962000004007275", "bezeichnung": "Hermann-Löns-Straße" }, "geometry": { "type": "Point", "coordinates": [ 7.763282487868643, 51.42983155832475 ] } },
{ "type": "Feature", "properties": { "strassenschluessel": "05962000004007276", "bezeichnung": "Anemonenweg" }, "geometry": { "type": "Point", "coordinates": [ 7.761829127395351, 51.435576473848649 ] } },
{ "type": "Feature", "properties": { "strassenschluessel": "05962000004007277", "bezeichnung": "Mohnweg" }, "geometry": { "type": "Point", "coordinates": [ 7.761182184232608, 51.434915449126478 ] } },
{ "type": "Feature", "properties": { "strassenschluessel": "05962000004007278", "bezeichnung": "Primelweg" }, "geometry": { "type": "Point", "coordinates": [ 7.759683565513256, 51.434842104801476 ] } },
{ "type": "Feature", "properties": { "strassenschluessel": "05962000004007279", "bezeichnung": "Wickenweg" }, "geometry": { "type": "Point", "coordinates": [ 7.757980504336937, 51.435544139137725 ] } },
{ "type": "Feature", "properties": { "strassenschluessel": "05962000004007280", "bezeichnung": "Margueritenweg" }, "geometry": { "type": "Point", "coordinates": [ 7.7588947342818, 51.43360529965674 ] } },
{ "type": "Feature", "properties": { "strassenschluessel": "05962000004007281", "bezeichnung": "Malvenweg" }, "geometry": { "type": "Point", "coordinates": [ 7.759863473287521, 51.432415791262336 ] } },
{ "type": "Feature", "properties": { "strassenschluessel": "05962000004007282", "bezeichnung": "Glockenblumenweg" }, "geometry": { "type": "Point", "coordinates": [ 7.757569421905502, 51.433919424667486 ] } },
{ "type": "Feature", "properties": { "strassenschluessel": "05962000004007283", "bezeichnung": "Kornblumenweg" }, "geometry": { "type": "Point", "coordinates": [ 7.759059930148529, 51.436448461286687 ] } },
{ "type": "Feature", "properties": { "strassenschluessel": "05962000004007284", "bezeichnung": "Akeleiweg" }, "geometry": { "type": "Point", "coordinates": [ 7.7544203140918, 51.435303505183057 ] } },
{ "type": "Feature", "properties": { "strassenschluessel": "05962000004007285", "bezeichnung": "Salbeiweg" }, "geometry": { "type": "Point", "coordinates": [ 7.753378467476378, 51.435165026909573 ] } },
{ "type": "Feature", "properties": { "strassenschluessel": "05962000004007286", "bezeichnung": "Kamillenweg" }, "geometry": { "type": "Point", "coordinates": [ 7.752518231497849, 51.431781180681867 ] } },
{ "type": "Feature", "properties": { "strassenschluessel": "05962000004007287", "bezeichnung": "Hederichweg" }, "geometry": { "type": "Point", "coordinates": [ 7.754608749954754, 51.432332158051018 ] } },
{ "type": "Feature", "properties": { "strassenschluessel": "05962000004007288", "bezeichnung": "Klettenweg" }, "geometry": { "type": "Point", "coordinates": [ 7.756463035712957, 51.43400964719838 ] } },
{ "type": "Feature", "properties": { "strassenschluessel": "05962000004007289", "bezeichnung": "Lupinenweg" }, "geometry": { "type": "Point", "coordinates": [ 7.755579415107294, 51.431497361432896 ] } },
{ "type": "Feature", "properties": { "strassenschluessel": "05962000004007290", "bezeichnung": "Veilchenweg" }, "geometry": { "type": "Point", "coordinates": [ 7.756971396708051, 51.431549844863007 ] } },
{ "type": "Feature", "properties": { "strassenschluessel": "05962000004007291", "bezeichnung": "Ginsterweg" }, "geometry": { "type": "Point", "coordinates": [ 7.758287490635396, 51.432770390054699 ] } },
{ "type": "Feature", "properties": { "strassenschluessel": "05962000004007292", "bezeichnung": "Pastor-Fischer-Weg" }, "geometry": { "type": "Point", "coordinates": [ 7.759487261719392, 51.430819309916757 ] } },
{ "type": "Feature", "properties": { "strassenschluessel": "05962000004007293", "bezeichnung": "Heckenrosenweg" }, "geometry": { "type": "Point", "coordinates": [ 7.755569016369681, 51.430759756188657 ] } },
{ "type": "Feature", "properties": { "strassenschluessel": "05962000004007294", "bezeichnung": "Hagebuttenweg" }, "geometry": { "type": "Point", "coordinates": [ 7.756049850574665, 51.430436757832133 ] } },
{ "type": "Feature", "properties": { "strassenschluessel": "05962000004007295", "bezeichnung": "Mariengrund" }, "geometry": { "type": "Point", "coordinates": [ 7.761466372398207, 51.431562877747886 ] } },
{ "type": "Feature", "properties": { "strassenschluessel": "05962000004007300", "bezeichnung": "Eifelstraße" }, "geometry": { "type": "Point", "coordinates": [ 7.765989546077706, 51.431092141635752 ] } },
{ "type": "Feature", "properties": { "strassenschluessel": "05962000004007301", "bezeichnung": "Taunusstraße" }, "geometry": { "type": "Point", "coordinates": [ 7.769662801515707, 51.432164266197695 ] } },
{ "type": "Feature", "properties": { "strassenschluessel": "05962000004007302", "bezeichnung": "Spessartstraße" }, "geometry": null },
{ "type": "Feature", "properties": { "strassenschluessel": "05962000004007303", "bezeichnung": "Odenwaldstraße" }, "geometry": { "type": "Point", "coordinates": [ 7.773583517970162, 51.432116662521935 ] } },
{ "type": "Feature", "properties": { "strassenschluessel": "05962000004007304", "bezeichnung": "Teutoburger-Wald-Straße" }, "geometry": { "type": "Point", "coordinates": [ 7.77673453739227, 51.433508637798667 ] } },
{ "type": "Feature", "properties": { "strassenschluessel": "05962000004007305", "bezeichnung": "Sauerlandstraße" }, "geometry": { "type": "Point", "coordinates": [ 7.779662349020437, 51.433010993529663 ] } },
{ "type": "Feature", "properties": { "strassenschluessel": "05962000004007306", "bezeichnung": "Westerwaldstraße" }, "geometry": { "type": "Point", "coordinates": [ 7.78025577666948, 51.434490069933126 ] } },
{ "type": "Feature", "properties": { "strassenschluessel": "05962000004007307", "bezeichnung": "Siebengebirgsstraße" }, "geometry": { "type": "Point", "coordinates": [ 7.781431644602271, 51.434539231019109 ] } },
{ "type": "Feature", "properties": { "strassenschluessel": "05962000004007308", "bezeichnung": "Sollingstraße" }, "geometry": { "type": "Point", "coordinates": [ 7.784525343091868, 51.43473662918344 ] } },
{ "type": "Feature", "properties": { "strassenschluessel": "05962000004007310", "bezeichnung": "Am Gillkamp" }, "geometry": { "type": "Point", "coordinates": [ 7.766181612563841, 51.45272503117895 ] } },
{ "type": "Feature", "properties": { "strassenschluessel": "05962000004007311", "bezeichnung": "Am Riekenbrauck" }, "geometry": { "type": "Point", "coordinates": [ 7.744625156991161, 51.445655517727658 ] } },
{ "type": "Feature", "properties": { "strassenschluessel": "05962000004007312", "bezeichnung": "Auf dem Sauerfeld" }, "geometry": { "type": "Point", "coordinates": [ 7.760306187125368, 51.453397681999981 ] } },
{ "type": "Feature", "properties": { "strassenschluessel": "05962000004007313", "bezeichnung": "Auf der Brake" }, "geometry": { "type": "Point", "coordinates": [ 7.755676214798521, 51.456835024467871 ] } },
{ "type": "Feature", "properties": { "strassenschluessel": "05962000004007314", "bezeichnung": "Zuckmayerstraße" }, "geometry": { "type": "Point", "coordinates": [ 7.771466816842462, 51.454360735378998 ] } },
{ "type": "Feature", "properties": { "strassenschluessel": "05962000004007315", "bezeichnung": "Bahnhofstraße in Bösperde" }, "geometry": { "type": "Point", "coordinates": [ 7.770258656233545, 51.45821169965847 ] } },
{ "type": "Feature", "properties": { "strassenschluessel": "05962000004007316", "bezeichnung": "Stemberg" }, "geometry": { "type": "Point", "coordinates": [ 7.766888562656201, 51.464512971066547 ] } },
{ "type": "Feature", "properties": { "strassenschluessel": "05962000004007317", "bezeichnung": "Blumenweg" }, "geometry": { "type": "Point", "coordinates": [ 7.761310625146005, 51.448076772374101 ] } },
{ "type": "Feature", "properties": { "strassenschluessel": "05962000004007318", "bezeichnung": "Bonhoefferstraße" }, "geometry": { "type": "Point", "coordinates": [ 7.767338576285369, 51.455462459366444 ] } },
{ "type": "Feature", "properties": { "strassenschluessel": "05962000004007319", "bezeichnung": "Bredde" }, "geometry": { "type": "Point", "coordinates": [ 7.767791328672611, 51.451867832140906 ] } },
{ "type": "Feature", "properties": { "strassenschluessel": "05962000004007320", "bezeichnung": "Dahlbreite" }, "geometry": { "type": "Point", "coordinates": [ 7.766342243999473, 51.458725521182046 ] } },
{ "type": "Feature", "properties": { "strassenschluessel": "05962000004007321", "bezeichnung": "Holzener Dorfstraße" }, "geometry": { "type": "Point", "coordinates": [ 7.759633412698932, 51.452395796171757 ] } },
{ "type": "Feature", "properties": { "strassenschluessel": "05962000004007322", "bezeichnung": "Eberhardstraße" }, "geometry": { "type": "Point", "coordinates": [ 7.765799233812017, 51.460307145989646 ] } },
{ "type": "Feature", "properties": { "strassenschluessel": "05962000004007323", "bezeichnung": "Ernst-Hoffmann-Straße" }, "geometry": { "type": "Point", "coordinates": [ 7.767820508275209, 51.455833375520349 ] } },
{ "type": "Feature", "properties": { "strassenschluessel": "05962000004007324", "bezeichnung": "Rilkestraße" }, "geometry": { "type": "Point", "coordinates": [ 7.770654417630034, 51.454084420980344 ] } },
{ "type": "Feature", "properties": { "strassenschluessel": "05962000004007325", "bezeichnung": "Freiheit" }, "geometry": { "type": "Point", "coordinates": [ 7.770651839060583, 51.458401647986932 ] } },
{ "type": "Feature", "properties": { "strassenschluessel": "05962000004007326", "bezeichnung": "Pfarrer-Wiggen-Straße" }, "geometry": { "type": "Point", "coordinates": [ 7.764130921401709, 51.452468652234373 ] } },
{ "type": "Feature", "properties": { "strassenschluessel": "05962000004007327", "bezeichnung": "Obergraben" }, "geometry": { "type": "Point", "coordinates": [ 7.771769946046059, 51.45732246253074 ] } },
{ "type": "Feature", "properties": { "strassenschluessel": "05962000004007328", "bezeichnung": "Goethestraße" }, "geometry": { "type": "Point", "coordinates": [ 7.771568145131024, 51.452652395628192 ] } },
{ "type": "Feature", "properties": { "strassenschluessel": "05962000004007329", "bezeichnung": "Grenzweg" }, "geometry": { "type": "Point", "coordinates": [ 7.76858505545112, 51.448780404458049 ] } },
{ "type": "Feature", "properties": { "strassenschluessel": "05962000004007330", "bezeichnung": "Falkenweg" }, "geometry": { "type": "Point", "coordinates": [ 7.7491869454432, 51.44917032039578 ] } },
{ "type": "Feature", "properties": { "strassenschluessel": "05962000004007331", "bezeichnung": "Heckenweg" }, "geometry": { "type": "Point", "coordinates": [ 7.749182586222534, 51.452598967348031 ] } },
{ "type": "Feature", "properties": { "strassenschluessel": "05962000004007332", "bezeichnung": "Heidestraße" }, "geometry": { "type": "Point", "coordinates": [ 7.761906729374997, 51.464678532419477 ] } },
{ "type": "Feature", "properties": { "strassenschluessel": "05962000004007333", "bezeichnung": "Hellenkamp" }, "geometry": { "type": "Point", "coordinates": [ 7.750866664171983, 51.455231984428401 ] } },
{ "type": "Feature", "properties": { "strassenschluessel": "05962000004007334", "bezeichnung": "Am Gillfeld" }, "geometry": { "type": "Point", "coordinates": [ 7.767995626698028, 51.453902581370826 ] } },
{ "type": "Feature", "properties": { "strassenschluessel": "05962000004007335", "bezeichnung": "Hindenburgstraße" }, "geometry": { "type": "Point", "coordinates": [ 7.759326636758673, 51.452651275636988 ] } },
{ "type": "Feature", "properties": { "strassenschluessel": "05962000004007337", "bezeichnung": "Holzener Straße" }, "geometry": { "type": "Point", "coordinates": [ 7.762111202418454, 51.439167151995079 ] } },
{ "type": "Feature", "properties": { "strassenschluessel": "05962000004007338", "bezeichnung": "Holzer Weg" }, "geometry": { "type": "Point", "coordinates": [ 7.748675216000405, 51.452161869665495 ] } },
{ "type": "Feature", "properties": { "strassenschluessel": "05962000004007339", "bezeichnung": "Holzer Heide" }, "geometry": { "type": "Point", "coordinates": [ 7.747376241664886, 51.452000407393719 ] } },
{ "type": "Feature", "properties": { "strassenschluessel": "05962000004007340", "bezeichnung": "Brakerfeld" }, "geometry": { "type": "Point", "coordinates": [ 7.75172610455711, 51.455805852977484 ] } },
{ "type": "Feature", "properties": { "strassenschluessel": "05962000004007341", "bezeichnung": "Schreberstraße" }, "geometry": { "type": "Point", "coordinates": [ 7.754708759128729, 51.445040581711552 ] } },
{ "type": "Feature", "properties": { "strassenschluessel": "05962000004007342", "bezeichnung": "Kleine Heide" }, "geometry": { "type": "Point", "coordinates": [ 7.755965909595434, 51.445038678477687 ] } },
{ "type": "Feature", "properties": { "strassenschluessel": "05962000004007343", "bezeichnung": "Kötterberg" }, "geometry": { "type": "Point", "coordinates": [ 7.74980497382914, 51.43912605996951 ] } },
{ "type": "Feature", "properties": { "strassenschluessel": "05962000004007344", "bezeichnung": "Paul-Löbe-Straße" }, "geometry": { "type": "Point", "coordinates": [ 7.764798376897169, 51.454100534761153 ] } },
{ "type": "Feature", "properties": { "strassenschluessel": "05962000004007346", "bezeichnung": "Wilhelm-Raabe-Straße" }, "geometry": { "type": "Point", "coordinates": [ 7.771837347269206, 51.455616771372398 ] } },
{ "type": "Feature", "properties": { "strassenschluessel": "05962000004007347", "bezeichnung": "Hämmerstraße" }, "geometry": { "type": "Point", "coordinates": [ 7.752221421079633, 51.45010028487949 ] } },
{ "type": "Feature", "properties": { "strassenschluessel": "05962000004007348", "bezeichnung": "Mühlenbergstraße" }, "geometry": { "type": "Point", "coordinates": [ 7.772756443234038, 51.448157217286933 ] } },
{ "type": "Feature", "properties": { "strassenschluessel": "05962000004007349", "bezeichnung": "Obere Heidestraße" }, "geometry": { "type": "Point", "coordinates": [ 7.749615890757996, 51.451599439891737 ] } },
{ "type": "Feature", "properties": { "strassenschluessel": "05962000004007350", "bezeichnung": "Bussardweg" }, "geometry": { "type": "Point", "coordinates": [ 7.745775287991719, 51.449579033008249 ] } },
{ "type": "Feature", "properties": { "strassenschluessel": "05962000004007351", "bezeichnung": "Provinzialstraße" }, "geometry": { "type": "Point", "coordinates": [ 7.712317677722271, 51.47225614711958 ] } },
{ "type": "Feature", "properties": { "strassenschluessel": "05962000004007352", "bezeichnung": "Lindort" }, "geometry": { "type": "Point", "coordinates": [ 7.743876343624184, 51.450551386921163 ] } },
{ "type": "Feature", "properties": { "strassenschluessel": "05962000004007353", "bezeichnung": "Rembrandtstraße" }, "geometry": { "type": "Point", "coordinates": [ 7.767816176705377, 51.454986645831205 ] } },
{ "type": "Feature", "properties": { "strassenschluessel": "05962000004007354", "bezeichnung": "Ringstraße" }, "geometry": { "type": "Point", "coordinates": [ 7.761049703830414, 51.447416383041499 ] } },
{ "type": "Feature", "properties": { "strassenschluessel": "05962000004007355", "bezeichnung": "Magdalenenstraße" }, "geometry": { "type": "Point", "coordinates": [ 7.760817961039548, 51.454630285148113 ] } },
{ "type": "Feature", "properties": { "strassenschluessel": "05962000004007356", "bezeichnung": "Wielandstraße" }, "geometry": { "type": "Point", "coordinates": [ 7.766462575205018, 51.454147740234184 ] } },
{ "type": "Feature", "properties": { "strassenschluessel": "05962000004007357", "bezeichnung": "Hermann-Hesse-Straße" }, "geometry": { "type": "Point", "coordinates": [ 7.771219929887546, 51.453598688783757 ] } },
{ "type": "Feature", "properties": { "strassenschluessel": "05962000004007358", "bezeichnung": "Adlerstraße" }, "geometry": { "type": "Point", "coordinates": [ 7.741553615295352, 51.450603576364806 ] } },
{ "type": "Feature", "properties": { "strassenschluessel": "05962000004007359", "bezeichnung": "Schwarzer Weg" }, "geometry": { "type": "Point", "coordinates": [ 7.773075866179042, 51.460755007721673 ] } },
{ "type": "Feature", "properties": { "strassenschluessel": "05962000004007360", "bezeichnung": "Sommerweg" }, "geometry": { "type": "Point", "coordinates": [ 7.749142453152024, 51.448773582742184 ] } },
{ "type": "Feature", "properties": { "strassenschluessel": "05962000004007361", "bezeichnung": "Am Neuwalzwerk" }, "geometry": { "type": "Point", "coordinates": [ 7.769591228597715, 51.459040823821745 ] } },
{ "type": "Feature", "properties": { "strassenschluessel": "05962000004007362", "bezeichnung": "Stuckenacker" }, "geometry": { "type": "Point", "coordinates": [ 7.760087718441817, 51.445481181403174 ] } },
{ "type": "Feature", "properties": { "strassenschluessel": "05962000004007363", "bezeichnung": "Tannenbergstraße" }, "geometry": { "type": "Point", "coordinates": [ 7.768016659999854, 51.449231698479409 ] } },
{ "type": "Feature", "properties": { "strassenschluessel": "05962000004007364", "bezeichnung": "Wietholz" }, "geometry": { "type": "Point", "coordinates": [ 7.752137899802515, 51.448909681286615 ] } },
{ "type": "Feature", "properties": { "strassenschluessel": "05962000004007365", "bezeichnung": "Milanstraße" }, "geometry": { "type": "Point", "coordinates": [ 7.741081693471971, 51.449907713051758 ] } },
{ "type": "Feature", "properties": { "strassenschluessel": "05962000004007367", "bezeichnung": "Winkelstraße" }, "geometry": { "type": "Point", "coordinates": [ 7.752082202831969, 51.454864088600559 ] } },
{ "type": "Feature", "properties": { "strassenschluessel": "05962000004007368", "bezeichnung": "Goldknapp" }, "geometry": { "type": "Point", "coordinates": [ 7.767594478652138, 51.457161260422097 ] } },
{ "type": "Feature", "properties": { "strassenschluessel": "05962000004007369", "bezeichnung": "Zum Schlehdorn" }, "geometry": { "type": "Point", "coordinates": [ 7.755271659767799, 51.444686320021901 ] } },
{ "type": "Feature", "properties": { "strassenschluessel": "05962000004007370", "bezeichnung": "Morgensternweg" }, "geometry": { "type": "Point", "coordinates": [ 7.749853258595978, 51.453777032278737 ] } },
{ "type": "Feature", "properties": { "strassenschluessel": "05962000004007372", "bezeichnung": "Grevenhofstraße" }, "geometry": { "type": "Point", "coordinates": [ 7.75542092614586, 51.454204387142042 ] } },
{ "type": "Feature", "properties": { "strassenschluessel": "05962000004007374", "bezeichnung": "Im Wieshof" }, "geometry": { "type": "Point", "coordinates": [ 7.755225712993572, 51.45471613293801 ] } },
{ "type": "Feature", "properties": { "strassenschluessel": "05962000004007375", "bezeichnung": "Eichenkamp" }, "geometry": { "type": "Point", "coordinates": [ 7.75443886228323, 51.453352199951517 ] } },
{ "type": "Feature", "properties": { "strassenschluessel": "05962000004007376", "bezeichnung": "Igelkamp" }, "geometry": { "type": "Point", "coordinates": [ 7.754442753426749, 51.454099211337862 ] } },
{ "type": "Feature", "properties": { "strassenschluessel": "05962000004007377", "bezeichnung": "Hasenkamp" }, "geometry": { "type": "Point", "coordinates": [ 7.751980375729202, 51.452872169252188 ] } },
{ "type": "Feature", "properties": { "strassenschluessel": "05962000004007378", "bezeichnung": "Embertshof" }, "geometry": { "type": "Point", "coordinates": [ 7.756971715801674, 51.45179194656955 ] } },
{ "type": "Feature", "properties": { "strassenschluessel": "05962000004007381", "bezeichnung": "Echterhofstraße" }, "geometry": { "type": "Point", "coordinates": [ 7.762382737853999, 51.451255263686306 ] } },
{ "type": "Feature", "properties": { "strassenschluessel": "05962000004007384", "bezeichnung": "Ober der Becke" }, "geometry": { "type": "Point", "coordinates": [ 7.764925598767385, 51.4506398077163 ] } },
{ "type": "Feature", "properties": { "strassenschluessel": "05962000004007385", "bezeichnung": "Kötterbredde" }, "geometry": { "type": "Point", "coordinates": [ 7.763147723133433, 51.449677532130046 ] } },
{ "type": "Feature", "properties": { "strassenschluessel": "05962000004007386", "bezeichnung": "Maroeuiler Platz" }, "geometry": null },
{ "type": "Feature", "properties": { "strassenschluessel": "05962000004007387", "bezeichnung": "Deckenstück" }, "geometry": null },
{ "type": "Feature", "properties": { "strassenschluessel": "05962000004007390", "bezeichnung": "Am Abendsiepen" }, "geometry": { "type": "Point", "coordinates": [ 7.719081993737205, 51.458929517271066 ] } },
{ "type": "Feature", "properties": { "strassenschluessel": "05962000004007391", "bezeichnung": "Am Fohrengraben" }, "geometry": { "type": "Point", "coordinates": [ 7.721486844529418, 51.458085726860098 ] } },
{ "type": "Feature", "properties": { "strassenschluessel": "05962000004007392", "bezeichnung": "Am Hüllberg" }, "geometry": { "type": "Point", "coordinates": [ 7.706695302989739, 51.460780766587916 ] } },
{ "type": "Feature", "properties": { "strassenschluessel": "05962000004007393", "bezeichnung": "Antoniuskirchplatz" }, "geometry": { "type": "Point", "coordinates": [ 7.729485304887763, 51.461171298386049 ] } },
{ "type": "Feature", "properties": { "strassenschluessel": "05962000004007394", "bezeichnung": "Am Oberen Fohrengraben" }, "geometry": { "type": "Point", "coordinates": [ 7.723437982600014, 51.457081453266149 ] } },
{ "type": "Feature", "properties": { "strassenschluessel": "05962000004007395", "bezeichnung": "Neue Straße" }, "geometry": { "type": "Point", "coordinates": [ 7.730442892507641, 51.461399752213154 ] } },
{ "type": "Feature", "properties": { "strassenschluessel": "05962000004007397", "bezeichnung": "Bertingloh" }, "geometry": { "type": "Point", "coordinates": [ 7.701226137700933, 51.449086936834775 ] } },
{ "type": "Feature", "properties": { "strassenschluessel": "05962000004007398", "bezeichnung": "Bertingloher Straße" }, "geometry": { "type": "Point", "coordinates": [ 7.705711462130717, 51.461100727331342 ] } },
{ "type": "Feature", "properties": { "strassenschluessel": "05962000004007399", "bezeichnung": "Dahlhauser Straße" }, "geometry": { "type": "Point", "coordinates": [ 7.716464435110668, 51.460687963994772 ] } },
{ "type": "Feature", "properties": { "strassenschluessel": "05962000004007400", "bezeichnung": "Halinger Dorfstraße" }, "geometry": { "type": "Point", "coordinates": [ 7.724458580210376, 51.459766877117239 ] } },
{ "type": "Feature", "properties": { "strassenschluessel": "05962000004007401", "bezeichnung": "Eckeystraße" }, "geometry": { "type": "Point", "coordinates": [ 7.735379107243767, 51.45742671709209 ] } },
{ "type": "Feature", "properties": { "strassenschluessel": "05962000004007402", "bezeichnung": "Robert-Frese-Straße" }, "geometry": { "type": "Point", "coordinates": [ 7.727324060638528, 51.45842968835877 ] } },
{ "type": "Feature", "properties": { "strassenschluessel": "05962000004007403", "bezeichnung": "Fette-Bruch-Straße" }, "geometry": { "type": "Point", "coordinates": [ 7.721482592778191, 51.458730355780631 ] } },
{ "type": "Feature", "properties": { "strassenschluessel": "05962000004007404", "bezeichnung": "Wälkesbergweg" }, "geometry": { "type": "Point", "coordinates": [ 7.728766483284587, 51.458714080784667 ] } },
{ "type": "Feature", "properties": { "strassenschluessel": "05962000004007405", "bezeichnung": "Hugemarkweg" }, "geometry": { "type": "Point", "coordinates": [ 7.73134947988748, 51.458441528517078 ] } },
{ "type": "Feature", "properties": { "strassenschluessel": "05962000004007406", "bezeichnung": "Hennenbusch" }, "geometry": { "type": "Point", "coordinates": [ 7.735986235892267, 51.447631050205793 ] } },
{ "type": "Feature", "properties": { "strassenschluessel": "05962000004007408", "bezeichnung": "Im Wiesengrund" }, "geometry": { "type": "Point", "coordinates": [ 7.734487185968594, 51.458573230434986 ] } },
{ "type": "Feature", "properties": { "strassenschluessel": "05962000004007409", "bezeichnung": "In den Hesserlen" }, "geometry": { "type": "Point", "coordinates": [ 7.719023620137111, 51.458265904774272 ] } },
{ "type": "Feature", "properties": { "strassenschluessel": "05962000004007410", "bezeichnung": "Gruländer Straße" }, "geometry": { "type": "Point", "coordinates": [ 7.709266859217171, 51.471712956621808 ] } },
{ "type": "Feature", "properties": { "strassenschluessel": "05962000004007411", "bezeichnung": "Osterfeld" }, "geometry": { "type": "Point", "coordinates": [ 7.748450702025531, 51.461491527004611 ] } },
{ "type": "Feature", "properties": { "strassenschluessel": "05962000004007412", "bezeichnung": "Osthöfen" }, "geometry": { "type": "Point", "coordinates": [ 7.718113242526223, 51.461312038424865 ] } },
{ "type": "Feature", "properties": { "strassenschluessel": "05962000004007413", "bezeichnung": "Zur Vogelwiese" }, "geometry": { "type": "Point", "coordinates": [ 7.717773432718553, 51.455619213371612 ] } },
{ "type": "Feature", "properties": { "strassenschluessel": "05962000004007414", "bezeichnung": "Rittershausstraße" }, "geometry": { "type": "Point", "coordinates": [ 7.722397755091952, 51.459390834299199 ] } },
{ "type": "Feature", "properties": { "strassenschluessel": "05962000004007415", "bezeichnung": "Schilk" }, "geometry": { "type": "Point", "coordinates": [ 7.719900014617024, 51.452605115047483 ] } },
{ "type": "Feature", "properties": { "strassenschluessel": "05962000004007416", "bezeichnung": "Tellenkamp" }, "geometry": { "type": "Point", "coordinates": [ 7.725435972128198, 51.458937312436163 ] } },
{ "type": "Feature", "properties": { "strassenschluessel": "05962000004007417", "bezeichnung": "Waldweg" }, "geometry": { "type": "Point", "coordinates": [ 7.717618756466757, 51.459572467646922 ] } },
{ "type": "Feature", "properties": { "strassenschluessel": "05962000004007418", "bezeichnung": "Zum Rüthfeld" }, "geometry": { "type": "Point", "coordinates": [ 7.728243629042702, 51.460828278157138 ] } },
{ "type": "Feature", "properties": { "strassenschluessel": "05962000004007419", "bezeichnung": "Ardresweg" }, "geometry": { "type": "Point", "coordinates": [ 7.724385339844098, 51.458602622201788 ] } },
{ "type": "Feature", "properties": { "strassenschluessel": "05962000004007420", "bezeichnung": "Kohlkamp" }, "geometry": { "type": "Point", "coordinates": [ 7.727344796778531, 51.458146827296062 ] } },
{ "type": "Feature", "properties": { "strassenschluessel": "05962000004007421", "bezeichnung": "Am Föhrling" }, "geometry": { "type": "Point", "coordinates": [ 7.722006871018706, 51.460623481254942 ] } },
{ "type": "Feature", "properties": { "strassenschluessel": "05962000004007422", "bezeichnung": "Otto-Weingarten-Straße" }, "geometry": { "type": "Point", "coordinates": [ 7.827662428902156, 51.413506300048958 ] } },
{ "type": "Feature", "properties": { "strassenschluessel": "05962000004007423", "bezeichnung": "Helene-Pellmann-Straße" }, "geometry": { "type": "Point", "coordinates": [ 7.828622018873525, 51.414795981152984 ] } },
{ "type": "Feature", "properties": { "strassenschluessel": "05962000004007430", "bezeichnung": "Am Feldbrand" }, "geometry": { "type": "Point", "coordinates": [ 7.825379067517906, 51.423544036224293 ] } },
{ "type": "Feature", "properties": { "strassenschluessel": "05962000004007431", "bezeichnung": "Am Örtchen" }, "geometry": { "type": "Point", "coordinates": [ 7.829559723173247, 51.423486286758653 ] } },
{ "type": "Feature", "properties": { "strassenschluessel": "05962000004007432", "bezeichnung": "Am Schiefen Ufer" }, "geometry": { "type": "Point", "coordinates": [ 7.82957783131397, 51.425920654246532 ] } },
{ "type": "Feature", "properties": { "strassenschluessel": "05962000004007433", "bezeichnung": "Berkenhofskamp" }, "geometry": { "type": "Point", "coordinates": [ 7.823336506581472, 51.426138643081053 ] } },
{ "type": "Feature", "properties": { "strassenschluessel": "05962000004007434", "bezeichnung": "Beuthener Straße" }, "geometry": { "type": "Point", "coordinates": [ 7.8334396673516, 51.422510280420724 ] } },
{ "type": "Feature", "properties": { "strassenschluessel": "05962000004007435", "bezeichnung": "Birkenholz" }, "geometry": { "type": "Point", "coordinates": [ 7.828714229229226, 51.426518285615401 ] } },
{ "type": "Feature", "properties": { "strassenschluessel": "05962000004007436", "bezeichnung": "Breslauer Straße" }, "geometry": { "type": "Point", "coordinates": [ 7.830715744571158, 51.422019254287349 ] } },
{ "type": "Feature", "properties": { "strassenschluessel": "05962000004007437", "bezeichnung": "Breukerskamp" }, "geometry": { "type": "Point", "coordinates": [ 7.827874934652463, 51.424667462688092 ] } },
{ "type": "Feature", "properties": { "strassenschluessel": "05962000004007438", "bezeichnung": "Dörnsiepen" }, "geometry": { "type": "Point", "coordinates": [ 7.824676089794107, 51.421977532493372 ] } },
{ "type": "Feature", "properties": { "strassenschluessel": "05962000004007439", "bezeichnung": "Fliederweg" }, "geometry": { "type": "Point", "coordinates": [ 7.823794398447316, 51.425077943505123 ] } },
{ "type": "Feature", "properties": { "strassenschluessel": "05962000004007440", "bezeichnung": "Gleiwitzer Straße" }, "geometry": { "type": "Point", "coordinates": [ 7.829909296271129, 51.422692055496306 ] } },
{ "type": "Feature", "properties": { "strassenschluessel": "05962000004007441", "bezeichnung": "Greiffenberger Straße" }, "geometry": { "type": "Point", "coordinates": [ 7.831553781547721, 51.422932314037951 ] } },
{ "type": "Feature", "properties": { "strassenschluessel": "05962000004007442", "bezeichnung": "Heimannskamp" }, "geometry": { "type": "Point", "coordinates": [ 7.827497817743637, 51.42460431497193 ] } },
{ "type": "Feature", "properties": { "strassenschluessel": "05962000004007443", "bezeichnung": "In den Feldern" }, "geometry": { "type": "Point", "coordinates": [ 7.826492213879907, 51.424279531088118 ] } },
{ "type": "Feature", "properties": { "strassenschluessel": "05962000004007444", "bezeichnung": "Irisweg" }, "geometry": { "type": "Point", "coordinates": [ 7.81999383868397, 51.425770491089438 ] } },
{ "type": "Feature", "properties": { "strassenschluessel": "05962000004007445", "bezeichnung": "Kattowitzer Straße" }, "geometry": { "type": "Point", "coordinates": [ 7.831362092490297, 51.423120912997177 ] } },
{ "type": "Feature", "properties": { "strassenschluessel": "05962000004007446", "bezeichnung": "Liegnitzer Straße" }, "geometry": { "type": "Point", "coordinates": [ 7.832232165082603, 51.423398597243612 ] } },
{ "type": "Feature", "properties": { "strassenschluessel": "05962000004007447", "bezeichnung": "Mendener Straße" }, "geometry": { "type": "Point", "coordinates": [ 7.824343454477142, 51.420551295909242 ] } },
{ "type": "Feature", "properties": { "strassenschluessel": "05962000004007448", "bezeichnung": "Nelkenweg" }, "geometry": { "type": "Point", "coordinates": [ 7.823340450525477, 51.4248819060453 ] } },
{ "type": "Feature", "properties": { "strassenschluessel": "05962000004007449", "bezeichnung": "Paschesiepen" }, "geometry": { "type": "Point", "coordinates": [ 7.831390383675168, 51.424148857497237 ] } },
{ "type": "Feature", "properties": { "strassenschluessel": "05962000004007450", "bezeichnung": "Rosenweg" }, "geometry": { "type": "Point", "coordinates": [ 7.824321650254573, 51.422939585340217 ] } },
{ "type": "Feature", "properties": { "strassenschluessel": "05962000004007451", "bezeichnung": "Waldenburger Straße" }, "geometry": { "type": "Point", "coordinates": [ 7.826990702977088, 51.423400842229533 ] } },
{ "type": "Feature", "properties": { "strassenschluessel": "05962000004007452", "bezeichnung": "Tulpenweg" }, "geometry": { "type": "Point", "coordinates": [ 7.819494949506587, 51.424740583060419 ] } },
{ "type": "Feature", "properties": { "strassenschluessel": "05962000004007453", "bezeichnung": "Asternweg" }, "geometry": { "type": "Point", "coordinates": [ 7.82298240538105, 51.425021620868364 ] } },
{ "type": "Feature", "properties": { "strassenschluessel": "05962000004007454", "bezeichnung": "Hainweg" }, "geometry": { "type": "Point", "coordinates": [ 7.827065350371813, 51.426232820659251 ] } },
{ "type": "Feature", "properties": { "strassenschluessel": "05962000004007455", "bezeichnung": "Weidenkamp" }, "geometry": { "type": "Point", "coordinates": [ 7.826684705603399, 51.42563753609376 ] } },
{ "type": "Feature", "properties": { "strassenschluessel": "05962000004007456", "bezeichnung": "Krokusweg" }, "geometry": { "type": "Point", "coordinates": [ 7.823558180920893, 51.422441270775472 ] } },
{ "type": "Feature", "properties": { "strassenschluessel": "05962000004007457", "bezeichnung": "Josefplatz" }, "geometry": { "type": "Point", "coordinates": [ 7.83378832494322, 51.414036929666906 ] } },
{ "type": "Feature", "properties": { "strassenschluessel": "05962000004007458", "bezeichnung": "In den Gärten" }, "geometry": { "type": "Point", "coordinates": [ 7.829506351822478, 51.424389655834375 ] } },
{ "type": "Feature", "properties": { "strassenschluessel": "05962000004007459", "bezeichnung": "Zum Eisenwerk" }, "geometry": { "type": "Point", "coordinates": [ 7.824454812148891, 51.416324102470519 ] } },
{ "type": "Feature", "properties": { "strassenschluessel": "05962000004007460", "bezeichnung": "Aechterholzstraße" }, "geometry": { "type": "Point", "coordinates": [ 7.836617925679021, 51.412573341513294 ] } },
{ "type": "Feature", "properties": { "strassenschluessel": "05962000004007461", "bezeichnung": "Am Ehrenmal" }, "geometry": { "type": "Point", "coordinates": [ 7.830143104957254, 51.417612823959587 ] } },
{ "type": "Feature", "properties": { "strassenschluessel": "05962000004007462", "bezeichnung": "Am Grinsberg" }, "geometry": { "type": "Point", "coordinates": [ 7.837924026610009, 51.413722184844353 ] } },
{ "type": "Feature", "properties": { "strassenschluessel": "05962000004007463", "bezeichnung": "Am Hennekei" }, "geometry": { "type": "Point", "coordinates": [ 7.851623806168578, 51.415000298247669 ] } },
{ "type": "Feature", "properties": { "strassenschluessel": "05962000004007464", "bezeichnung": "Amselweg" }, "geometry": { "type": "Point", "coordinates": [ 7.833276707325501, 51.415939862778423 ] } },
{ "type": "Feature", "properties": { "strassenschluessel": "05962000004007465", "bezeichnung": "Josef-Winckler-Straße" }, "geometry": { "type": "Point", "coordinates": [ 7.829029656647285, 51.415291428420936 ] } },
{ "type": "Feature", "properties": { "strassenschluessel": "05962000004007466", "bezeichnung": "Fischkuhle" }, "geometry": { "type": "Point", "coordinates": [ 7.831460336708416, 51.410769400520678 ] } },
{ "type": "Feature", "properties": { "strassenschluessel": "05962000004007467", "bezeichnung": "Beisicht" }, "geometry": { "type": "Point", "coordinates": [ 7.838927840859728, 51.415574379484084 ] } },
{ "type": "Feature", "properties": { "strassenschluessel": "05962000004007468", "bezeichnung": "Bieberberg" }, "geometry": { "type": "Point", "coordinates": [ 7.841422287745146, 51.417203877473227 ] } },
{ "type": "Feature", "properties": { "strassenschluessel": "05962000004007469", "bezeichnung": "Bieberkamp" }, "geometry": { "type": "Point", "coordinates": [ 7.859451117465109, 51.416723796110013 ] } },
{ "type": "Feature", "properties": { "strassenschluessel": "05962000004007470", "bezeichnung": "Bieberwinkel" }, "geometry": { "type": "Point", "coordinates": [ 7.839140575933829, 51.412017589519948 ] } },
{ "type": "Feature", "properties": { "strassenschluessel": "05962000004007471", "bezeichnung": "Böingser Weg" }, "geometry": { "type": "Point", "coordinates": [ 7.843867014959831, 51.409276435922202 ] } },
{ "type": "Feature", "properties": { "strassenschluessel": "05962000004007472", "bezeichnung": "Maria-Kahle-Straße" }, "geometry": null },
{ "type": "Feature", "properties": { "strassenschluessel": "05962000004007473", "bezeichnung": "Drosselstraße" }, "geometry": { "type": "Point", "coordinates": [ 7.847372702695981, 51.418463435711516 ] } },
{ "type": "Feature", "properties": { "strassenschluessel": "05962000004007474", "bezeichnung": "Luise-Hensel-Straße" }, "geometry": { "type": "Point", "coordinates": [ 7.830157211507389, 51.414031189861909 ] } },
{ "type": "Feature", "properties": { "strassenschluessel": "05962000004007475", "bezeichnung": "Eilinger Kamp" }, "geometry": { "type": "Point", "coordinates": [ 7.862193265312297, 51.419938046951323 ] } },
{ "type": "Feature", "properties": { "strassenschluessel": "05962000004007476", "bezeichnung": "Eisborner Weg" }, "geometry": { "type": "Point", "coordinates": [ 7.848811382886614, 51.417421947252798 ] } },
{ "type": "Feature", "properties": { "strassenschluessel": "05962000004007477", "bezeichnung": "Kleiberstraße" }, "geometry": { "type": "Point", "coordinates": [ 7.84869993315875, 51.418816099939477 ] } },
{ "type": "Feature", "properties": { "strassenschluessel": "05962000004007478", "bezeichnung": "Freih.-Von-Dücker-Straße" }, "geometry": { "type": "Point", "coordinates": [ 7.838432093602278, 51.410385836957445 ] } },
{ "type": "Feature", "properties": { "strassenschluessel": "05962000004007479", "bezeichnung": "Freiligrathstraße" }, "geometry": { "type": "Point", "coordinates": [ 7.828349763467182, 51.41300128793155 ] } },
{ "type": "Feature", "properties": { "strassenschluessel": "05962000004007480", "bezeichnung": "Friedhofstraße" }, "geometry": { "type": "Point", "coordinates": [ 7.839071771304334, 51.415098333869111 ] } },
{ "type": "Feature", "properties": { "strassenschluessel": "05962000004007481", "bezeichnung": "Gerhart-Hauptmann-Straße" }, "geometry": { "type": "Point", "coordinates": [ 7.83008391143559, 51.413629708457393 ] } },
{ "type": "Feature", "properties": { "strassenschluessel": "05962000004007482", "bezeichnung": "Ina-Seidel-Straße" }, "geometry": null },
{ "type": "Feature", "properties": { "strassenschluessel": "05962000004007483", "bezeichnung": "Habichtstraße" }, "geometry": { "type": "Point", "coordinates": [ 7.847105462154561, 51.418868210462591 ] } },