{
"type": "FeatureCollection",
"features": [
{ "type": "Feature", "properties": { "strassenschluessel": "05974000003209501", "bezeichnung": "Bauernweg" }, "geometry": { "type": "Point", "coordinates": [ 8.136365278975333, 51.513711652649214 ] } },
{ "type": "Feature", "properties": { "strassenschluessel": "05974000003209502", "bezeichnung": "Brandholz" }, "geometry": { "type": "Point", "coordinates": [ 8.139096864466254, 51.513833115879486 ] } },
{ "type": "Feature", "properties": { "strassenschluessel": "05974000003209503", "bezeichnung": "Lendringser Straße" }, "geometry": { "type": "Point", "coordinates": [ 8.134781404451918, 51.515904803370759 ] } },
{ "type": "Feature", "properties": { "strassenschluessel": "05974000003209504", "bezeichnung": "Oesterweg" }, "geometry": { "type": "Point", "coordinates": [ 8.13817436723078, 51.516609740799289 ] } },
{ "type": "Feature", "properties": { "strassenschluessel": "05974000003209505", "bezeichnung": "Bergeder Weg" }, "geometry": { "type": "Point", "coordinates": [ 8.136145361371852, 51.516217452166892 ] } },
{ "type": "Feature", "properties": { "strassenschluessel": "05974000003209506", "bezeichnung": "Königstraße" }, "geometry": { "type": "Point", "coordinates": [ 8.136121700026411, 51.51649153185005 ] } },
{ "type": "Feature", "properties": { "strassenschluessel": "05974000003209507", "bezeichnung": "Blumenstraße" }, "geometry": { "type": "Point", "coordinates": [ 8.222763279611334, 51.518448218773024 ] } },
{ "type": "Feature", "properties": { "strassenschluessel": "05974000003209508", "bezeichnung": "Herringser Weg" }, "geometry": { "type": "Point", "coordinates": [ 8.219788393487855, 51.519458149782956 ] } },
{ "type": "Feature", "properties": { "strassenschluessel": "05974000003209509", "bezeichnung": "Jägerstraße" }, "geometry": { "type": "Point", "coordinates": [ 8.213189928177174, 51.517530952547098 ] } },
{ "type": "Feature", "properties": { "strassenschluessel": "05974000003209510", "bezeichnung": "Landwehr" }, "geometry": { "type": "Point", "coordinates": [ 8.224283783341944, 51.517700339036395 ] } },
{ "type": "Feature", "properties": { "strassenschluessel": "05974000003209511", "bezeichnung": "Ostheider Weg" }, "geometry": { "type": "Point", "coordinates": [ 8.221320993847645, 51.519157726126615 ] } },
{ "type": "Feature", "properties": { "strassenschluessel": "05974000003209512", "bezeichnung": "Propst-Bömer-Straße" }, "geometry": { "type": "Point", "coordinates": [ 8.223040823893058, 51.518945474194332 ] } },
{ "type": "Feature", "properties": { "strassenschluessel": "05974000003209513", "bezeichnung": "Rüthener Pfad" }, "geometry": { "type": "Point", "coordinates": [ 8.223961306581852, 51.517997033524182 ] } },
{ "type": "Feature", "properties": { "strassenschluessel": "05974000003209514", "bezeichnung": "Zum Steinbruch" }, "geometry": { "type": "Point", "coordinates": [ 8.217420415859664, 51.519999181469856 ] } },
{ "type": "Feature", "properties": { "strassenschluessel": "05974000003209515", "bezeichnung": "Im Dahlhof" }, "geometry": null },
{ "type": "Feature", "properties": { "strassenschluessel": "05974000003209516", "bezeichnung": "Dieselweg" }, "geometry": { "type": "Point", "coordinates": [ 8.153986838948157, 51.506385412049099 ] } },
{ "type": "Feature", "properties": { "strassenschluessel": "05974000003209517", "bezeichnung": "Daimlerweg" }, "geometry": { "type": "Point", "coordinates": [ 8.153455207514451, 51.506544753111626 ] } },
{ "type": "Feature", "properties": { "strassenschluessel": "05974000003209518", "bezeichnung": "Am Schützenplatz" }, "geometry": { "type": "Point", "coordinates": [ 8.106557352896269, 51.518528529322907 ] } },
{ "type": "Feature", "properties": { "strassenschluessel": "05974000003209519", "bezeichnung": "Körbecker Straße" }, "geometry": { "type": "Point", "coordinates": [ 8.107053075500541, 51.519075686999848 ] } },
{ "type": "Feature", "properties": { "strassenschluessel": "05974000003209520", "bezeichnung": "Landeck" }, "geometry": { "type": "Point", "coordinates": [ 8.109125472744125, 51.517835556949862 ] } },
{ "type": "Feature", "properties": { "strassenschluessel": "05974000003209521", "bezeichnung": "Wippringser Weg" }, "geometry": { "type": "Point", "coordinates": [ 8.105877010286203, 51.519474306778363 ] } },
{ "type": "Feature", "properties": { "strassenschluessel": "05974000003209522", "bezeichnung": "Haarweg" }, "geometry": { "type": "Point", "coordinates": [ 8.105024586366561, 51.505072064059078 ] } },
{ "type": "Feature", "properties": { "strassenschluessel": "05974000003209523", "bezeichnung": "Am Brink" }, "geometry": { "type": "Point", "coordinates": [ 8.107499088650606, 51.51752043548484 ] } },
{ "type": "Feature", "properties": { "strassenschluessel": "05974000003209526", "bezeichnung": "Am Mühlenberg" }, "geometry": { "type": "Point", "coordinates": [ 8.096015883504204, 51.487099004084861 ] } },
{ "type": "Feature", "properties": { "strassenschluessel": "05974000003209527", "bezeichnung": "Am Seeufer" }, "geometry": { "type": "Point", "coordinates": [ 8.078663172673647, 51.490648338924778 ] } },
{ "type": "Feature", "properties": { "strassenschluessel": "05974000003209528", "bezeichnung": "Am Sonnenhang" }, "geometry": { "type": "Point", "coordinates": [ 8.087494439649026, 51.493503625098676 ] } },
{ "type": "Feature", "properties": { "strassenschluessel": "05974000003209529", "bezeichnung": "Arnsberger Straße" }, "geometry": { "type": "Point", "coordinates": [ 8.090973090669582, 51.489830954707152 ] } },
{ "type": "Feature", "properties": { "strassenschluessel": "05974000003209530", "bezeichnung": "Dreihausen" }, "geometry": { "type": "Point", "coordinates": [ 8.098782664451777, 51.501355807294274 ] } },
{ "type": "Feature", "properties": { "strassenschluessel": "05974000003209531", "bezeichnung": "Drüggelter Weg" }, "geometry": { "type": "Point", "coordinates": [ 8.096631417872606, 51.491840594639527 ] } },
{ "type": "Feature", "properties": { "strassenschluessel": "05974000003209532", "bezeichnung": "Segelstraße" }, "geometry": { "type": "Point", "coordinates": [ 8.08708012395414, 51.491218421341998 ] } },
{ "type": "Feature", "properties": { "strassenschluessel": "05974000003209533", "bezeichnung": "Kapellenweg" }, "geometry": { "type": "Point", "coordinates": [ 8.096473340007449, 51.492067395823746 ] } },
{ "type": "Feature", "properties": { "strassenschluessel": "05974000003209534", "bezeichnung": "Krummer Weg" }, "geometry": { "type": "Point", "coordinates": [ 8.089990837675931, 51.492351526621896 ] } },
{ "type": "Feature", "properties": { "strassenschluessel": "05974000003209535", "bezeichnung": "Linkstraße" }, "geometry": { "type": "Point", "coordinates": [ 8.086110247130526, 51.491837816769284 ] } },
{ "type": "Feature", "properties": { "strassenschluessel": "05974000003209536", "bezeichnung": "Auf der Liet" }, "geometry": { "type": "Point", "coordinates": [ 8.087971324456571, 51.493351575161583 ] } },
{ "type": "Feature", "properties": { "strassenschluessel": "05974000003209537", "bezeichnung": "Summermanweg" }, "geometry": { "type": "Point", "coordinates": [ 8.091097756274989, 51.488732802097481 ] } },
{ "type": "Feature", "properties": { "strassenschluessel": "05974000003209538", "bezeichnung": "Soestdorn" }, "geometry": { "type": "Point", "coordinates": [ 8.083996298309485, 51.49373157592278 ] } },
{ "type": "Feature", "properties": { "strassenschluessel": "05974000003209550", "bezeichnung": "Büecker Weg" }, "geometry": { "type": "Point", "coordinates": [ 8.133629230060606, 51.516121061936552 ] } },
{ "type": "Feature", "properties": { "strassenschluessel": "05974000003209551", "bezeichnung": "Wilmes Kamp" }, "geometry": { "type": "Point", "coordinates": [ 8.136926089471242, 51.512240131446099 ] } },
{ "type": "Feature", "properties": { "strassenschluessel": "05974000003209570", "bezeichnung": "Am Bauernteich" }, "geometry": { "type": "Point", "coordinates": [ 8.182333607915353, 51.509380328018331 ] } },
{ "type": "Feature", "properties": { "strassenschluessel": "05974000003209571", "bezeichnung": "Auf der Alm" }, "geometry": { "type": "Point", "coordinates": [ 8.167471613812557, 51.516543364069875 ] } },
{ "type": "Feature", "properties": { "strassenschluessel": "05974000003209572", "bezeichnung": "Berkenhof" }, "geometry": { "type": "Point", "coordinates": [ 8.176505123522357, 51.521287945279333 ] } },
{ "type": "Feature", "properties": { "strassenschluessel": "05974000003209573", "bezeichnung": "Brusisstraße" }, "geometry": { "type": "Point", "coordinates": [ 8.17994987678234, 51.508913650894456 ] } },
{ "type": "Feature", "properties": { "strassenschluessel": "05974000003209574", "bezeichnung": "Hackeloh" }, "geometry": { "type": "Point", "coordinates": [ 8.190669421847215, 51.531487422750914 ] } },
{ "type": "Feature", "properties": { "strassenschluessel": "05974000003209575", "bezeichnung": "Kreisstraße" }, "geometry": { "type": "Point", "coordinates": [ 8.183665298906023, 51.508302156573073 ] } },
{ "type": "Feature", "properties": { "strassenschluessel": "05974000003209576", "bezeichnung": "Michelnhöfe" }, "geometry": { "type": "Point", "coordinates": [ 8.174949851395731, 51.515733874349152 ] } },
{ "type": "Feature", "properties": { "strassenschluessel": "05974000003209577", "bezeichnung": "Schalloh" }, "geometry": { "type": "Point", "coordinates": [ 8.183145585757243, 51.525452606397849 ] } },
{ "type": "Feature", "properties": { "strassenschluessel": "05974000003209578", "bezeichnung": "Teigelhof" }, "geometry": { "type": "Point", "coordinates": [ 8.160546484115812, 51.506910533735173 ] } },
{ "type": "Feature", "properties": { "strassenschluessel": "05974000003209579", "bezeichnung": "Kressweg" }, "geometry": { "type": "Point", "coordinates": [ 8.157142600313367, 51.525697250187001 ] } },
{ "type": "Feature", "properties": { "strassenschluessel": "05974000003209580", "bezeichnung": "Wameler Straße" }, "geometry": { "type": "Point", "coordinates": [ 8.18263558908397, 51.508353181588951 ] } },
{ "type": "Feature", "properties": { "strassenschluessel": "05974000003209581", "bezeichnung": "Wildebauer" }, "geometry": { "type": "Point", "coordinates": [ 8.165820661757111, 51.523313586869349 ] } },
{ "type": "Feature", "properties": { "strassenschluessel": "05974000003209582", "bezeichnung": "Wulfshof" }, "geometry": { "type": "Point", "coordinates": [ 8.188520889080287, 51.511213980269424 ] } },
{ "type": "Feature", "properties": { "strassenschluessel": "05974000003209583", "bezeichnung": "Lammerskamp" }, "geometry": { "type": "Point", "coordinates": [ 8.179117843749843, 51.507282046639695 ] } },
{ "type": "Feature", "properties": { "strassenschluessel": "05974000003209590", "bezeichnung": "Lange Straße" }, "geometry": { "type": "Point", "coordinates": [ 8.203278742815794, 51.517881030014564 ] } },
{ "type": "Feature", "properties": { "strassenschluessel": "05974000003209591", "bezeichnung": "Buschweg" }, "geometry": { "type": "Point", "coordinates": [ 8.19940890415389, 51.517664936578008 ] } },
{ "type": "Feature", "properties": { "strassenschluessel": "05974000003209592", "bezeichnung": "Waldweg" }, "geometry": { "type": "Point", "coordinates": [ 8.200843756975372, 51.51645407002259 ] } },
{ "type": "Feature", "properties": { "strassenschluessel": "05974000003209597", "bezeichnung": "Lutmecketal" }, "geometry": null },
{ "type": "Feature", "properties": { "strassenschluessel": "05974000003209598", "bezeichnung": "Franziskusweg" }, "geometry": { "type": "Point", "coordinates": [ 8.049411349628061, 51.499352701013009 ] } },
{ "type": "Feature", "properties": { "strassenschluessel": "05974000003209599", "bezeichnung": "Mühlenhof" }, "geometry": { "type": "Point", "coordinates": [ 8.052118972116606, 51.494532049310713 ] } },
{ "type": "Feature", "properties": { "strassenschluessel": "05974000003209600", "bezeichnung": "Am Bengst" }, "geometry": { "type": "Point", "coordinates": [ 8.045549631521775, 51.488629454096227 ] } },
{ "type": "Feature", "properties": { "strassenschluessel": "05974000003209601", "bezeichnung": "Am Hassenbruch" }, "geometry": { "type": "Point", "coordinates": [ 8.055003199639277, 51.497360299997894 ] } },
{ "type": "Feature", "properties": { "strassenschluessel": "05974000003209602", "bezeichnung": "Am Zuckerberg" }, "geometry": { "type": "Point", "coordinates": [ 8.05512072097024, 51.495500341968622 ] } },
{ "type": "Feature", "properties": { "strassenschluessel": "05974000003209603", "bezeichnung": "Bergstraße" }, "geometry": { "type": "Point", "coordinates": [ 8.048522455396506, 51.488338970512629 ] } },
{ "type": "Feature", "properties": { "strassenschluessel": "05974000003209604", "bezeichnung": "Bachstraße" }, "geometry": { "type": "Point", "coordinates": [ 8.04171274031318, 51.488075099016903 ] } },
{ "type": "Feature", "properties": { "strassenschluessel": "05974000003209605", "bezeichnung": "Brüningser Straße" }, "geometry": { "type": "Point", "coordinates": [ 8.049452965267914, 51.491923352750106 ] } },
{ "type": "Feature", "properties": { "strassenschluessel": "05974000003209606", "bezeichnung": "Lönsstraße" }, "geometry": { "type": "Point", "coordinates": [ 8.050673360077349, 51.502143474675684 ] } },
{ "type": "Feature", "properties": { "strassenschluessel": "05974000003209607", "bezeichnung": "Eckeystraße" }, "geometry": { "type": "Point", "coordinates": [ 8.06234875493123, 51.492921660416549 ] } },
{ "type": "Feature", "properties": { "strassenschluessel": "05974000003209608", "bezeichnung": "Lessingstraße" }, "geometry": { "type": "Point", "coordinates": [ 8.052847510114413, 51.50149228959684 ] } },
{ "type": "Feature", "properties": { "strassenschluessel": "05974000003209609", "bezeichnung": "Freiligrathstraße" }, "geometry": { "type": "Point", "coordinates": [ 8.055762477744123, 51.502143317196222 ] } },
{ "type": "Feature", "properties": { "strassenschluessel": "05974000003209610", "bezeichnung": "Gartenstraße" }, "geometry": { "type": "Point", "coordinates": [ 8.044978642661178, 51.490122975823212 ] } },
{ "type": "Feature", "properties": { "strassenschluessel": "05974000003209611", "bezeichnung": "Goethestraße" }, "geometry": { "type": "Point", "coordinates": [ 8.05668952551191, 51.503294702490777 ] } },
{ "type": "Feature", "properties": { "strassenschluessel": "05974000003209612", "bezeichnung": "Gunethe" }, "geometry": { "type": "Point", "coordinates": [ 8.048858820206657, 51.49806954017938 ] } },
{ "type": "Feature", "properties": { "strassenschluessel": "05974000003209613", "bezeichnung": "Heideweg" }, "geometry": { "type": "Point", "coordinates": [ 8.047404992851662, 51.489229506108146 ] } },
{ "type": "Feature", "properties": { "strassenschluessel": "05974000003209614", "bezeichnung": "Im Grund" }, "geometry": { "type": "Point", "coordinates": [ 8.045578500104474, 51.499152083762567 ] } },
{ "type": "Feature", "properties": { "strassenschluessel": "05974000003209615", "bezeichnung": "Im Talacker" }, "geometry": { "type": "Point", "coordinates": [ 8.054361142270446, 51.499329031947511 ] } },
{ "type": "Feature", "properties": { "strassenschluessel": "05974000003209616", "bezeichnung": "Kastanienweg" }, "geometry": { "type": "Point", "coordinates": [ 8.050619759504256, 51.49814718302175 ] } },
{ "type": "Feature", "properties": { "strassenschluessel": "05974000003209617", "bezeichnung": "Möhnestraße" }, "geometry": { "type": "Point", "coordinates": [ 8.057020308545109, 51.489260022323037 ] } },
{ "type": "Feature", "properties": { "strassenschluessel": "05974000003209618", "bezeichnung": "Nelkenweg" }, "geometry": { "type": "Point", "coordinates": [ 8.04795190058398, 51.500684125288046 ] } },
{ "type": "Feature", "properties": { "strassenschluessel": "05974000003209619", "bezeichnung": "Ringstraße" }, "geometry": { "type": "Point", "coordinates": [ 8.053805254859883, 51.501208813821044 ] } },
{ "type": "Feature", "properties": { "strassenschluessel": "05974000003209620", "bezeichnung": "Rosenweg" }, "geometry": { "type": "Point", "coordinates": [ 8.044526947988144, 51.499797753687481 ] } },
{ "type": "Feature", "properties": { "strassenschluessel": "05974000003209621", "bezeichnung": "Schillerstraße" }, "geometry": { "type": "Point", "coordinates": [ 8.056128592012373, 51.502819054229214 ] } },
{ "type": "Feature", "properties": { "strassenschluessel": "05974000003209622", "bezeichnung": "Soester Straße" }, "geometry": { "type": "Point", "coordinates": [ 8.057415174907842, 51.502049479758519 ] } },
{ "type": "Feature", "properties": { "strassenschluessel": "05974000003209623", "bezeichnung": "Südstraße" }, "geometry": { "type": "Point", "coordinates": [ 8.049937376939686, 51.495859629404144 ] } },
{ "type": "Feature", "properties": { "strassenschluessel": "05974000003209624", "bezeichnung": "Hangstraße" }, "geometry": { "type": "Point", "coordinates": [ 8.049487655358748, 51.499621748783007 ] } },
{ "type": "Feature", "properties": { "strassenschluessel": "05974000003209625", "bezeichnung": "Tulpenweg" }, "geometry": { "type": "Point", "coordinates": [ 8.04722135264022, 51.500992949231431 ] } },
{ "type": "Feature", "properties": { "strassenschluessel": "05974000003209626", "bezeichnung": "Uhlandstraße" }, "geometry": { "type": "Point", "coordinates": [ 8.05216380852441, 51.500953100206978 ] } },
{ "type": "Feature", "properties": { "strassenschluessel": "05974000003209627", "bezeichnung": "Unter der Haar" }, "geometry": { "type": "Point", "coordinates": [ 8.053848302053561, 51.503079649792767 ] } },
{ "type": "Feature", "properties": { "strassenschluessel": "05974000003209628", "bezeichnung": "Westricher Weg" }, "geometry": { "type": "Point", "coordinates": [ 8.054286849376398, 51.498226336949251 ] } },
{ "type": "Feature", "properties": { "strassenschluessel": "05974000003209629", "bezeichnung": "Wiesenstraße" }, "geometry": { "type": "Point", "coordinates": [ 8.047815267756523, 51.499929647938629 ] } },
{ "type": "Feature", "properties": { "strassenschluessel": "05974000003209630", "bezeichnung": "Wollmeine" }, "geometry": { "type": "Point", "coordinates": [ 8.044804578978257, 51.489384446163349 ] } },
{ "type": "Feature", "properties": { "strassenschluessel": "05974000003209631", "bezeichnung": "Zum Arnsberger Wald" }, "geometry": { "type": "Point", "coordinates": [ 8.047323529108125, 51.487758765436496 ] } },
{ "type": "Feature", "properties": { "strassenschluessel": "05974000003209632", "bezeichnung": "Zum Haarstrang" }, "geometry": { "type": "Point", "coordinates": [ 8.051345936784447, 51.50108964967243 ] } },
{ "type": "Feature", "properties": { "strassenschluessel": "05974000003209633", "bezeichnung": "Zur Hude" }, "geometry": { "type": "Point", "coordinates": [ 8.045572706400883, 51.489590997117432 ] } },
{ "type": "Feature", "properties": { "strassenschluessel": "05974000003209634", "bezeichnung": "Zum Weiher" }, "geometry": { "type": "Point", "coordinates": [ 8.053540375815963, 51.495212767794726 ] } },
{ "type": "Feature", "properties": { "strassenschluessel": "05974000003209635", "bezeichnung": "Am Blauen Rock" }, "geometry": { "type": "Point", "coordinates": [ 8.055074660594416, 51.498896089684123 ] } },
{ "type": "Feature", "properties": { "strassenschluessel": "05974000003209636", "bezeichnung": "Asternweg" }, "geometry": { "type": "Point", "coordinates": [ 8.048496454298744, 51.500946848535584 ] } },
{ "type": "Feature", "properties": { "strassenschluessel": "05974000003209637", "bezeichnung": "Antoniusstraße" }, "geometry": { "type": "Point", "coordinates": [ 8.052521683352895, 51.499535273232645 ] } },
{ "type": "Feature", "properties": { "strassenschluessel": "05974000003209638", "bezeichnung": "Petrusstraße" }, "geometry": { "type": "Point", "coordinates": [ 8.056064074972285, 51.500280669233902 ] } },
{ "type": "Feature", "properties": { "strassenschluessel": "05974000003209639", "bezeichnung": "Paulusstraße" }, "geometry": { "type": "Point", "coordinates": [ 8.053730672212925, 51.500120638532053 ] } },
{ "type": "Feature", "properties": { "strassenschluessel": "05974000003209640", "bezeichnung": "Liboristraße" }, "geometry": { "type": "Point", "coordinates": [ 8.05395176354464, 51.500601399020383 ] } },
{ "type": "Feature", "properties": { "strassenschluessel": "05974000003209641", "bezeichnung": "Patroklistraße" }, "geometry": { "type": "Point", "coordinates": [ 8.056872036530981, 51.500490208244095 ] } },
{ "type": "Feature", "properties": { "strassenschluessel": "05974000003209642", "bezeichnung": "Am Bruch" }, "geometry": { "type": "Point", "coordinates": [ 8.05251058592826, 51.496197854338682 ] } },
{ "type": "Feature", "properties": { "strassenschluessel": "05974000003209643", "bezeichnung": "Im Eichenring" }, "geometry": { "type": "Point", "coordinates": [ 8.052473480493532, 51.497751796151746 ] } },
{ "type": "Feature", "properties": { "strassenschluessel": "05974000003209644", "bezeichnung": "Kleinbahnweg" }, "geometry": { "type": "Point", "coordinates": [ 8.054083462518811, 51.496127967697568 ] } },
{ "type": "Feature", "properties": { "strassenschluessel": "05974000003209645", "bezeichnung": "St.-Josef-Weg" }, "geometry": { "type": "Point", "coordinates": [ 8.04995615929635, 51.500492400860793 ] } },
{ "type": "Feature", "properties": { "strassenschluessel": "05974000003209646", "bezeichnung": "Augustin-Schulte-Weg" }, "geometry": { "type": "Point", "coordinates": [ 8.049940419482022, 51.501316543342838 ] } },
{ "type": "Feature", "properties": { "strassenschluessel": "05974000003209647", "bezeichnung": "Max Schulze-Sölde Weg" }, "geometry": { "type": "Point", "coordinates": [ 8.056450336119422, 51.501305861853588 ] } },
{ "type": "Feature", "properties": { "strassenschluessel": "05974000003209650", "bezeichnung": "Bittinger Straße" }, "geometry": { "type": "Point", "coordinates": [ 8.03736671277394, 51.517966382580049 ] } },
{ "type": "Feature", "properties": { "strassenschluessel": "05974000003209651", "bezeichnung": "Brandstraße" }, "geometry": { "type": "Point", "coordinates": [ 8.044946995977842, 51.517661281264566 ] } },
{ "type": "Feature", "properties": { "strassenschluessel": "05974000003209652", "bezeichnung": "Günner Straße" }, "geometry": { "type": "Point", "coordinates": [ 8.043897425207767, 51.519433062605628 ] } },
{ "type": "Feature", "properties": { "strassenschluessel": "05974000003209653", "bezeichnung": "Mittelstraße" }, "geometry": { "type": "Point", "coordinates": [ 8.042555457723859, 51.516827435989697 ] } },
{ "type": "Feature", "properties": { "strassenschluessel": "05974000003209654", "bezeichnung": "Richelpfad" }, "geometry": { "type": "Point", "coordinates": [ 8.039221115157162, 51.519514044209309 ] } },
{ "type": "Feature", "properties": { "strassenschluessel": "05974000003209655", "bezeichnung": "Theiningser Weg" }, "geometry": { "type": "Point", "coordinates": [ 8.046366362033543, 51.518781332828453 ] } },
{ "type": "Feature", "properties": { "strassenschluessel": "05974000003209656", "bezeichnung": "Vierrückenweg" }, "geometry": { "type": "Point", "coordinates": [ 8.04260167769803, 51.516557999756742 ] } },
{ "type": "Feature", "properties": { "strassenschluessel": "05974000003209657", "bezeichnung": "Weststraße" }, "geometry": { "type": "Point", "coordinates": [ 8.041814278849481, 51.517278464648427 ] } },
{ "type": "Feature", "properties": { "strassenschluessel": "05974000003209670", "bezeichnung": "Am Daiwesweg" }, "geometry": { "type": "Point", "coordinates": [ 8.11921172397944, 51.497014734293607 ] } },
{ "type": "Feature", "properties": { "strassenschluessel": "05974000003209671", "bezeichnung": "Am Gänsebruch" }, "geometry": { "type": "Point", "coordinates": [ 8.13188862261304, 51.49794227273842 ] } },
{ "type": "Feature", "properties": { "strassenschluessel": "05974000003209672", "bezeichnung": "Amselweg" }, "geometry": { "type": "Point", "coordinates": [ 8.122780806990596, 51.498294585189115 ] } },
{ "type": "Feature", "properties": { "strassenschluessel": "05974000003209673", "bezeichnung": "Angiwarenweg" }, "geometry": { "type": "Point", "coordinates": [ 8.137173328488835, 51.493556728286975 ] } },
{ "type": "Feature", "properties": { "strassenschluessel": "05974000003209674", "bezeichnung": "Am Kirchplatz" }, "geometry": { "type": "Point", "coordinates": [ 8.129725205060298, 51.497414022011142 ] } },
{ "type": "Feature", "properties": { "strassenschluessel": "05974000003209675", "bezeichnung": "Am Linnenbrai" }, "geometry": { "type": "Point", "coordinates": [ 8.12167905870316, 51.494347910941265 ] } },
{ "type": "Feature", "properties": { "strassenschluessel": "05974000003209676", "bezeichnung": "Seeblick" }, "geometry": { "type": "Point", "coordinates": [ 8.139074918050161, 51.492576559573124 ] } },
{ "type": "Feature", "properties": { "strassenschluessel": "05974000003209677", "bezeichnung": "Auf der Bauer" }, "geometry": { "type": "Point", "coordinates": [ 8.139634240403494, 51.484144251532705 ] } },
{ "type": "Feature", "properties": { "strassenschluessel": "05974000003209678", "bezeichnung": "Auf dem Großen Felde" }, "geometry": { "type": "Point", "coordinates": [ 8.126871929502069, 51.500066900124509 ] } },
{ "type": "Feature", "properties": { "strassenschluessel": "05974000003209679", "bezeichnung": "Berlingser Weg" }, "geometry": { "type": "Point", "coordinates": [ 8.130976703937026, 51.498735363634175 ] } },
{ "type": "Feature", "properties": { "strassenschluessel": "05974000003209680", "bezeichnung": "Birkenweg" }, "geometry": { "type": "Point", "coordinates": [ 8.124801711865279, 51.497012834065345 ] } },
{ "type": "Feature", "properties": { "strassenschluessel": "05974000003209681", "bezeichnung": "Börnigeweg" }, "geometry": { "type": "Point", "coordinates": [ 8.129288722199217, 51.496015652098123 ] } },
{ "type": "Feature", "properties": { "strassenschluessel": "05974000003209682", "bezeichnung": "Brückenstraße" }, "geometry": { "type": "Point", "coordinates": [ 8.12201811112832, 51.49043993819015 ] } },
{ "type": "Feature", "properties": { "strassenschluessel": "05974000003209683", "bezeichnung": "Bruktererweg" }, "geometry": { "type": "Point", "coordinates": [ 8.139329741366264, 51.49369682352355 ] } },
{ "type": "Feature", "properties": { "strassenschluessel": "05974000003209684", "bezeichnung": "Drosselweg" }, "geometry": { "type": "Point", "coordinates": [ 8.123735977395789, 51.498422496256133 ] } },
{ "type": "Feature", "properties": { "strassenschluessel": "05974000003209685", "bezeichnung": "Echtroper Weg" }, "geometry": { "type": "Point", "coordinates": [ 8.136348704807977, 51.498420517047073 ] } },
{ "type": "Feature", "properties": { "strassenschluessel": "05974000003209686", "bezeichnung": "Eichendorffstraße" }, "geometry": { "type": "Point", "coordinates": [ 8.137171445650996, 51.499818023847801 ] } },
{ "type": "Feature", "properties": { "strassenschluessel": "05974000003209687", "bezeichnung": "Enger Weg" }, "geometry": { "type": "Point", "coordinates": [ 8.131294641625567, 51.495943727032319 ] } },
{ "type": "Feature", "properties": { "strassenschluessel": "05974000003209688", "bezeichnung": "Engernweg" }, "geometry": { "type": "Point", "coordinates": [ 8.137929770356811, 51.493984544462258 ] } },
{ "type": "Feature", "properties": { "strassenschluessel": "05974000003209689", "bezeichnung": "Fährenweg" }, "geometry": { "type": "Point", "coordinates": [ 8.131578394596275, 51.491819620869748 ] } },
{ "type": "Feature", "properties": { "strassenschluessel": "05974000003209690", "bezeichnung": "Fasanenstraße" }, "geometry": { "type": "Point", "coordinates": [ 8.124151183483979, 51.498252762952703 ] } },
{ "type": "Feature", "properties": { "strassenschluessel": "05974000003209691", "bezeichnung": "Finkenweg" }, "geometry": { "type": "Point", "coordinates": [ 8.124612566600408, 51.498561637494731 ] } },
{ "type": "Feature", "properties": { "strassenschluessel": "05974000003209692", "bezeichnung": "Falkenweg" }, "geometry": { "type": "Point", "coordinates": [ 8.124416875821876, 51.497526010783275 ] } },
{ "type": "Feature", "properties": { "strassenschluessel": "05974000003209693", "bezeichnung": "Gerhart-Hauptmann-Straße" }, "geometry": { "type": "Point", "coordinates": [ 8.138351575526698, 51.498095046226034 ] } },
{ "type": "Feature", "properties": { "strassenschluessel": "05974000003209694", "bezeichnung": "Graf-Gottfried-Straße" }, "geometry": { "type": "Point", "coordinates": [ 8.123747957651407, 51.495181125092728 ] } },
{ "type": "Feature", "properties": { "strassenschluessel": "05974000003209695", "bezeichnung": "Grüner Weg" }, "geometry": { "type": "Point", "coordinates": [ 8.124642703717052, 51.500562016812196 ] } },
{ "type": "Feature", "properties": { "strassenschluessel": "05974000003209696", "bezeichnung": "Hauptstraße" }, "geometry": { "type": "Point", "coordinates": [ 8.130833383961805, 51.49583555332967 ] } },
{ "type": "Feature", "properties": { "strassenschluessel": "05974000003209697", "bezeichnung": "Hospitalstraße" }, "geometry": { "type": "Point", "coordinates": [ 8.127596543539575, 51.498655095826578 ] } },
{ "type": "Feature", "properties": { "strassenschluessel": "05974000003209698", "bezeichnung": "Hoher Stoß" }, "geometry": { "type": "Point", "coordinates": [ 8.13192309716039, 51.483390089514792 ] } },
{ "type": "Feature", "properties": { "strassenschluessel": "05974000003209699", "bezeichnung": "Im Mühlensiepen" }, "geometry": { "type": "Point", "coordinates": [ 8.126837243168227, 51.481335448253759 ] } },
{ "type": "Feature", "properties": { "strassenschluessel": "05974000003209700", "bezeichnung": "Im Grünen Winkel" }, "geometry": { "type": "Point", "coordinates": [ 8.127231841799246, 51.496037114372818 ] } },
{ "type": "Feature", "properties": { "strassenschluessel": "05974000003209701", "bezeichnung": "Im Sonneneck" }, "geometry": { "type": "Point", "coordinates": [ 8.133030959169831, 51.49232462905529 ] } },
{ "type": "Feature", "properties": { "strassenschluessel": "05974000003209702", "bezeichnung": "In den Haargärten" }, "geometry": { "type": "Point", "coordinates": [ 8.124917658113796, 51.499723580780703 ] } },
{ "type": "Feature", "properties": { "strassenschluessel": "05974000003209703", "bezeichnung": "In den Schlaan" }, "geometry": { "type": "Point", "coordinates": [ 8.135846970630718, 51.496848272884066 ] } },
{ "type": "Feature", "properties": { "strassenschluessel": "05974000003209704", "bezeichnung": "In der Twiete" }, "geometry": { "type": "Point", "coordinates": [ 8.130026443968301, 51.495786804825023 ] } },
{ "type": "Feature", "properties": { "strassenschluessel": "05974000003209705", "bezeichnung": "Kantstraße" }, "geometry": { "type": "Point", "coordinates": [ 8.138860150409892, 51.499285899514298 ] } },
{ "type": "Feature", "properties": { "strassenschluessel": "05974000003209706", "bezeichnung": "Kolpingstraße" }, "geometry": { "type": "Point", "coordinates": [ 8.130583382514894, 51.496128897638869 ] } },
{ "type": "Feature", "properties": { "strassenschluessel": "05974000003209707", "bezeichnung": "Kurkölner Straße" }, "geometry": { "type": "Point", "coordinates": [ 8.12742984499627, 51.496772098315489 ] } },
{ "type": "Feature", "properties": { "strassenschluessel": "05974000003209708", "bezeichnung": "Leopoldstraße" }, "geometry": { "type": "Point", "coordinates": [ 8.131832450908743, 51.495211869656394 ] } },
{ "type": "Feature", "properties": { "strassenschluessel": "05974000003209709", "bezeichnung": "Meister-Stütting-Straße" }, "geometry": { "type": "Point", "coordinates": [ 8.129743464124324, 51.496737431229207 ] } },
{ "type": "Feature", "properties": { "strassenschluessel": "05974000003209710", "bezeichnung": "Seestraße" }, "geometry": { "type": "Point", "coordinates": [ 8.129364686066276, 51.494320285953343 ] } },
{ "type": "Feature", "properties": { "strassenschluessel": "05974000003209711", "bezeichnung": "Poststraße" }, "geometry": { "type": "Point", "coordinates": [ 8.130478739154723, 51.496808004379069 ] } },
{ "type": "Feature", "properties": { "strassenschluessel": "05974000003209712", "bezeichnung": "Tannenweg" }, "geometry": { "type": "Point", "coordinates": [ 8.138810684775848, 51.48379764456967 ] } },
{ "type": "Feature", "properties": { "strassenschluessel": "05974000003209713", "bezeichnung": "Lerchenweg" }, "geometry": { "type": "Point", "coordinates": [ 8.126117521775374, 51.498198839327152 ] } },
{ "type": "Feature", "properties": { "strassenschluessel": "05974000003209714", "bezeichnung": "Sigambrerweg" }, "geometry": { "type": "Point", "coordinates": [ 8.137339784291326, 51.492482621426717 ] } },
{ "type": "Feature", "properties": { "strassenschluessel": "05974000003209715", "bezeichnung": "Südufer" }, "geometry": { "type": "Point", "coordinates": [ 8.143113121471853, 51.48531571336914 ] } },
{ "type": "Feature", "properties": { "strassenschluessel": "05974000003209716", "bezeichnung": "Schnapp`s Hof" }, "geometry": { "type": "Point", "coordinates": [ 8.112800943470262, 51.490280196532588 ] } },
{ "type": "Feature", "properties": { "strassenschluessel": "05974000003209717", "bezeichnung": "Küerbiker Straße" }, "geometry": { "type": "Point", "coordinates": [ 8.130359746557218, 51.49839078676095 ] } },
{ "type": "Feature", "properties": { "strassenschluessel": "05974000003209718", "bezeichnung": "Schützenstraße" }, "geometry": { "type": "Point", "coordinates": [ 8.12853730200826, 51.497838650420803 ] } },
{ "type": "Feature", "properties": { "strassenschluessel": "05974000003209719", "bezeichnung": "Starenweg" }, "geometry": { "type": "Point", "coordinates": [ 8.123584554829758, 51.497776353151018 ] } },
{ "type": "Feature", "properties": { "strassenschluessel": "05974000003209720", "bezeichnung": "Stockumer Weg" }, "geometry": { "type": "Point", "coordinates": [ 8.133527181016724, 51.497630759406462 ] } },
{ "type": "Feature", "properties": { "strassenschluessel": "05974000003209721", "bezeichnung": "Wilhelmsruh" }, "geometry": { "type": "Point", "coordinates": [ 8.136491685953954, 51.462645470107162 ] } },
{ "type": "Feature", "properties": { "strassenschluessel": "05974000003209722", "bezeichnung": "Zepherinusweg" }, "geometry": { "type": "Point", "coordinates": [ 8.132618978475813, 51.497222816134659 ] } },
{ "type": "Feature", "properties": { "strassenschluessel": "05974000003209723", "bezeichnung": "Zum Haunert" }, "geometry": { "type": "Point", "coordinates": [ 8.143993820904287, 51.484775091146986 ] } },
{ "type": "Feature", "properties": { "strassenschluessel": "05974000003209724", "bezeichnung": "Feldgasse" }, "geometry": null },
{ "type": "Feature", "properties": { "strassenschluessel": "05974000003209725", "bezeichnung": "Spring" }, "geometry": null },
{ "type": "Feature", "properties": { "strassenschluessel": "05974000003209726", "bezeichnung": "Schäfers Kamp" }, "geometry": null },
{ "type": "Feature", "properties": { "strassenschluessel": "05974000003209727", "bezeichnung": "Möwenstraße" }, "geometry": { "type": "Point", "coordinates": [ 8.122737610825359, 51.4965517356435 ] } },
{ "type": "Feature", "properties": { "strassenschluessel": "05974000003209728", "bezeichnung": "Meisenstraße" }, "geometry": { "type": "Point", "coordinates": [ 8.122501805780056, 51.495808799568927 ] } },
{ "type": "Feature", "properties": { "strassenschluessel": "05974000003209729", "bezeichnung": "Graf-von-Galen-Straße" }, "geometry": { "type": "Point", "coordinates": [ 8.127067760014972, 51.499756399625369 ] } },
{ "type": "Feature", "properties": { "strassenschluessel": "05974000003209731", "bezeichnung": "Cheruskerweg" }, "geometry": { "type": "Point", "coordinates": [ 8.134757595820034, 51.496304878033797 ] } },
{ "type": "Feature", "properties": { "strassenschluessel": "05974000003209732", "bezeichnung": "Cimbernweg" }, "geometry": { "type": "Point", "coordinates": [ 8.135481189866002, 51.495633703506002 ] } },
{ "type": "Feature", "properties": { "strassenschluessel": "05974000003209733", "bezeichnung": "Gotenweg" }, "geometry": { "type": "Point", "coordinates": [ 8.13465212792187, 51.495057436051944 ] } },
{ "type": "Feature", "properties": { "strassenschluessel": "05974000003209734", "bezeichnung": "Burgunderweg" }, "geometry": { "type": "Point", "coordinates": [ 8.135736877311587, 51.493758991787168 ] } },
{ "type": "Feature", "properties": { "strassenschluessel": "05974000003209735", "bezeichnung": "Bussardweg" }, "geometry": { "type": "Point", "coordinates": [ 8.120361019747165, 51.495241186794551 ] } },
{ "type": "Feature", "properties": { "strassenschluessel": "05974000003209736", "bezeichnung": "Sperberweg" }, "geometry": { "type": "Point", "coordinates": [ 8.120247162741647, 51.495795470191865 ] } },
{ "type": "Feature", "properties": { "strassenschluessel": "05974000003209737", "bezeichnung": "Graureiherweg" }, "geometry": { "type": "Point", "coordinates": [ 8.12044060200509, 51.49723543844631 ] } },
{ "type": "Feature", "properties": { "strassenschluessel": "05974000003209738", "bezeichnung": "Schwalbenstraße" }, "geometry": { "type": "Point", "coordinates": [ 8.12059121295229, 51.496153260212949 ] } },
{ "type": "Feature", "properties": { "strassenschluessel": "05974000003209739", "bezeichnung": "Amboßweg" }, "geometry": { "type": "Point", "coordinates": [ 8.117432051899522, 51.497715642239633 ] } },
{ "type": "Feature", "properties": { "strassenschluessel": "05974000003209740", "bezeichnung": "Kupferweg" }, "geometry": { "type": "Point", "coordinates": [ 8.118724222793091, 51.498791841902275 ] } },
{ "type": "Feature", "properties": { "strassenschluessel": "05974000003209741", "bezeichnung": "Ober der Kluse" }, "geometry": { "type": "Point", "coordinates": [ 8.134153028870916, 51.498938460155649 ] } },
{ "type": "Feature", "properties": { "strassenschluessel": "05974000003209742", "bezeichnung": "Auf'm Steinhaufen" }, "geometry": { "type": "Point", "coordinates": [ 8.135961178114592, 51.499497426236211 ] } },
{ "type": "Feature", "properties": { "strassenschluessel": "05974000003209743", "bezeichnung": "Naorichters Hof" }, "geometry": { "type": "Point", "coordinates": [ 8.130130852968518, 51.49526931824095 ] } },
{ "type": "Feature", "properties": { "strassenschluessel": "05974000003209744", "bezeichnung": "Joseph-Joos-Weg" }, "geometry": { "type": "Point", "coordinates": [ 8.126509066335451, 51.483304614707748 ] } },
{ "type": "Feature", "properties": { "strassenschluessel": "05974000003209745", "bezeichnung": "Fichtenweg" }, "geometry": { "type": "Point", "coordinates": [ 8.146464586435108, 51.48620485717499 ] } },
{ "type": "Feature", "properties": { "strassenschluessel": "05974000003209746", "bezeichnung": "Kiefernweg" }, "geometry": { "type": "Point", "coordinates": [ 8.148138101787456, 51.486168935866445 ] } },
{ "type": "Feature", "properties": { "strassenschluessel": "05974000003209747", "bezeichnung": "Eschenweg" }, "geometry": { "type": "Point", "coordinates": [ 8.144234683407527, 51.485305127505789 ] } },
{ "type": "Feature", "properties": { "strassenschluessel": "05974000003209748", "bezeichnung": "Holunderweg" }, "geometry": { "type": "Point", "coordinates": [ 8.136262683946649, 51.483552910610342 ] } },
{ "type": "Feature", "properties": { "strassenschluessel": "05974000003209749", "bezeichnung": "Aldegreverweg" }, "geometry": { "type": "Point", "coordinates": [ 8.125914095881647, 51.482468144055133 ] } },
{ "type": "Feature", "properties": { "strassenschluessel": "05974000003209750", "bezeichnung": "Buchenweg" }, "geometry": { "type": "Point", "coordinates": [ 8.122349438720418, 51.483721800552402 ] } },
{ "type": "Feature", "properties": { "strassenschluessel": "05974000003209751", "bezeichnung": "Neuhäuser Kirchweg" }, "geometry": { "type": "Point", "coordinates": [ 8.130619621927613, 51.483271450969255 ] } },
{ "type": "Feature", "properties": { "strassenschluessel": "05974000003209752", "bezeichnung": "Wiersweg" }, "geometry": { "type": "Point", "coordinates": [ 8.128193249345308, 51.496385977304016 ] } },
{ "type": "Feature", "properties": { "strassenschluessel": "05974000003209753", "bezeichnung": "Pastors Berge" }, "geometry": { "type": "Point", "coordinates": [ 8.137168416405478, 51.500883242587577 ] } },
{ "type": "Feature", "properties": { "strassenschluessel": "05974000003209754", "bezeichnung": "Claudiusweg" }, "geometry": { "type": "Point", "coordinates": [ 8.134270240919642, 51.501350311973994 ] } },
{ "type": "Feature", "properties": { "strassenschluessel": "05974000003209755", "bezeichnung": "Grimmweg" }, "geometry": { "type": "Point", "coordinates": [ 8.134512792356224, 51.499891376611529 ] } },
{ "type": "Feature", "properties": { "strassenschluessel": "05974000003209756", "bezeichnung": "Hoffmannweg" }, "geometry": { "type": "Point", "coordinates": [ 8.135932603188213, 51.500535355133529 ] } },
{ "type": "Feature", "properties": { "strassenschluessel": "05974000003209757", "bezeichnung": "Hebelweg" }, "geometry": { "type": "Point", "coordinates": [ 8.138139403717412, 51.500877226220233 ] } },
{ "type": "Feature", "properties": { "strassenschluessel": "05974000003209758", "bezeichnung": "Schnappweg" }, "geometry": { "type": "Point", "coordinates": [ 8.117371996681479, 51.492475827712461 ] } },
{ "type": "Feature", "properties": { "strassenschluessel": "05974000003209759", "bezeichnung": "Stormweg" }, "geometry": { "type": "Point", "coordinates": [ 8.132114644207279, 51.499786074442099 ] } },
{ "type": "Feature", "properties": { "strassenschluessel": "05974000003209760", "bezeichnung": "Fontaneweg" }, "geometry": { "type": "Point", "coordinates": [ 8.133995625276725, 51.500847711503447 ] } },
{ "type": "Feature", "properties": { "strassenschluessel": "05974000003209761", "bezeichnung": "Normannenweg" }, "geometry": { "type": "Point", "coordinates": [ 8.139216454522797, 51.496643845160897 ] } },
{ "type": "Feature", "properties": { "strassenschluessel": "05974000003209762", "bezeichnung": "Teutonenweg" }, "geometry": { "type": "Point", "coordinates": [ 8.137209028060571, 51.496024817464587 ] } },
{ "type": "Feature", "properties": { "strassenschluessel": "05974000003209763", "bezeichnung": "Alois-Schoppe-Weg" }, "geometry": { "type": "Point", "coordinates": [ 8.132933545006502, 51.498680724803442 ] } },
{ "type": "Feature", "properties": { "strassenschluessel": "05974000003209764", "bezeichnung": "Frankenweg" }, "geometry": { "type": "Point", "coordinates": [ 8.136563759432613, 51.497119354233412 ] } },
{ "type": "Feature", "properties": { "strassenschluessel": "05974000003209765", "bezeichnung": "Sommerfeld" }, "geometry": { "type": "Point", "coordinates": [ 8.122139403096224, 51.493763821929662 ] } },
{ "type": "Feature", "properties": { "strassenschluessel": "05974000003209766", "bezeichnung": "Griesenbrink" }, "geometry": { "type": "Point", "coordinates": [ 8.122844175333666, 51.500331613278298 ] } },
{ "type": "Feature", "properties": { "strassenschluessel": "05974000003209767", "bezeichnung": "Rilkeweg" }, "geometry": { "type": "Point", "coordinates": [ 8.140832986072155, 51.499104612565034 ] } },
{ "type": "Feature", "properties": { "strassenschluessel": "05974000003209768", "bezeichnung": "Seepark" }, "geometry": { "type": "Point", "coordinates": [ 8.127759930980917, 51.491954444154096 ] } },
{ "type": "Feature", "properties": { "strassenschluessel": "05974000003209769", "bezeichnung": "Anton-Brune-Weg" }, "geometry": { "type": "Point", "coordinates": [ 8.118596664971223, 51.49477827928051 ] } },
{ "type": "Feature", "properties": { "strassenschluessel": "05974000003209800", "bezeichnung": "Biberstraße" }, "geometry": { "type": "Point", "coordinates": [ 8.162149436446802, 51.495708171581612 ] } },
{ "type": "Feature", "properties": { "strassenschluessel": "05974000003209801", "bezeichnung": "Dome" }, "geometry": { "type": "Point", "coordinates": [ 8.157351030172688, 51.496820476137138 ] } },
{ "type": "Feature", "properties": { "strassenschluessel": "05974000003209802", "bezeichnung": "Forststraße" }, "geometry": { "type": "Point", "coordinates": [ 8.162406035579151, 51.484791708447247 ] } },
{ "type": "Feature", "properties": { "strassenschluessel": "05974000003209803", "bezeichnung": "Kalkofen" }, "geometry": { "type": "Point", "coordinates": [ 8.15686900331411, 51.49747345139113 ] } },
{ "type": "Feature", "properties": { "strassenschluessel": "05974000003209804", "bezeichnung": "Mestefeld" }, "geometry": { "type": "Point", "coordinates": [ 8.156857376853933, 51.494309018934786 ] } },
{ "type": "Feature", "properties": { "strassenschluessel": "05974000003209805", "bezeichnung": "Neuhaus" }, "geometry": { "type": "Point", "coordinates": [ 8.146258666208162, 51.457212809652738 ] } },
{ "type": "Feature", "properties": { "strassenschluessel": "05974000003209806", "bezeichnung": "Saatgarten" }, "geometry": { "type": "Point", "coordinates": [ 8.160325645389301, 51.497539719453357 ] } },
{ "type": "Feature", "properties": { "strassenschluessel": "05974000003209807", "bezeichnung": "Seeuferstraße" }, "geometry": { "type": "Point", "coordinates": [ 8.162131919497289, 51.492034177457995 ] } },
{ "type": "Feature", "properties": { "strassenschluessel": "05974000003209808", "bezeichnung": "Sonnenhügel" }, "geometry": { "type": "Point", "coordinates": [ 8.157796308982126, 51.499798102864489 ] } },
{ "type": "Feature", "properties": { "strassenschluessel": "05974000003209809", "bezeichnung": "Vietsfeld" }, "geometry": { "type": "Point", "coordinates": [ 8.15825834051736, 51.498215851616997 ] } },
{ "type": "Feature", "properties": { "strassenschluessel": "05974000003209810", "bezeichnung": "Weiße Ecke" }, "geometry": { "type": "Point", "coordinates": [ 8.159345118141689, 51.495405137413442 ] } },
{ "type": "Feature", "properties": { "strassenschluessel": "05974000003209811", "bezeichnung": "Wenne" }, "geometry": { "type": "Point", "coordinates": [ 8.161420432817859, 51.495882980444968 ] } },
{ "type": "Feature", "properties": { "strassenschluessel": "05974000003209812", "bezeichnung": "Stockumer Eichen" }, "geometry": { "type": "Point", "coordinates": [ 8.150019840550719, 51.48615580196364 ] } },
{ "type": "Feature", "properties": { "strassenschluessel": "05974000003209813", "bezeichnung": "Schlehenstraße" }, "geometry": { "type": "Point", "coordinates": [ 8.161386877244611, 51.497184747736952 ] } },
{ "type": "Feature", "properties": { "strassenschluessel": "05974000003209814", "bezeichnung": "Weidenstraße" }, "geometry": { "type": "Point", "coordinates": [ 8.158567619778852, 51.497283114970031 ] } },
{ "type": "Feature", "properties": { "strassenschluessel": "05974000003209815", "bezeichnung": "Am Ohlenberge" }, "geometry": { "type": "Point", "coordinates": [ 8.158746801110151, 51.49474624229191 ] } },
{ "type": "Feature", "properties": { "strassenschluessel": "05974000003209816", "bezeichnung": "Auf der Wiese" }, "geometry": { "type": "Point", "coordinates": [ 8.159067282009998, 51.494396721405366 ] } },
{ "type": "Feature", "properties": { "strassenschluessel": "05974000003209817", "bezeichnung": "Breite Kamp" }, "geometry": { "type": "Point", "coordinates": [ 8.158455894479848, 51.492780735111928 ] } },
{ "type": "Feature", "properties": { "strassenschluessel": "05974000003209818", "bezeichnung": "Franz-Stock-Straße" }, "geometry": { "type": "Point", "coordinates": [ 8.158278050770198, 51.494294342541892 ] } },
{ "type": "Feature", "properties": { "strassenschluessel": "05974000003209819", "bezeichnung": "Lange Wiese" }, "geometry": { "type": "Point", "coordinates": [ 8.158596250561217, 51.493821499875416 ] } },
{ "type": "Feature", "properties": { "strassenschluessel": "05974000003209820", "bezeichnung": "Unterm Berg" }, "geometry": { "type": "Point", "coordinates": [ 8.158762611747564, 51.493327020726532 ] } },
{ "type": "Feature", "properties": { "strassenschluessel": "05974000003209821", "bezeichnung": "Gutenbergweg" }, "geometry": { "type": "Point", "coordinates": [ 8.155845264519398, 51.504443693207392 ] } },
{ "type": "Feature", "properties": { "strassenschluessel": "05974000003209822", "bezeichnung": "Zeissweg" }, "geometry": { "type": "Point", "coordinates": [ 8.156390283056284, 51.504056977513983 ] } },
{ "type": "Feature", "properties": { "strassenschluessel": "05974000003209823", "bezeichnung": "Siemensweg" }, "geometry": { "type": "Point", "coordinates": [ 8.156318292291468, 51.501684016783678 ] } },
{ "type": "Feature", "properties": { "strassenschluessel": "05974000003209824", "bezeichnung": "Haarholz" }, "geometry": { "type": "Point", "coordinates": [ 8.15926744942956, 51.497776549154317 ] } },
{ "type": "Feature", "properties": { "strassenschluessel": "05974000003209825", "bezeichnung": "Bischofshaar" }, "geometry": { "type": "Point", "coordinates": [ 8.160227551082986, 51.498165414192414 ] } },
{ "type": "Feature", "properties": { "strassenschluessel": "05974000003209826", "bezeichnung": "Rottland" }, "geometry": { "type": "Point", "coordinates": [ 8.160569565168107, 51.498177555778909 ] } },
{ "type": "Feature", "properties": { "strassenschluessel": "05974000003209830", "bezeichnung": "Dunkle Straße" }, "geometry": { "type": "Point", "coordinates": [ 8.070886135085599, 51.508175702923381 ] } },
{ "type": "Feature", "properties": { "strassenschluessel": "05974000003209831", "bezeichnung": "Espenweg" }, "geometry": { "type": "Point", "coordinates": [ 8.073000495332641, 51.508458315619393 ] } },
{ "type": "Feature", "properties": { "strassenschluessel": "05974000003209832", "bezeichnung": "St.-Agatha-Weg" }, "geometry": { "type": "Point", "coordinates": [ 8.070184124731918, 51.508136986737199 ] } },
{ "type": "Feature", "properties": { "strassenschluessel": "05974000003209833", "bezeichnung": "Thingstraße" }, "geometry": { "type": "Point", "coordinates": [ 8.073743504482721, 51.514393375947662 ] } },
{ "type": "Feature", "properties": { "strassenschluessel": "05974000003209834", "bezeichnung": "Westdahlweg" }, "geometry": { "type": "Point", "coordinates": [ 8.066146020620824, 51.508009870777151 ] } },
{ "type": "Feature", "properties": { "strassenschluessel": "05974000003209835", "bezeichnung": "Wierlauker Weg" }, "geometry": { "type": "Point", "coordinates": [ 8.064250165402681, 51.524354791850023 ] } },
{ "type": "Feature", "properties": { "strassenschluessel": "05974000003209840", "bezeichnung": "Am Heidberg" }, "geometry": { "type": "Point", "coordinates": [ 8.202411730799598, 51.478009200220967 ] } },
{ "type": "Feature", "properties": { "strassenschluessel": "05974000003209841", "bezeichnung": "An den Eichen" }, "geometry": { "type": "Point", "coordinates": [ 8.202273215979117, 51.479812844511237 ] } },
{ "type": "Feature", "properties": { "strassenschluessel": "05974000003209842", "bezeichnung": "Zum Wildpark" }, "geometry": { "type": "Point", "coordinates": [ 8.192459931763539, 51.472004237739121 ] } },
{ "type": "Feature", "properties": { "strassenschluessel": "05974000003209843", "bezeichnung": "Balsufer" }, "geometry": { "type": "Point", "coordinates": [ 8.19760335150543, 51.478169321093951 ] } },
{ "type": "Feature", "properties": { "strassenschluessel": "05974000003209844", "bezeichnung": "Frankenufer" }, "geometry": { "type": "Point", "coordinates": [ 8.196797908674702, 51.489314913716953 ] } },
{ "type": "Feature", "properties": { "strassenschluessel": "05974000003209845", "bezeichnung": "Hambuchweg" }, "geometry": { "type": "Point", "coordinates": [ 8.207805826963094, 51.483103347828447 ] } },
{ "type": "Feature", "properties": { "strassenschluessel": "05974000003209846", "bezeichnung": "Hinkeldei" }, "geometry": { "type": "Point", "coordinates": [ 8.202918790700069, 51.480390327270321 ] } },
{ "type": "Feature", "properties": { "strassenschluessel": "05974000003209847", "bezeichnung": "Im Möhnetal" }, "geometry": { "type": "Point", "coordinates": [ 8.197258507397956, 51.477423263116449 ] } },
{ "type": "Feature", "properties": { "strassenschluessel": "05974000003209848", "bezeichnung": "Kammerherrnweg" }, "geometry": { "type": "Point", "coordinates": [ 8.196972526194015, 51.481196038763429 ] } },
{ "type": "Feature", "properties": { "strassenschluessel": "05974000003209849", "bezeichnung": "Mülhöfe" }, "geometry": { "type": "Point", "coordinates": [ 8.204442050379184, 51.477938170244265 ] } },
{ "type": "Feature", "properties": { "strassenschluessel": "05974000003209850", "bezeichnung": "Pferdekamp" }, "geometry": { "type": "Point", "coordinates": [ 8.188791575269606, 51.475395776834041 ] } },
{ "type": "Feature", "properties": { "strassenschluessel": "05974000003209851", "bezeichnung": "Möhneufer" }, "geometry": { "type": "Point", "coordinates": [ 8.183758606312091, 51.47757505308563 ] } },
{ "type": "Feature", "properties": { "strassenschluessel": "05974000003209852", "bezeichnung": "Syringer Straße" }, "geometry": { "type": "Point", "coordinates": [ 8.202801039159137, 51.498937827707394 ] } },
{ "type": "Feature", "properties": { "strassenschluessel": "05974000003209853", "bezeichnung": "Schulweg" }, "geometry": { "type": "Point", "coordinates": [ 8.20039847260613, 51.48074232574853 ] } },
{ "type": "Feature", "properties": { "strassenschluessel": "05974000003209854", "bezeichnung": "Twersweg" }, "geometry": { "type": "Point", "coordinates": [ 8.202981297867595, 51.479731426150543 ] } },
{ "type": "Feature", "properties": { "strassenschluessel": "05974000003209855", "bezeichnung": "Zum Löwerholz" }, "geometry": { "type": "Point", "coordinates": [ 8.198291163707284, 51.480938233437556 ] } },
{ "type": "Feature", "properties": { "strassenschluessel": "05974000003209856", "bezeichnung": "Zum Zehnthof" }, "geometry": { "type": "Point", "coordinates": [ 8.201192288056642, 51.482119754469927 ] } },
{ "type": "Feature", "properties": { "strassenschluessel": "05974000003209857", "bezeichnung": "Engelslieth" }, "geometry": { "type": "Point", "coordinates": [ 8.193115857841818, 51.47270324766717 ] } },
{ "type": "Feature", "properties": { "strassenschluessel": "05974000003209858", "bezeichnung": "Rißmecke" }, "geometry": { "type": "Point", "coordinates": [ 8.186266913377132, 51.459147166994057 ] } },
{ "type": "Feature", "properties": { "strassenschluessel": "05974000003209859", "bezeichnung": "Kettelbötel" }, "geometry": { "type": "Point", "coordinates": [ 8.18740833915791, 51.478502437548215 ] } },
{ "type": "Feature", "properties": { "strassenschluessel": "05974000003209860", "bezeichnung": "Luerwald" }, "geometry": { "type": "Point", "coordinates": [ 8.18787778979414, 51.475622874585184 ] } },
{ "type": "Feature", "properties": { "strassenschluessel": "05974000003209861", "bezeichnung": "Fißmeckeweg" }, "geometry": { "type": "Point", "coordinates": [ 8.184823872088371, 51.474389442026528 ] } },
{ "type": "Feature", "properties": { "strassenschluessel": "05974000003209862", "bezeichnung": "Fillenkamp" }, "geometry": { "type": "Point", "coordinates": [ 8.195994683465225, 51.479012008680812 ] } },
{ "type": "Feature", "properties": { "strassenschluessel": "05974000003209863", "bezeichnung": "Wiesengrund" }, "geometry": { "type": "Point", "coordinates": [ 8.19267603289283, 51.475442266858998 ] } },
{ "type": "Feature", "properties": { "strassenschluessel": "05974000003209864", "bezeichnung": "Auf den Steinern" }, "geometry": { "type": "Point", "coordinates": [ 8.203676581021638, 51.481992158089376 ] } },
{ "type": "Feature", "properties": { "strassenschluessel": "05974000003209900", "bezeichnung": "Aldegreversiedlung" }, "geometry": { "type": "Point", "coordinates": [ 8.175540428243666, 51.488367588809766 ] } },
{ "type": "Feature", "properties": { "strassenschluessel": "05974000003209901", "bezeichnung": "Am Berghof" }, "geometry": { "type": "Point", "coordinates": [ 8.170673700585677, 51.491807343886173 ] } },
{ "type": "Feature", "properties": { "strassenschluessel": "05974000003209902", "bezeichnung": "Bahnhofstraße" }, "geometry": { "type": "Point", "coordinates": [ 8.171410841166209, 51.487963350374017 ] } },
{ "type": "Feature", "properties": { "strassenschluessel": "05974000003209903", "bezeichnung": "Hermann-Kätelhön-Straße" }, "geometry": { "type": "Point", "coordinates": [ 8.189270183229786, 51.49480397081895 ] } },
{ "type": "Feature", "properties": { "strassenschluessel": "05974000003209904", "bezeichnung": "Kehlberg" }, "geometry": { "type": "Point", "coordinates": [ 8.192219745028957, 51.494954840169399 ] } },
{ "type": "Feature", "properties": { "strassenschluessel": "05974000003209905", "bezeichnung": "Quellenhang" }, "geometry": { "type": "Point", "coordinates": [ 8.190197153522302, 51.493112705799746 ] } },
{ "type": "Feature", "properties": { "strassenschluessel": "05974000003209906", "bezeichnung": "Talstraße" }, "geometry": { "type": "Point", "coordinates": [ 8.187019764423363, 51.494241989312542 ] } },
{ "type": "Feature", "properties": { "strassenschluessel": "05974000003209907", "bezeichnung": "Triftweg" }, "geometry": { "type": "Point", "coordinates": [ 8.187968642805632, 51.493531752293158 ] } },
{ "type": "Feature", "properties": { "strassenschluessel": "05974000003209908", "bezeichnung": "Wameler Bach" }, "geometry": { "type": "Point", "coordinates": [ 8.188856449869489, 51.493787844646747 ] } },
{ "type": "Feature", "properties": { "strassenschluessel": "05974000003209909", "bezeichnung": "Wameler Berg" }, "geometry": { "type": "Point", "coordinates": [ 8.193995921455189, 51.493375082340968 ] } },
{ "type": "Feature", "properties": { "strassenschluessel": "05974000003209910", "bezeichnung": "Westenberg" }, "geometry": { "type": "Point", "coordinates": [ 8.177934904700759, 51.486679603574295 ] } },
{ "type": "Feature", "properties": { "strassenschluessel": "05974000003209911", "bezeichnung": "Wienebusch" }, "geometry": { "type": "Point", "coordinates": [ 8.174751950457489, 51.491260365278336 ] } },
{ "type": "Feature", "properties": { "strassenschluessel": "05974000003209912", "bezeichnung": "Zum Blomenhof" }, "geometry": { "type": "Point", "coordinates": [ 8.182860755721647, 51.480992841256082 ] } },
{ "type": "Feature", "properties": { "strassenschluessel": "05974000003209913", "bezeichnung": "Am Fischteich" }, "geometry": { "type": "Point", "coordinates": [ 8.173455167855989, 51.490553350130625 ] } },
{ "type": "Feature", "properties": { "strassenschluessel": "05974000003209914", "bezeichnung": "Wickenkamp" }, "geometry": { "type": "Point", "coordinates": [ 8.177597175817615, 51.490350097754757 ] } },
{ "type": "Feature", "properties": { "strassenschluessel": "05974000003209915", "bezeichnung": "Schulpatt" }, "geometry": { "type": "Point", "coordinates": [ 8.188757233466214, 51.492500519704024 ] } },
{ "type": "Feature", "properties": { "strassenschluessel": "05974000003209930", "bezeichnung": "Kirchweg" }, "geometry": { "type": "Point", "coordinates": [ 8.074436719836294, 51.49685563430306 ] } },
{ "type": "Feature", "properties": { "strassenschluessel": "05974000003209931", "bezeichnung": "Stemmweg" }, "geometry": { "type": "Point", "coordinates": [ 8.076425338309773, 51.500262595314538 ] } },
{ "type": "Feature", "properties": { "strassenschluessel": "05974000003209932", "bezeichnung": "Golfweg" }, "geometry": null },
{ "type": "Feature", "properties": { "strassenschluessel": "05974000003209933", "bezeichnung": "Tennisweg" }, "geometry": null },
{ "type": "Feature", "properties": { "strassenschluessel": "05974000003209934", "bezeichnung": "Ruderweg" }, "geometry": { "type": "Point", "coordinates": [ 8.071551292624209, 51.494932270677872 ] } },
{ "type": "Feature", "properties": { "strassenschluessel": "05974000003209935", "bezeichnung": "Turfweg" }, "geometry": { "type": "Point", "coordinates": [ 8.071952646472242, 51.495700243697797 ] } },
{ "type": "Feature", "properties": { "strassenschluessel": "05974000003209936", "bezeichnung": "Rodelweg" }, "geometry": { "type": "Point", "coordinates": [ 8.071042136440349, 51.49607021390289 ] } },
{ "type": "Feature", "properties": { "strassenschluessel": "05974000003209950", "bezeichnung": "Bundesstraße" }, "geometry": { "type": "Point", "coordinates": [ 8.089896909366505, 51.517787276778918 ] } },
{ "type": "Feature", "properties": { "strassenschluessel": "05974000003209951", "bezeichnung": "Delecker Weg" }, "geometry": { "type": "Point", "coordinates": [ 8.085934792248429, 51.507297708748119 ] } },
{ "type": "Feature", "properties": { "strassenschluessel": "05974000003209952", "bezeichnung": "Dorfstraße" }, "geometry": { "type": "Point", "coordinates": [ 8.088389187627721, 51.518229357727158 ] } },
{ "type": "Feature", "properties": { "strassenschluessel": "05974000003209953", "bezeichnung": "Femeweg" }, "geometry": { "type": "Point", "coordinates": [ 8.092607663865909, 51.51751869049663 ] } },
{ "type": "Feature", "properties": { "strassenschluessel": "05974000003209954", "bezeichnung": "Milchweg" }, "geometry": { "type": "Point", "coordinates": [ 8.088064691973344, 51.510621767412751 ] } },
{ "type": "Feature", "properties": { "strassenschluessel": "05974000003209955", "bezeichnung": "Wippringser Heide" }, "geometry": { "type": "Point", "coordinates": [ 8.084993247881979, 51.530305972631623 ] } },
{ "type": "Feature", "properties": { "strassenschluessel": "05974000003209956", "bezeichnung": "Paradieser Weg" }, "geometry": { "type": "Point", "coordinates": [ 8.085816509133437, 51.510051432350849 ] } },
{ "type": "Feature", "properties": { "strassenschluessel": "05974000003209957", "bezeichnung": "Am Bismarckturm" }, "geometry": { "type": "Point", "coordinates": [ 8.085753162503234, 51.508549684234687 ] } },
{ "type": "Feature", "properties": { "strassenschluessel": "05974000003209958", "bezeichnung": "An der Haar" }, "geometry": { "type": "Point", "coordinates": [ 8.090853346845597, 51.510092791361878 ] } },
{ "type": "Feature", "properties": { "strassenschluessel": "05974000003209959", "bezeichnung": "Waldemei" }, "geometry": { "type": "Point", "coordinates": [ 8.087270078945904, 51.510343337272054 ] } },
{ "type": "Feature", "properties": { "strassenschluessel": "05974000003209960", "bezeichnung": "Spitälerholz" }, "geometry": { "type": "Point", "coordinates": [ 8.081632917755538, 51.505361628736189 ] } },
{ "type": "Feature", "properties": { "strassenschluessel": "05974000003291710", "bezeichnung": "Berlingsen" }, "geometry": { "type": "Point", "coordinates": [ 8.156918266700293, 51.50493870167211 ] } },
{ "type": "Feature", "properties": { "strassenschluessel": "05974000003291715", "bezeichnung": "Brüllingsen" }, "geometry": null },
{ "type": "Feature", "properties": { "strassenschluessel": "05974000003291716", "bezeichnung": "Büecke" }, "geometry": { "type": "Point", "coordinates": [ 8.107283222990675, 51.516984257678601 ] } },
{ "type": "Feature", "properties": { "strassenschluessel": "05974000003291717", "bezeichnung": "Delecke" }, "geometry": null },
{ "type": "Feature", "properties": { "strassenschluessel": "05974000003291718", "bezeichnung": "Echtrop" }, "geometry": null },
{ "type": "Feature", "properties": { "strassenschluessel": "05974000003291719", "bezeichnung": "Ellingsen" }, "geometry": { "type": "Point", "coordinates": [ 8.206028883616632, 51.50545927827153 ] } },
{ "type": "Feature", "properties": { "strassenschluessel": "05974000003291721", "bezeichnung": "Günne" }, "geometry": { "type": "Point", "coordinates": [ 8.051546682310413, 51.480552327027993 ] } },
{ "type": "Feature", "properties": { "strassenschluessel": "05974000003291722", "bezeichnung": "Hewingsen" }, "geometry": null },
{ "type": "Feature", "properties": { "strassenschluessel": "05974000003291727", "bezeichnung": "Körbecke" }, "geometry": null },
{ "type": "Feature", "properties": { "strassenschluessel": "05974000003291734", "bezeichnung": "Stockum" }, "geometry": null },
{ "type": "Feature", "properties": { "strassenschluessel": "05974000003291735", "bezeichnung": "Theiningsen" }, "geometry": null },
{ "type": "Feature", "properties": { "strassenschluessel": "05974000003291737", "bezeichnung": "Völlinghausen" }, "geometry": null },
{ "type": "Feature", "properties": { "strassenschluessel": "05974000003291739", "bezeichnung": "Wamel" }, "geometry": { "type": "Point", "coordinates": [ 8.180825134958745, 51.479109192475825 ] } },
{ "type": "Feature", "properties": { "strassenschluessel": "05974000003291740", "bezeichnung": "Westrich" }, "geometry": null },
{ "type": "Feature", "properties": { "strassenschluessel": "05974000003291741", "bezeichnung": "Wippringsen" }, "geometry": null }
]
}
