{
"type": "FeatureCollection",
"features": [
{ "type": "Feature", "properties": { "strassenschluessel": "05970000003207000", "bezeichnung": "Afferbachstraße" }, "geometry": { "type": "Point", "coordinates": [ 8.139479352838038, 50.943209767871622 ] } },
{ "type": "Feature", "properties": { "strassenschluessel": "05970000003207001", "bezeichnung": "Alterbachstraße" }, "geometry": { "type": "Point", "coordinates": [ 8.136011639278216, 50.943142446391462 ] } },
{ "type": "Feature", "properties": { "strassenschluessel": "05970000003207002", "bezeichnung": "Am Brünkel" }, "geometry": { "type": "Point", "coordinates": [ 8.141788591771489, 50.943354063031421 ] } },
{ "type": "Feature", "properties": { "strassenschluessel": "05970000003207003", "bezeichnung": "An der Wende" }, "geometry": { "type": "Point", "coordinates": [ 8.139132227721293, 50.943057002831672 ] } },
{ "type": "Feature", "properties": { "strassenschluessel": "05970000003207005", "bezeichnung": "Erndtebrücker Straße" }, "geometry": { "type": "Point", "coordinates": [ 8.137946330955643, 50.942942157785197 ] } },
{ "type": "Feature", "properties": { "strassenschluessel": "05970000003207006", "bezeichnung": "Hübener Straße" }, "geometry": { "type": "Point", "coordinates": [ 8.141224162981329, 50.944512196423418 ] } },
{ "type": "Feature", "properties": { "strassenschluessel": "05970000003207007", "bezeichnung": "Im alten Garten" }, "geometry": null },
{ "type": "Feature", "properties": { "strassenschluessel": "05970000003207008", "bezeichnung": "Im Eck" }, "geometry": { "type": "Point", "coordinates": [ 8.138497792113101, 50.942975004210183 ] } },
{ "type": "Feature", "properties": { "strassenschluessel": "05970000003207009", "bezeichnung": "In der Delle" }, "geometry": { "type": "Point", "coordinates": [ 8.135172934244395, 50.94273746167692 ] } },
{ "type": "Feature", "properties": { "strassenschluessel": "05970000003207010", "bezeichnung": "Sohlbacher Straße" }, "geometry": { "type": "Point", "coordinates": [ 8.140460516997047, 50.944916191089249 ] } },
{ "type": "Feature", "properties": { "strassenschluessel": "05970000003207012", "bezeichnung": "Zur alten Mühle" }, "geometry": { "type": "Point", "coordinates": [ 8.142127371023394, 50.946685512942274 ] } },
{ "type": "Feature", "properties": { "strassenschluessel": "05970000003207031", "bezeichnung": "Am Wurmel" }, "geometry": { "type": "Point", "coordinates": [ 8.142053444512252, 50.90056229284037 ] } },
{ "type": "Feature", "properties": { "strassenschluessel": "05970000003207032", "bezeichnung": "Auf dem alten Hof" }, "geometry": { "type": "Point", "coordinates": [ 8.138851812834533, 50.900326317935573 ] } },
{ "type": "Feature", "properties": { "strassenschluessel": "05970000003207033", "bezeichnung": "Auf dem Stück" }, "geometry": { "type": "Point", "coordinates": [ 8.138805592872009, 50.899687321930095 ] } },
{ "type": "Feature", "properties": { "strassenschluessel": "05970000003207034", "bezeichnung": "Auf der Höh" }, "geometry": { "type": "Point", "coordinates": [ 8.139745681644607, 50.897708323022925 ] } },
{ "type": "Feature", "properties": { "strassenschluessel": "05970000003207035", "bezeichnung": "Gösbergstraße" }, "geometry": { "type": "Point", "coordinates": [ 8.139030577149546, 50.900647566454957 ] } },
{ "type": "Feature", "properties": { "strassenschluessel": "05970000003207036", "bezeichnung": "Im Dreieck" }, "geometry": { "type": "Point", "coordinates": [ 8.141404853431723, 50.900698029018493 ] } },
{ "type": "Feature", "properties": { "strassenschluessel": "05970000003207037", "bezeichnung": "Im Kalten Born" }, "geometry": { "type": "Point", "coordinates": [ 8.144210739794875, 50.902996269892284 ] } },
{ "type": "Feature", "properties": { "strassenschluessel": "05970000003207038", "bezeichnung": "Im Kesselgarten" }, "geometry": { "type": "Point", "coordinates": [ 8.138542603827322, 50.899022364807365 ] } },
{ "type": "Feature", "properties": { "strassenschluessel": "05970000003207039", "bezeichnung": "Theodor-Noa-Straße" }, "geometry": { "type": "Point", "coordinates": [ 8.145736220972054, 50.903091066750861 ] } },
{ "type": "Feature", "properties": { "strassenschluessel": "05970000003207040", "bezeichnung": "Ringstraße" }, "geometry": { "type": "Point", "coordinates": [ 8.140479372241964, 50.898988447604481 ] } },
{ "type": "Feature", "properties": { "strassenschluessel": "05970000003207041", "bezeichnung": "Schnellenbergstraße" }, "geometry": { "type": "Point", "coordinates": [ 8.14136103634169, 50.899861523640404 ] } },
{ "type": "Feature", "properties": { "strassenschluessel": "05970000003207042", "bezeichnung": "Im Grummetshof" }, "geometry": { "type": "Point", "coordinates": [ 8.138829997325528, 50.898495381032212 ] } },
{ "type": "Feature", "properties": { "strassenschluessel": "05970000003207061", "bezeichnung": "Am Hang" }, "geometry": { "type": "Point", "coordinates": [ 8.132458386507977, 50.919075856009059 ] } },
{ "type": "Feature", "properties": { "strassenschluessel": "05970000003207062", "bezeichnung": "Am Hügel" }, "geometry": { "type": "Point", "coordinates": [ 8.140965009734778, 50.918938939594796 ] } },
{ "type": "Feature", "properties": { "strassenschluessel": "05970000003207063", "bezeichnung": "An der Ecke" }, "geometry": { "type": "Point", "coordinates": [ 8.135185836195301, 50.919571405690618 ] } },
{ "type": "Feature", "properties": { "strassenschluessel": "05970000003207064", "bezeichnung": "Auf dem Boden" }, "geometry": { "type": "Point", "coordinates": [ 8.136059888806409, 50.919571815122879 ] } },
{ "type": "Feature", "properties": { "strassenschluessel": "05970000003207065", "bezeichnung": "Auf dem Garten" }, "geometry": { "type": "Point", "coordinates": [ 8.132598066180796, 50.918019848753929 ] } },
{ "type": "Feature", "properties": { "strassenschluessel": "05970000003207066", "bezeichnung": "Forsthaus Hohenroth" }, "geometry": { "type": "Point", "coordinates": [ 8.190885449011468, 50.930480986009393 ] } },
{ "type": "Feature", "properties": { "strassenschluessel": "05970000003207067", "bezeichnung": "Im Weißdorn" }, "geometry": { "type": "Point", "coordinates": [ 8.131641169814595, 50.914213863308355 ] } },
{ "type": "Feature", "properties": { "strassenschluessel": "05970000003207068", "bezeichnung": "In der Feldbach" }, "geometry": { "type": "Point", "coordinates": [ 8.139117383254007, 50.920053752077202 ] } },
{ "type": "Feature", "properties": { "strassenschluessel": "05970000003207069", "bezeichnung": "In der Trubach" }, "geometry": { "type": "Point", "coordinates": [ 8.13301119770543, 50.914115698928676 ] } },
{ "type": "Feature", "properties": { "strassenschluessel": "05970000003207071", "bezeichnung": "Mittelweg" }, "geometry": { "type": "Point", "coordinates": [ 8.1320847153183, 50.917801302964634 ] } },
{ "type": "Feature", "properties": { "strassenschluessel": "05970000003207072", "bezeichnung": "Netphener Weg" }, "geometry": { "type": "Point", "coordinates": [ 8.130431487687149, 50.913476754471795 ] } },
{ "type": "Feature", "properties": { "strassenschluessel": "05970000003207073", "bezeichnung": "Obernauer Weg" }, "geometry": { "type": "Point", "coordinates": [ 8.130658992859043, 50.917541477753296 ] } },
{ "type": "Feature", "properties": { "strassenschluessel": "05970000003207074", "bezeichnung": "Unter den Linden" }, "geometry": { "type": "Point", "coordinates": [ 8.129380061715629, 50.916368148821149 ] } },
{ "type": "Feature", "properties": { "strassenschluessel": "05970000003207075", "bezeichnung": "Zur Busenbach" }, "geometry": null },
{ "type": "Feature", "properties": { "strassenschluessel": "05970000003207076", "bezeichnung": "Zur Talsperre" }, "geometry": { "type": "Point", "coordinates": [ 8.131430665385013, 50.913977638242102 ] } },
{ "type": "Feature", "properties": { "strassenschluessel": "05970000003207077", "bezeichnung": "Zur Wiese" }, "geometry": null },
{ "type": "Feature", "properties": { "strassenschluessel": "05970000003207078", "bezeichnung": "Am Leielchen" }, "geometry": { "type": "Point", "coordinates": [ 8.133375391525346, 50.914686390681474 ] } },
{ "type": "Feature", "properties": { "strassenschluessel": "05970000003207079", "bezeichnung": "Unterm Wäldchen" }, "geometry": { "type": "Point", "coordinates": [ 8.133755741488111, 50.912977416495671 ] } },
{ "type": "Feature", "properties": { "strassenschluessel": "05970000003207080", "bezeichnung": "Brauersdorfer Straße" }, "geometry": { "type": "Point", "coordinates": [ 8.125481901713741, 50.912478495477082 ] } },
{ "type": "Feature", "properties": { "strassenschluessel": "05970000003207101", "bezeichnung": "Ahornweg" }, "geometry": { "type": "Point", "coordinates": [ 8.137507147614736, 50.888199945414797 ] } },
{ "type": "Feature", "properties": { "strassenschluessel": "05970000003207102", "bezeichnung": "Akazienweg" }, "geometry": { "type": "Point", "coordinates": [ 8.13892802241074, 50.887091549799663 ] } },
{ "type": "Feature", "properties": { "strassenschluessel": "05970000003207103", "bezeichnung": "Albert-Irle-Straße" }, "geometry": { "type": "Point", "coordinates": [ 8.142812943855144, 50.881158858251069 ] } },
{ "type": "Feature", "properties": { "strassenschluessel": "05970000003207104", "bezeichnung": "Asternweg" }, "geometry": { "type": "Point", "coordinates": [ 8.141255877510904, 50.884739271344721 ] } },
{ "type": "Feature", "properties": { "strassenschluessel": "05970000003207105", "bezeichnung": "Auf den Stäten" }, "geometry": { "type": "Point", "coordinates": [ 8.148270138341648, 50.882873451473451 ] } },
{ "type": "Feature", "properties": { "strassenschluessel": "05970000003207106", "bezeichnung": "Auf den Weiden" }, "geometry": { "type": "Point", "coordinates": [ 8.130637169140391, 50.89477812941017 ] } },
{ "type": "Feature", "properties": { "strassenschluessel": "05970000003207107", "bezeichnung": "Beienbacher Weg" }, "geometry": { "type": "Point", "coordinates": [ 8.142946725845977, 50.884880161384153 ] } },
{ "type": "Feature", "properties": { "strassenschluessel": "05970000003207108", "bezeichnung": "Berliner Straße" }, "geometry": { "type": "Point", "coordinates": [ 8.1482499071052, 50.886189311719718 ] } },
{ "type": "Feature", "properties": { "strassenschluessel": "05970000003207109", "bezeichnung": "Blumenstraße" }, "geometry": { "type": "Point", "coordinates": [ 8.152521006814693, 50.886240830030474 ] } },
{ "type": "Feature", "properties": { "strassenschluessel": "05970000003207110", "bezeichnung": "Eschenweg" }, "geometry": { "type": "Point", "coordinates": [ 8.140282365387867, 50.885960803155548 ] } },
{ "type": "Feature", "properties": { "strassenschluessel": "05970000003207111", "bezeichnung": "Feuersbacher Straße" }, "geometry": { "type": "Point", "coordinates": [ 8.143315147527238, 50.88068710906591 ] } },
{ "type": "Feature", "properties": { "strassenschluessel": "05970000003207112", "bezeichnung": "Fichtenweg" }, "geometry": { "type": "Point", "coordinates": [ 8.136670510248418, 50.888116206261174 ] } },
{ "type": "Feature", "properties": { "strassenschluessel": "05970000003207113", "bezeichnung": "Fliederweg" }, "geometry": { "type": "Point", "coordinates": [ 8.137109263665819, 50.887260171543609 ] } },
{ "type": "Feature", "properties": { "strassenschluessel": "05970000003207114", "bezeichnung": "Friedhofstraße" }, "geometry": { "type": "Point", "coordinates": [ 8.138759848408013, 50.886007548146694 ] } },
{ "type": "Feature", "properties": { "strassenschluessel": "05970000003207115", "bezeichnung": "Ginsterweg" }, "geometry": { "type": "Point", "coordinates": [ 8.140456886612752, 50.886882590725207 ] } },
{ "type": "Feature", "properties": { "strassenschluessel": "05970000003207116", "bezeichnung": "Habachstraße" }, "geometry": { "type": "Point", "coordinates": [ 8.149141663741949, 50.87786112020536 ] } },
{ "type": "Feature", "properties": { "strassenschluessel": "05970000003207117", "bezeichnung": "Haselnußweg" }, "geometry": { "type": "Point", "coordinates": [ 8.141643994731947, 50.886571314144419 ] } },
{ "type": "Feature", "properties": { "strassenschluessel": "05970000003207118", "bezeichnung": "Herborner Straße" }, "geometry": { "type": "Point", "coordinates": [ 8.147506550782847, 50.879597227629468 ] } },
{ "type": "Feature", "properties": { "strassenschluessel": "05970000003207119", "bezeichnung": "Hinterm Wasser" }, "geometry": { "type": "Point", "coordinates": [ 8.144821220612485, 50.882091114982266 ] } },
{ "type": "Feature", "properties": { "strassenschluessel": "05970000003207120", "bezeichnung": "Hinterstraße" }, "geometry": { "type": "Point", "coordinates": [ 8.14418575701708, 50.883084425195008 ] } },
{ "type": "Feature", "properties": { "strassenschluessel": "05970000003207121", "bezeichnung": "Holunderweg" }, "geometry": { "type": "Point", "coordinates": [ 8.139866495920224, 50.886226527834232 ] } },
{ "type": "Feature", "properties": { "strassenschluessel": "05970000003207122", "bezeichnung": "Hüllweg" }, "geometry": { "type": "Point", "coordinates": [ 8.142935591067761, 50.884280659000929 ] } },
{ "type": "Feature", "properties": { "strassenschluessel": "05970000003207123", "bezeichnung": "Hüttenweg" }, "geometry": { "type": "Point", "coordinates": [ 8.14880145020966, 50.88470763925509 ] } },
{ "type": "Feature", "properties": { "strassenschluessel": "05970000003207124", "bezeichnung": "Im Heiteren Tal" }, "geometry": { "type": "Point", "coordinates": [ 8.142117040729071, 50.885669909895597 ] } },
{ "type": "Feature", "properties": { "strassenschluessel": "05970000003207125", "bezeichnung": "Im Siegeck" }, "geometry": { "type": "Point", "coordinates": [ 8.143744411403247, 50.882384194981583 ] } },
{ "type": "Feature", "properties": { "strassenschluessel": "05970000003207126", "bezeichnung": "In der Brachbach" }, "geometry": { "type": "Point", "coordinates": [ 8.149810852745567, 50.877670643745581 ] } },
{ "type": "Feature", "properties": { "strassenschluessel": "05970000003207127", "bezeichnung": "Irle-Siedlung" }, "geometry": { "type": "Point", "coordinates": [ 8.131423497615502, 50.883636963987328 ] } },
{ "type": "Feature", "properties": { "strassenschluessel": "05970000003207128", "bezeichnung": "Kiefernweg" }, "geometry": { "type": "Point", "coordinates": [ 8.138299309242136, 50.888578406640583 ] } },
{ "type": "Feature", "properties": { "strassenschluessel": "05970000003207130", "bezeichnung": "Kölner Straße" }, "geometry": { "type": "Point", "coordinates": [ 8.139161595637912, 50.884590661058503 ] } },
{ "type": "Feature", "properties": { "strassenschluessel": "05970000003207131", "bezeichnung": "Marburger Straße" }, "geometry": { "type": "Point", "coordinates": [ 8.144675142136936, 50.88273240650846 ] } },
{ "type": "Feature", "properties": { "strassenschluessel": "05970000003207132", "bezeichnung": "Mühlenweg" }, "geometry": { "type": "Point", "coordinates": [ 8.139543129991784, 50.883662368714432 ] } },
{ "type": "Feature", "properties": { "strassenschluessel": "05970000003207133", "bezeichnung": "Nahtweg" }, "geometry": { "type": "Point", "coordinates": [ 8.142373407214766, 50.88866556826968 ] } },
{ "type": "Feature", "properties": { "strassenschluessel": "05970000003207134", "bezeichnung": "Nauholzer Weg" }, "geometry": { "type": "Point", "coordinates": [ 8.15021763886261, 50.887892479090638 ] } },
{ "type": "Feature", "properties": { "strassenschluessel": "05970000003207135", "bezeichnung": "Pestalozzistraße" }, "geometry": { "type": "Point", "coordinates": [ 8.144693387819276, 50.885939267290098 ] } },
{ "type": "Feature", "properties": { "strassenschluessel": "05970000003207136", "bezeichnung": "Schlehdornweg" }, "geometry": { "type": "Point", "coordinates": [ 8.135210297247371, 50.888138023945693 ] } },
{ "type": "Feature", "properties": { "strassenschluessel": "05970000003207137", "bezeichnung": "Schützenweg" }, "geometry": { "type": "Point", "coordinates": [ 8.133834618335861, 50.878634912456292 ] } },
{ "type": "Feature", "properties": { "strassenschluessel": "05970000003207138", "bezeichnung": "Tannenstraße" }, "geometry": { "type": "Point", "coordinates": [ 8.13152065368252, 50.883147394490869 ] } },
{ "type": "Feature", "properties": { "strassenschluessel": "05970000003207139", "bezeichnung": "Waldstraße" }, "geometry": { "type": "Point", "coordinates": [ 8.138748986019724, 50.881379863483104 ] } },
{ "type": "Feature", "properties": { "strassenschluessel": "05970000003207140", "bezeichnung": "Zaunstraße" }, "geometry": { "type": "Point", "coordinates": [ 8.143481467907066, 50.883837746356747 ] } },
{ "type": "Feature", "properties": { "strassenschluessel": "05970000003207141", "bezeichnung": "Am Freibad" }, "geometry": { "type": "Point", "coordinates": [ 8.145632009586327, 50.881815556879758 ] } },
{ "type": "Feature", "properties": { "strassenschluessel": "05970000003207142", "bezeichnung": "Weiherdamm" }, "geometry": { "type": "Point", "coordinates": [ 8.125439536158042, 50.889694894378557 ] } },
{ "type": "Feature", "properties": { "strassenschluessel": "05970000003207143", "bezeichnung": "Efeuweg" }, "geometry": { "type": "Point", "coordinates": [ 8.143090360767554, 50.887142520764485 ] } },
{ "type": "Feature", "properties": { "strassenschluessel": "05970000003207144", "bezeichnung": "Jasminweg" }, "geometry": { "type": "Point", "coordinates": [ 8.141112095822312, 50.888110741828115 ] } },
{ "type": "Feature", "properties": { "strassenschluessel": "05970000003207145", "bezeichnung": "Krokusweg" }, "geometry": { "type": "Point", "coordinates": [ 8.150501538510037, 50.887310422240034 ] } },
{ "type": "Feature", "properties": { "strassenschluessel": "05970000003207146", "bezeichnung": "Orchideenweg" }, "geometry": { "type": "Point", "coordinates": [ 8.149765162424162, 50.887238666698423 ] } },
{ "type": "Feature", "properties": { "strassenschluessel": "05970000003207147", "bezeichnung": "Kälberhof" }, "geometry": { "type": "Point", "coordinates": [ 8.140132729746858, 50.883319938698961 ] } },
{ "type": "Feature", "properties": { "strassenschluessel": "05970000003207148", "bezeichnung": "Narzissenweg" }, "geometry": { "type": "Point", "coordinates": [ 8.145823684109962, 50.887067300941709 ] } },
{ "type": "Feature", "properties": { "strassenschluessel": "05970000003207171", "bezeichnung": "Am Burgrain" }, "geometry": { "type": "Point", "coordinates": [ 8.050751470073703, 50.912555262006556 ] } },
{ "type": "Feature", "properties": { "strassenschluessel": "05970000003207172", "bezeichnung": "Am Liesch" }, "geometry": { "type": "Point", "coordinates": [ 8.057977823470274, 50.914187330205706 ] } },
{ "type": "Feature", "properties": { "strassenschluessel": "05970000003207173", "bezeichnung": "Auf der Au" }, "geometry": { "type": "Point", "coordinates": [ 8.075284610842903, 50.906800751494622 ] } },
{ "type": "Feature", "properties": { "strassenschluessel": "05970000003207174", "bezeichnung": "Auf der Blashütte" }, "geometry": { "type": "Point", "coordinates": [ 8.043556878230692, 50.911847177469902 ] } },
{ "type": "Feature", "properties": { "strassenschluessel": "05970000003207175", "bezeichnung": "Auf der Schläfe" }, "geometry": { "type": "Point", "coordinates": [ 8.047304616954246, 50.917310844328497 ] } },
{ "type": "Feature", "properties": { "strassenschluessel": "05970000003207176", "bezeichnung": "Austraße" }, "geometry": { "type": "Point", "coordinates": [ 8.054620008123646, 50.911910637548445 ] } },
{ "type": "Feature", "properties": { "strassenschluessel": "05970000003207177", "bezeichnung": "Bismarckstraße" }, "geometry": { "type": "Point", "coordinates": [ 8.056971572410154, 50.912268911813413 ] } },
{ "type": "Feature", "properties": { "strassenschluessel": "05970000003207178", "bezeichnung": "Bruchstraße" }, "geometry": { "type": "Point", "coordinates": [ 8.04912365995145, 50.91530915391688 ] } },
{ "type": "Feature", "properties": { "strassenschluessel": "05970000003207179", "bezeichnung": "Brückenstraße" }, "geometry": { "type": "Point", "coordinates": [ 8.057934127122737, 50.915727314084364 ] } },
{ "type": "Feature", "properties": { "strassenschluessel": "05970000003207180", "bezeichnung": "Burgstraße" }, "geometry": { "type": "Point", "coordinates": [ 8.042236116827466, 50.911572147977196 ] } },
{ "type": "Feature", "properties": { "strassenschluessel": "05970000003207181", "bezeichnung": "Dreisbachstraße" }, "geometry": { "type": "Point", "coordinates": [ 8.063983943588536, 50.917182340141117 ] } },
{ "type": "Feature", "properties": { "strassenschluessel": "05970000003207182", "bezeichnung": "Drosselweg" }, "geometry": { "type": "Point", "coordinates": [ 8.058510429080881, 50.909924331951885 ] } },
{ "type": "Feature", "properties": { "strassenschluessel": "05970000003207183", "bezeichnung": "Eichendorffstraße" }, "geometry": { "type": "Point", "coordinates": [ 8.056982421389028, 50.916716114058815 ] } },
{ "type": "Feature", "properties": { "strassenschluessel": "05970000003207184", "bezeichnung": "Fehlingsweg" }, "geometry": { "type": "Point", "coordinates": [ 8.05693086168295, 50.907204552664481 ] } },
{ "type": "Feature", "properties": { "strassenschluessel": "05970000003207185", "bezeichnung": "Feldwasserstraße" }, "geometry": { "type": "Point", "coordinates": [ 8.052263617681328, 50.913670847789362 ] } },
{ "type": "Feature", "properties": { "strassenschluessel": "05970000003207186", "bezeichnung": "Finkenweg" }, "geometry": { "type": "Point", "coordinates": [ 8.057280419538388, 50.910141836664494 ] } },
{ "type": "Feature", "properties": { "strassenschluessel": "05970000003207187", "bezeichnung": "Fontanestraße" }, "geometry": { "type": "Point", "coordinates": [ 8.054361076513631, 50.917513947966299 ] } },
{ "type": "Feature", "properties": { "strassenschluessel": "05970000003207188", "bezeichnung": "Bittenbach" }, "geometry": { "type": "Point", "coordinates": [ 8.078418580701076, 50.913175330659726 ] } },
{ "type": "Feature", "properties": { "strassenschluessel": "05970000003207189", "bezeichnung": "Gartenstraße" }, "geometry": { "type": "Point", "coordinates": [ 8.063317397272915, 50.91248366596863 ] } },
{ "type": "Feature", "properties": { "strassenschluessel": "05970000003207190", "bezeichnung": "Goethestraße" }, "geometry": { "type": "Point", "coordinates": [ 8.056615507355881, 50.916311959705887 ] } },
{ "type": "Feature", "properties": { "strassenschluessel": "05970000003207191", "bezeichnung": "Heckersbergstraße" }, "geometry": { "type": "Point", "coordinates": [ 8.055490883101323, 50.909407393397487 ] } },
{ "type": "Feature", "properties": { "strassenschluessel": "05970000003207192", "bezeichnung": "Hermann-Löns-Straße" }, "geometry": { "type": "Point", "coordinates": [ 8.055989888354409, 50.917068590854186 ] } },
{ "type": "Feature", "properties": { "strassenschluessel": "05970000003207193", "bezeichnung": "Hinterm Liesch" }, "geometry": { "type": "Point", "coordinates": [ 8.066648554357187, 50.91521162397941 ] } },
{ "type": "Feature", "properties": { "strassenschluessel": "05970000003207194", "bezeichnung": "Hüttenwiese" }, "geometry": { "type": "Point", "coordinates": [ 8.052475685113953, 50.913186179848836 ] } },
{ "type": "Feature", "properties": { "strassenschluessel": "05970000003207195", "bezeichnung": "Im Grunde" }, "geometry": { "type": "Point", "coordinates": [ 8.057125667546767, 50.913345390490285 ] } },
{ "type": "Feature", "properties": { "strassenschluessel": "05970000003207196", "bezeichnung": "Im Hüttseifen" }, "geometry": { "type": "Point", "coordinates": [ 8.04640941476641, 50.910944557821381 ] } },
{ "type": "Feature", "properties": { "strassenschluessel": "05970000003207197", "bezeichnung": "Im Storchennest" }, "geometry": { "type": "Point", "coordinates": [ 8.051159248746194, 50.916302961935067 ] } },
{ "type": "Feature", "properties": { "strassenschluessel": "05970000003207198", "bezeichnung": "In der Habach" }, "geometry": { "type": "Point", "coordinates": [ 8.06473466481221, 50.91976044312748 ] } },
{ "type": "Feature", "properties": { "strassenschluessel": "05970000003207199", "bezeichnung": "In der Seelbach" }, "geometry": { "type": "Point", "coordinates": [ 8.059855931960916, 50.917939386664251 ] } },
{ "type": "Feature", "properties": { "strassenschluessel": "05970000003207200", "bezeichnung": "Ivenweg" }, "geometry": { "type": "Point", "coordinates": [ 8.05014102843133, 50.91050123147803 ] } },
{ "type": "Feature", "properties": { "strassenschluessel": "05970000003207201", "bezeichnung": "Köhlerweg" }, "geometry": { "type": "Point", "coordinates": [ 8.074898828361103, 50.908977596744478 ] } },
{ "type": "Feature", "properties": { "strassenschluessel": "05970000003207202", "bezeichnung": "Kreuztaler Straße" }, "geometry": { "type": "Point", "coordinates": [ 8.053593727661172, 50.91544328903818 ] } },
{ "type": "Feature", "properties": { "strassenschluessel": "05970000003207203", "bezeichnung": "Lerchenweg" }, "geometry": { "type": "Point", "coordinates": [ 8.056781966903873, 50.909264088710813 ] } },
{ "type": "Feature", "properties": { "strassenschluessel": "05970000003207204", "bezeichnung": "Lessingstraße" }, "geometry": { "type": "Point", "coordinates": [ 8.054053489913677, 50.917049366286285 ] } },
{ "type": "Feature", "properties": { "strassenschluessel": "05970000003207205", "bezeichnung": "Lieschstraße" }, "geometry": { "type": "Point", "coordinates": [ 8.058862127858852, 50.912649151972531 ] } },
{ "type": "Feature", "properties": { "strassenschluessel": "05970000003207206", "bezeichnung": "Lützelau" }, "geometry": { "type": "Point", "coordinates": [ 8.065717097738816, 50.911662365032782 ] } },
{ "type": "Feature", "properties": { "strassenschluessel": "05970000003207207", "bezeichnung": "Setzer Weg" }, "geometry": { "type": "Point", "coordinates": [ 8.050826926533192, 50.915784231218915 ] } },
{ "type": "Feature", "properties": { "strassenschluessel": "05970000003207208", "bezeichnung": "Siegstraße" }, "geometry": { "type": "Point", "coordinates": [ 8.042739641061283, 50.912202317738632 ] } },
{ "type": "Feature", "properties": { "strassenschluessel": "05970000003207209", "bezeichnung": "Schläfergarten" }, "geometry": { "type": "Point", "coordinates": [ 8.047469274417663, 50.916137321579136 ] } },
{ "type": "Feature", "properties": { "strassenschluessel": "05970000003207210", "bezeichnung": "Schwalbenweg" }, "geometry": { "type": "Point", "coordinates": [ 8.056787443860362, 50.909062773175052 ] } },
{ "type": "Feature", "properties": { "strassenschluessel": "05970000003207211", "bezeichnung": "Jung-Stilling-Platz" }, "geometry": { "type": "Point", "coordinates": [ 8.05811794054426, 50.91218112336793 ] } },
{ "type": "Feature", "properties": { "strassenschluessel": "05970000003207212", "bezeichnung": "Tiefenbacher Straße" }, "geometry": { "type": "Point", "coordinates": [ 8.048472747541759, 50.915959324263085 ] } },
{ "type": "Feature", "properties": { "strassenschluessel": "05970000003207213", "bezeichnung": "Torstraße" }, "geometry": { "type": "Point", "coordinates": [ 8.05447669717746, 50.912874377681824 ] } },
{ "type": "Feature", "properties": { "strassenschluessel": "05970000003207214", "bezeichnung": "Untere Industriestraße" }, "geometry": { "type": "Point", "coordinates": [ 8.072077180704181, 50.907882173813377 ] } },
{ "type": "Feature", "properties": { "strassenschluessel": "05970000003207215", "bezeichnung": "Unterm Kieselstein" }, "geometry": { "type": "Point", "coordinates": [ 8.046533209306309, 50.910456544379507 ] } },
{ "type": "Feature", "properties": { "strassenschluessel": "05970000003207216", "bezeichnung": "Wernsbachstraße" }, "geometry": { "type": "Point", "coordinates": [ 8.055515212753768, 50.910835166307344 ] } },
{ "type": "Feature", "properties": { "strassenschluessel": "05970000003207217", "bezeichnung": "Weyertshainstraße" }, "geometry": { "type": "Point", "coordinates": [ 8.060663961827645, 50.913270466209205 ] } },
{ "type": "Feature", "properties": { "strassenschluessel": "05970000003207218", "bezeichnung": "Zeisigweg" }, "geometry": { "type": "Point", "coordinates": [ 8.055792976163819, 50.907622104214603 ] } },
{ "type": "Feature", "properties": { "strassenschluessel": "05970000003207219", "bezeichnung": "Zinsenbach" }, "geometry": { "type": "Point", "coordinates": [ 8.060426996856773, 50.909219738175416 ] } },
{ "type": "Feature", "properties": { "strassenschluessel": "05970000003207220", "bezeichnung": "Bussardweg" }, "geometry": null },
{ "type": "Feature", "properties": { "strassenschluessel": "05970000003207221", "bezeichnung": "Sperlingsweg" }, "geometry": { "type": "Point", "coordinates": [ 8.055886820427396, 50.906413516882843 ] } },
{ "type": "Feature", "properties": { "strassenschluessel": "05970000003207222", "bezeichnung": "Starenweg" }, "geometry": { "type": "Point", "coordinates": [ 8.055769991898645, 50.906675794055715 ] } },
{ "type": "Feature", "properties": { "strassenschluessel": "05970000003207223", "bezeichnung": "Wachtelweg" }, "geometry": { "type": "Point", "coordinates": [ 8.053462382689812, 50.907667540378277 ] } },
{ "type": "Feature", "properties": { "strassenschluessel": "05970000003207224", "bezeichnung": "Weidenauer Straße" }, "geometry": { "type": "Point", "coordinates": [ 8.052276592299023, 50.907071574859401 ] } },
{ "type": "Feature", "properties": { "strassenschluessel": "05970000003207225", "bezeichnung": "Martin-Luther-Straße" }, "geometry": { "type": "Point", "coordinates": [ 8.05608796672456, 50.913627080081184 ] } },
{ "type": "Feature", "properties": { "strassenschluessel": "05970000003207226", "bezeichnung": "Volnsberger Straße" }, "geometry": { "type": "Point", "coordinates": [ 8.059382507522937, 50.909192433669403 ] } },
{ "type": "Feature", "properties": { "strassenschluessel": "05970000003207227", "bezeichnung": "Breitenrathstraße" }, "geometry": { "type": "Point", "coordinates": [ 8.061748347458566, 50.918502131337874 ] } },
{ "type": "Feature", "properties": { "strassenschluessel": "05970000003207228", "bezeichnung": "Johann-Sebastian-Bach-Weg" }, "geometry": { "type": "Point", "coordinates": [ 8.060677696444117, 50.918166236187858 ] } },
{ "type": "Feature", "properties": { "strassenschluessel": "05970000003207229", "bezeichnung": "Händelweg" }, "geometry": { "type": "Point", "coordinates": [ 8.062659660881407, 50.918189367665349 ] } },
{ "type": "Feature", "properties": { "strassenschluessel": "05970000003207230", "bezeichnung": "Haydnweg" }, "geometry": { "type": "Point", "coordinates": [ 8.061003530852844, 50.918932981499665 ] } },
{ "type": "Feature", "properties": { "strassenschluessel": "05970000003207231", "bezeichnung": "Mozartweg" }, "geometry": { "type": "Point", "coordinates": [ 8.059568576982846, 50.91907605592646 ] } },
{ "type": "Feature", "properties": { "strassenschluessel": "05970000003207232", "bezeichnung": "Beethovenweg" }, "geometry": { "type": "Point", "coordinates": [ 8.060617955157307, 50.919792880929876 ] } },
{ "type": "Feature", "properties": { "strassenschluessel": "05970000003207233", "bezeichnung": "Schumannweg" }, "geometry": { "type": "Point", "coordinates": [ 8.062376499718793, 50.919398883560682 ] } },
{ "type": "Feature", "properties": { "strassenschluessel": "05970000003207234", "bezeichnung": "Lisztweg" }, "geometry": { "type": "Point", "coordinates": [ 8.0637077861902, 50.919888679896516 ] } },
{ "type": "Feature", "properties": { "strassenschluessel": "05970000003207235", "bezeichnung": "Richard-Wagner-Weg" }, "geometry": { "type": "Point", "coordinates": [ 8.061083300130282, 50.92034676277828 ] } },
{ "type": "Feature", "properties": { "strassenschluessel": "05970000003207236", "bezeichnung": "Brucknerweg" }, "geometry": { "type": "Point", "coordinates": [ 8.063123749738057, 50.920862050494513 ] } },
{ "type": "Feature", "properties": { "strassenschluessel": "05970000003207237", "bezeichnung": "Johann-Strauß-Weg" }, "geometry": { "type": "Point", "coordinates": [ 8.061819147864407, 50.921168025215877 ] } },
{ "type": "Feature", "properties": { "strassenschluessel": "05970000003207238", "bezeichnung": "Brahmsweg" }, "geometry": { "type": "Point", "coordinates": [ 8.062966381257766, 50.921761540282112 ] } },
{ "type": "Feature", "properties": { "strassenschluessel": "05970000003207239", "bezeichnung": "Im Bruch" }, "geometry": { "type": "Point", "coordinates": [ 8.049725037909667, 50.915842759709562 ] } },
{ "type": "Feature", "properties": { "strassenschluessel": "05970000003207240", "bezeichnung": "Industriestraße" }, "geometry": { "type": "Point", "coordinates": [ 8.037345568595791, 50.914092221182443 ] } },
{ "type": "Feature", "properties": { "strassenschluessel": "05970000003207241", "bezeichnung": "Annette-von-Droste-Hülshoff-Straße" }, "geometry": { "type": "Point", "coordinates": [ 8.054741978484133, 50.918168809113808 ] } },
{ "type": "Feature", "properties": { "strassenschluessel": "05970000003207242", "bezeichnung": "Eduard-Mörike-Weg" }, "geometry": { "type": "Point", "coordinates": [ 8.053742350665917, 50.917744341710375 ] } },
{ "type": "Feature", "properties": { "strassenschluessel": "05970000003207243", "bezeichnung": "Wilhelm-Schäfer-Weg" }, "geometry": { "type": "Point", "coordinates": [ 8.05300133406079, 50.91774593277853 ] } },
{ "type": "Feature", "properties": { "strassenschluessel": "05970000003207244", "bezeichnung": "Auf dem Bruche" }, "geometry": null },
{ "type": "Feature", "properties": { "strassenschluessel": "05970000003207251", "bezeichnung": "Allenbacher Straße" }, "geometry": { "type": "Point", "coordinates": [ 8.074177017301208, 50.926854775606365 ] } },
{ "type": "Feature", "properties": { "strassenschluessel": "05970000003207252", "bezeichnung": "Am Hubertushain" }, "geometry": { "type": "Point", "coordinates": [ 8.075898366899514, 50.923734383391611 ] } },
{ "type": "Feature", "properties": { "strassenschluessel": "05970000003207253", "bezeichnung": "Am Hüttenwald" }, "geometry": { "type": "Point", "coordinates": [ 8.07265464671412, 50.931359615112335 ] } },
{ "type": "Feature", "properties": { "strassenschluessel": "05970000003207254", "bezeichnung": "Am Waldhang" }, "geometry": { "type": "Point", "coordinates": [ 8.071806706945731, 50.926973206527293 ] } },
{ "type": "Feature", "properties": { "strassenschluessel": "05970000003207255", "bezeichnung": "Auf dem Rain" }, "geometry": { "type": "Point", "coordinates": [ 8.072720252204027, 50.92645508436302 ] } },
{ "type": "Feature", "properties": { "strassenschluessel": "05970000003207256", "bezeichnung": "Birkenweg" }, "geometry": { "type": "Point", "coordinates": [ 8.071072372985986, 50.923926459151112 ] } },
{ "type": "Feature", "properties": { "strassenschluessel": "05970000003207257", "bezeichnung": "Eibenweg" }, "geometry": { "type": "Point", "coordinates": [ 8.071518989330498, 50.924999864825729 ] } },
{ "type": "Feature", "properties": { "strassenschluessel": "05970000003207258", "bezeichnung": "Eichenweg" }, "geometry": { "type": "Point", "coordinates": [ 8.068917728004974, 50.927900552679112 ] } },
{ "type": "Feature", "properties": { "strassenschluessel": "05970000003207259", "bezeichnung": "Espenweg" }, "geometry": { "type": "Point", "coordinates": [ 8.068886223480289, 50.928693111477465 ] } },
{ "type": "Feature", "properties": { "strassenschluessel": "05970000003207260", "bezeichnung": "Hainbuchenweg" }, "geometry": { "type": "Point", "coordinates": [ 8.071242916633507, 50.926298638851868 ] } },
{ "type": "Feature", "properties": { "strassenschluessel": "05970000003207261", "bezeichnung": "Hinter den Weiden" }, "geometry": { "type": "Point", "coordinates": [ 8.069271530143132, 50.929005762287098 ] } },
{ "type": "Feature", "properties": { "strassenschluessel": "05970000003207262", "bezeichnung": "Hohlweg" }, "geometry": { "type": "Point", "coordinates": [ 8.072562558083293, 50.926096959476929 ] } },
{ "type": "Feature", "properties": { "strassenschluessel": "05970000003207263", "bezeichnung": "In der Enke" }, "geometry": { "type": "Point", "coordinates": [ 8.074248803205906, 50.926282023352933 ] } },
{ "type": "Feature", "properties": { "strassenschluessel": "05970000003207264", "bezeichnung": "In der Hanfwiese" }, "geometry": { "type": "Point", "coordinates": [ 8.073025834693139, 50.928494059224931 ] } },
{ "type": "Feature", "properties": { "strassenschluessel": "05970000003207265", "bezeichnung": "In der Struth" }, "geometry": { "type": "Point", "coordinates": [ 8.074949932590419, 50.928997674874914 ] } },
{ "type": "Feature", "properties": { "strassenschluessel": "05970000003207266", "bezeichnung": "Oelgershausener Straße" }, "geometry": { "type": "Point", "coordinates": [ 8.07405655293376, 50.924927505883026 ] } },
{ "type": "Feature", "properties": { "strassenschluessel": "05970000003207267", "bezeichnung": "Siegener Straße" }, "geometry": { "type": "Point", "coordinates": [ 8.07345878323493, 50.926263185135397 ] } },
{ "type": "Feature", "properties": { "strassenschluessel": "05970000003207268", "bezeichnung": "Ulmenweg" }, "geometry": { "type": "Point", "coordinates": [ 8.069472044337322, 50.928427330337378 ] } },
{ "type": "Feature", "properties": { "strassenschluessel": "05970000003207269", "bezeichnung": "Unglinghausener Straße" }, "geometry": { "type": "Point", "coordinates": [ 8.071042385826832, 50.928281811592093 ] } },
{ "type": "Feature", "properties": { "strassenschluessel": "05970000003207270", "bezeichnung": "Vorm Wald" }, "geometry": { "type": "Point", "coordinates": [ 8.069038338522272, 50.927145601924693 ] } },
{ "type": "Feature", "properties": { "strassenschluessel": "05970000003207271", "bezeichnung": "Weißdornweg" }, "geometry": { "type": "Point", "coordinates": [ 8.068419734150076, 50.929255607729289 ] } },
{ "type": "Feature", "properties": { "strassenschluessel": "05970000003207272", "bezeichnung": "Im Mühlengrund" }, "geometry": { "type": "Point", "coordinates": [ 8.07364187442588, 50.928404145495016 ] } },
{ "type": "Feature", "properties": { "strassenschluessel": "05970000003207273", "bezeichnung": "Grundstraße" }, "geometry": { "type": "Point", "coordinates": [ 8.073266736213588, 50.924952589024542 ] } },
{ "type": "Feature", "properties": { "strassenschluessel": "05970000003207274", "bezeichnung": "Jagdweg" }, "geometry": { "type": "Point", "coordinates": [ 8.074720166811986, 50.923613226576478 ] } },
{ "type": "Feature", "properties": { "strassenschluessel": "05970000003207275", "bezeichnung": "In der Seite" }, "geometry": { "type": "Point", "coordinates": [ 8.07635601321202, 50.928854704133997 ] } },
{ "type": "Feature", "properties": { "strassenschluessel": "05970000003207291", "bezeichnung": "Alte-Burg-Straße" }, "geometry": { "type": "Point", "coordinates": [ 8.126012285059444, 50.930668039446395 ] } },
{ "type": "Feature", "properties": { "strassenschluessel": "05970000003207292", "bezeichnung": "Am Birkenrain" }, "geometry": { "type": "Point", "coordinates": [ 8.124658585548913, 50.927376849467791 ] } },
{ "type": "Feature", "properties": { "strassenschluessel": "05970000003207294", "bezeichnung": "Am Sonnenhang" }, "geometry": { "type": "Point", "coordinates": [ 8.125026693540047, 50.928334268858166 ] } },
{ "type": "Feature", "properties": { "strassenschluessel": "05970000003207295", "bezeichnung": "Am Wasser" }, "geometry": { "type": "Point", "coordinates": [ 8.124900657721893, 50.930411557030304 ] } },
{ "type": "Feature", "properties": { "strassenschluessel": "05970000003207296", "bezeichnung": "Andreasstraße" }, "geometry": { "type": "Point", "coordinates": [ 8.127319749357158, 50.928562616302528 ] } },
{ "type": "Feature", "properties": { "strassenschluessel": "05970000003207297", "bezeichnung": "Bachweg" }, "geometry": { "type": "Point", "coordinates": [ 8.12625901027941, 50.930320199974773 ] } },
{ "type": "Feature", "properties": { "strassenschluessel": "05970000003207298", "bezeichnung": "Berleburger Straße" }, "geometry": { "type": "Point", "coordinates": [ 8.124017275629052, 50.930094716989757 ] } },
{ "type": "Feature", "properties": { "strassenschluessel": "05970000003207299", "bezeichnung": "Billenbachstraße" }, "geometry": { "type": "Point", "coordinates": [ 8.124211557394791, 50.928771090617097 ] } },
{ "type": "Feature", "properties": { "strassenschluessel": "05970000003207300", "bezeichnung": "Eschenbacher Straße" }, "geometry": { "type": "Point", "coordinates": [ 8.130752929815579, 50.929075697989376 ] } },
{ "type": "Feature", "properties": { "strassenschluessel": "05970000003207301", "bezeichnung": "Grabenstraße" }, "geometry": null },
{ "type": "Feature", "properties": { "strassenschluessel": "05970000003207302", "bezeichnung": "Hagerstraße" }, "geometry": { "type": "Point", "coordinates": [ 8.12648416649451, 50.93115176004455 ] } },
{ "type": "Feature", "properties": { "strassenschluessel": "05970000003207303", "bezeichnung": "Kastanienweg" }, "geometry": { "type": "Point", "coordinates": [ 8.125695263232794, 50.930510090385845 ] } },
{ "type": "Feature", "properties": { "strassenschluessel": "05970000003207305", "bezeichnung": "Schießbergstraße" }, "geometry": { "type": "Point", "coordinates": [ 8.122922837773876, 50.929287228332043 ] } },
{ "type": "Feature", "properties": { "strassenschluessel": "05970000003207306", "bezeichnung": "Tannenkopfstraße" }, "geometry": { "type": "Point", "coordinates": [ 8.121956645867884, 50.934866748390178 ] } },
{ "type": "Feature", "properties": { "strassenschluessel": "05970000003207307", "bezeichnung": "Zur Kempe" }, "geometry": { "type": "Point", "coordinates": [ 8.129014154234852, 50.929627490516225 ] } },
{ "type": "Feature", "properties": { "strassenschluessel": "05970000003207321", "bezeichnung": "Ackerstraße" }, "geometry": { "type": "Point", "coordinates": [ 8.097003164458846, 50.938130686454976 ] } },
{ "type": "Feature", "properties": { "strassenschluessel": "05970000003207322", "bezeichnung": "Am Bühl" }, "geometry": { "type": "Point", "coordinates": [ 8.098340005289554, 50.942161157969075 ] } },
{ "type": "Feature", "properties": { "strassenschluessel": "05970000003207323", "bezeichnung": "Am Hömberg" }, "geometry": { "type": "Point", "coordinates": [ 8.096917640987163, 50.936415030201523 ] } },
{ "type": "Feature", "properties": { "strassenschluessel": "05970000003207324", "bezeichnung": "Breitestraße" }, "geometry": { "type": "Point", "coordinates": [ 8.098254311492354, 50.939160869127477 ] } },
{ "type": "Feature", "properties": { "strassenschluessel": "05970000003207325", "bezeichnung": "Eichhainstraße" }, "geometry": { "type": "Point", "coordinates": [ 8.100990411096237, 50.936916313317411 ] } },
{ "type": "Feature", "properties": { "strassenschluessel": "05970000003207326", "bezeichnung": "Hofgartenstraße" }, "geometry": { "type": "Point", "coordinates": [ 8.097822436372585, 50.938502145436217 ] } },
{ "type": "Feature", "properties": { "strassenschluessel": "05970000003207327", "bezeichnung": "Im Buden" }, "geometry": { "type": "Point", "coordinates": [ 8.097987602475518, 50.940114827221926 ] } },
{ "type": "Feature", "properties": { "strassenschluessel": "05970000003207328", "bezeichnung": "Im Unteren Buden" }, "geometry": { "type": "Point", "coordinates": [ 8.10034129984615, 50.940349854744596 ] } },
{ "type": "Feature", "properties": { "strassenschluessel": "05970000003207329", "bezeichnung": "Oberstraße" }, "geometry": { "type": "Point", "coordinates": [ 8.098941096742513, 50.937471436871597 ] } },
{ "type": "Feature", "properties": { "strassenschluessel": "05970000003207330", "bezeichnung": "Ruckersfelder Straße" }, "geometry": { "type": "Point", "coordinates": [ 8.100097027926852, 50.938841297396685 ] } },
{ "type": "Feature", "properties": { "strassenschluessel": "05970000003207331", "bezeichnung": "Unterm Dorf" }, "geometry": { "type": "Point", "coordinates": [ 8.098622539259653, 50.936369812273412 ] } },
{ "type": "Feature", "properties": { "strassenschluessel": "05970000003207352", "bezeichnung": "Am Knebelchen" }, "geometry": { "type": "Point", "coordinates": [ 8.169894029513307, 50.885063309508276 ] } },
{ "type": "Feature", "properties": { "strassenschluessel": "05970000003207353", "bezeichnung": "Am Steinacker" }, "geometry": { "type": "Point", "coordinates": [ 8.172479823022167, 50.885609658361943 ] } },
{ "type": "Feature", "properties": { "strassenschluessel": "05970000003207354", "bezeichnung": "Elmertsgarten" }, "geometry": { "type": "Point", "coordinates": [ 8.168490391542903, 50.885894440550999 ] } },
{ "type": "Feature", "properties": { "strassenschluessel": "05970000003207355", "bezeichnung": "Grabenbäume" }, "geometry": { "type": "Point", "coordinates": [ 8.159199991844204, 50.886373157998257 ] } },
{ "type": "Feature", "properties": { "strassenschluessel": "05970000003207356", "bezeichnung": "Grenzweg" }, "geometry": { "type": "Point", "coordinates": [ 8.15373258170715, 50.885914761095847 ] } },
{ "type": "Feature", "properties": { "strassenschluessel": "05970000003207357", "bezeichnung": "Hälsber Weg" }, "geometry": { "type": "Point", "coordinates": [ 8.169473247100926, 50.885815186915302 ] } },
{ "type": "Feature", "properties": { "strassenschluessel": "05970000003207358", "bezeichnung": "Heideweg" }, "geometry": { "type": "Point", "coordinates": [ 8.153202031451844, 50.887088566582378 ] } },
{ "type": "Feature", "properties": { "strassenschluessel": "05970000003207359", "bezeichnung": "Hembach" }, "geometry": { "type": "Point", "coordinates": [ 8.172778849573723, 50.888059806732628 ] } },
{ "type": "Feature", "properties": { "strassenschluessel": "05970000003207360", "bezeichnung": "Hofgarten" }, "geometry": { "type": "Point", "coordinates": [ 8.168910949258699, 50.884568855885867 ] } },
{ "type": "Feature", "properties": { "strassenschluessel": "05970000003207361", "bezeichnung": "In der Grissenbach" }, "geometry": { "type": "Point", "coordinates": [ 8.167417146390207, 50.889304817564302 ] } },
{ "type": "Feature", "properties": { "strassenschluessel": "05970000003207362", "bezeichnung": "In der Hälsbach" }, "geometry": { "type": "Point", "coordinates": [ 8.170462939466498, 50.885507680630184 ] } },
{ "type": "Feature", "properties": { "strassenschluessel": "05970000003207363", "bezeichnung": "Lutherstalweg" }, "geometry": { "type": "Point", "coordinates": [ 8.153152866265625, 50.88815980075546 ] } },
{ "type": "Feature", "properties": { "strassenschluessel": "05970000003207364", "bezeichnung": "Schmittenwiese" }, "geometry": { "type": "Point", "coordinates": [ 8.171156569057411, 50.885579496700366 ] } },
{ "type": "Feature", "properties": { "strassenschluessel": "05970000003207365", "bezeichnung": "Siegtalstraße" }, "geometry": { "type": "Point", "coordinates": [ 8.15316864282399, 50.885626550419126 ] } },
{ "type": "Feature", "properties": { "strassenschluessel": "05970000003207366", "bezeichnung": "Sterndellweg" }, "geometry": { "type": "Point", "coordinates": [ 8.158468715083563, 50.886336467364771 ] } },
{ "type": "Feature", "properties": { "strassenschluessel": "05970000003207367", "bezeichnung": "Unter den Grabenbäumen" }, "geometry": { "type": "Point", "coordinates": [ 8.163007559203281, 50.885739518020145 ] } },
{ "type": "Feature", "properties": { "strassenschluessel": "05970000003207369", "bezeichnung": "Vor der Hembach" }, "geometry": { "type": "Point", "coordinates": [ 8.171459612851086, 50.887954748604976 ] } },
{ "type": "Feature", "properties": { "strassenschluessel": "05970000003207370", "bezeichnung": "Luisenstraße" }, "geometry": { "type": "Point", "coordinates": [ 8.173067670554959, 50.888278419211318 ] } },
{ "type": "Feature", "properties": { "strassenschluessel": "05970000003207391", "bezeichnung": "Am Bahnhof" }, "geometry": { "type": "Point", "coordinates": [ 8.203267909714134, 50.862875758083455 ] } },
{ "type": "Feature", "properties": { "strassenschluessel": "05970000003207392", "bezeichnung": "Am Sportplatz" }, "geometry": { "type": "Point", "coordinates": [ 8.213791999622455, 50.853204155250225 ] } },
{ "type": "Feature", "properties": { "strassenschluessel": "05970000003207393", "bezeichnung": "Dillweg" }, "geometry": { "type": "Point", "coordinates": [ 8.213019627133125, 50.8513434623069 ] } },
{ "type": "Feature", "properties": { "strassenschluessel": "05970000003207394", "bezeichnung": "Fasanenweg" }, "geometry": { "type": "Point", "coordinates": [ 8.219797510900744, 50.8569824710546 ] } },
{ "type": "Feature", "properties": { "strassenschluessel": "05970000003207395", "bezeichnung": "Feldstraße" }, "geometry": { "type": "Point", "coordinates": [ 8.21234308789936, 50.854175033933892 ] } },
{ "type": "Feature", "properties": { "strassenschluessel": "05970000003207396", "bezeichnung": "Forststraße" }, "geometry": { "type": "Point", "coordinates": [ 8.220536720873769, 50.854988650348503 ] } },
{ "type": "Feature", "properties": { "strassenschluessel": "05970000003207397", "bezeichnung": "Gießener Straße" }, "geometry": { "type": "Point", "coordinates": [ 8.219171062124095, 50.85498381995211 ] } },
{ "type": "Feature", "properties": { "strassenschluessel": "05970000003207398", "bezeichnung": "In der Sang" }, "geometry": { "type": "Point", "coordinates": [ 8.220533295200338, 50.854393001164162 ] } },
{ "type": "Feature", "properties": { "strassenschluessel": "05970000003207399", "bezeichnung": "Kampenstraße" }, "geometry": { "type": "Point", "coordinates": [ 8.212418133086095, 50.852652233268316 ] } },
{ "type": "Feature", "properties": { "strassenschluessel": "05970000003207400", "bezeichnung": "Kirchweg" }, "geometry": { "type": "Point", "coordinates": [ 8.207396806999922, 50.855551030212986 ] } },
{ "type": "Feature", "properties": { "strassenschluessel": "05970000003207401", "bezeichnung": "Kurze Straße" }, "geometry": { "type": "Point", "coordinates": [ 8.215944207756756, 50.854685474562309 ] } },
{ "type": "Feature", "properties": { "strassenschluessel": "05970000003207402", "bezeichnung": "Meisenweg" }, "geometry": { "type": "Point", "coordinates": [ 8.210620799126584, 50.854245241709222 ] } },
{ "type": "Feature", "properties": { "strassenschluessel": "05970000003207403", "bezeichnung": "Poststraße" }, "geometry": { "type": "Point", "coordinates": [ 8.215431251987441, 50.853359900632206 ] } },
{ "type": "Feature", "properties": { "strassenschluessel": "05970000003207404", "bezeichnung": "Querstraße" }, "geometry": { "type": "Point", "coordinates": [ 8.213756667730683, 50.852845037610876 ] } },
{ "type": "Feature", "properties": { "strassenschluessel": "05970000003207405", "bezeichnung": "Schloßstraße" }, "geometry": { "type": "Point", "coordinates": [ 8.221186868308408, 50.853281094487642 ] } },
{ "type": "Feature", "properties": { "strassenschluessel": "05970000003207406", "bezeichnung": "Sohler Weg" }, "geometry": { "type": "Point", "coordinates": [ 8.220698878557515, 50.856591484161434 ] } },
{ "type": "Feature", "properties": { "strassenschluessel": "05970000003207407", "bezeichnung": "Von-Bicken-Weg" }, "geometry": { "type": "Point", "coordinates": [ 8.214627935085812, 50.85508538722604 ] } },
{ "type": "Feature", "properties": { "strassenschluessel": "05970000003207408", "bezeichnung": "Vor den Kreuzen" }, "geometry": { "type": "Point", "coordinates": [ 8.20226265405342, 50.859609696756188 ] } },
{ "type": "Feature", "properties": { "strassenschluessel": "05970000003207409", "bezeichnung": "Vorm Eichhölzchen" }, "geometry": { "type": "Point", "coordinates": [ 8.216012494248991, 50.858297335070787 ] } },
{ "type": "Feature", "properties": { "strassenschluessel": "05970000003207410", "bezeichnung": "Schubertweg" }, "geometry": null },
{ "type": "Feature", "properties": { "strassenschluessel": "05970000003207411", "bezeichnung": "Südstraße" }, "geometry": { "type": "Point", "coordinates": [ 8.215585621229247, 50.85193963766006 ] } },
{ "type": "Feature", "properties": { "strassenschluessel": "05970000003207412", "bezeichnung": "Veilchenweg" }, "geometry": null },
{ "type": "Feature", "properties": { "strassenschluessel": "05970000003207413", "bezeichnung": "Vorm Buchwald" }, "geometry": { "type": "Point", "coordinates": [ 8.217056710049809, 50.852882412474251 ] } },
{ "type": "Feature", "properties": { "strassenschluessel": "05970000003207414", "bezeichnung": "Drieschweg" }, "geometry": { "type": "Point", "coordinates": [ 8.210685283103039, 50.854640915717916 ] } },
{ "type": "Feature", "properties": { "strassenschluessel": "05970000003207415", "bezeichnung": "Zu den Querplätzen" }, "geometry": { "type": "Point", "coordinates": [ 8.214624515194167, 50.855865039190277 ] } },
{ "type": "Feature", "properties": { "strassenschluessel": "05970000003207416", "bezeichnung": "Bickwiese" }, "geometry": { "type": "Point", "coordinates": [ 8.218006587161891, 50.855182311170495 ] } },
{ "type": "Feature", "properties": { "strassenschluessel": "05970000003207417", "bezeichnung": "Stückeplätze" }, "geometry": { "type": "Point", "coordinates": [ 8.210391585743526, 50.855791494637096 ] } },
{ "type": "Feature", "properties": { "strassenschluessel": "05970000003207418", "bezeichnung": "Unter der Bergkaute" }, "geometry": { "type": "Point", "coordinates": [ 8.220578796056653, 50.855619773762371 ] } },
{ "type": "Feature", "properties": { "strassenschluessel": "05970000003207431", "bezeichnung": "Baumhofstraße" }, "geometry": { "type": "Point", "coordinates": [ 8.18275759657857, 50.866354833771588 ] } },
{ "type": "Feature", "properties": { "strassenschluessel": "05970000003207432", "bezeichnung": "Elisabethweg" }, "geometry": { "type": "Point", "coordinates": [ 8.178438454798915, 50.866765531716169 ] } },
{ "type": "Feature", "properties": { "strassenschluessel": "05970000003207433", "bezeichnung": "Frankfurter Straße" }, "geometry": { "type": "Point", "coordinates": [ 8.176530683392821, 50.867318684629254 ] } },
{ "type": "Feature", "properties": { "strassenschluessel": "05970000003207434", "bezeichnung": "Gernsdorfer Straße" }, "geometry": { "type": "Point", "coordinates": [ 8.179306357159337, 50.866565349663979 ] } },
{ "type": "Feature", "properties": { "strassenschluessel": "05970000003207435", "bezeichnung": "Helgersdorfer Straße" }, "geometry": { "type": "Point", "coordinates": [ 8.179575477478739, 50.867866543786 ] } },
{ "type": "Feature", "properties": { "strassenschluessel": "05970000003207436", "bezeichnung": "Ländchenstraße" }, "geometry": { "type": "Point", "coordinates": [ 8.180632054816407, 50.864815707697211 ] } },
{ "type": "Feature", "properties": { "strassenschluessel": "05970000003207437", "bezeichnung": "Sangstraße" }, "geometry": { "type": "Point", "coordinates": [ 8.181535347892956, 50.866397906373834 ] } },
{ "type": "Feature", "properties": { "strassenschluessel": "05970000003207438", "bezeichnung": "Börnchenweg" }, "geometry": { "type": "Point", "coordinates": [ 8.180836280392811, 50.863332018317038 ] } },
{ "type": "Feature", "properties": { "strassenschluessel": "05970000003207439", "bezeichnung": "Sohlstättenweg" }, "geometry": { "type": "Point", "coordinates": [ 8.186046861033033, 50.866017770470691 ] } },
{ "type": "Feature", "properties": { "strassenschluessel": "05970000003207440", "bezeichnung": "Fuhrmannsweg" }, "geometry": { "type": "Point", "coordinates": [ 8.189792748479107, 50.862981627936705 ] } },
{ "type": "Feature", "properties": { "strassenschluessel": "05970000003207451", "bezeichnung": "Am Gottstuhl" }, "geometry": { "type": "Point", "coordinates": [ 8.080510266811476, 50.953588686525308 ] } },
{ "type": "Feature", "properties": { "strassenschluessel": "05970000003207452", "bezeichnung": "An der Dreisbach" }, "geometry": { "type": "Point", "coordinates": [ 8.084761425953625, 50.9515549827575 ] } },
{ "type": "Feature", "properties": { "strassenschluessel": "05970000003207453", "bezeichnung": "Dirlenbacher Weg" }, "geometry": { "type": "Point", "coordinates": [ 8.085720535627985, 50.953145742153964 ] } },
{ "type": "Feature", "properties": { "strassenschluessel": "05970000003207454", "bezeichnung": "Ferndorfstraße" }, "geometry": { "type": "Point", "coordinates": [ 8.081640934027533, 50.951313597740139 ] } },
{ "type": "Feature", "properties": { "strassenschluessel": "05970000003207455", "bezeichnung": "Hilchenbacher Straße" }, "geometry": { "type": "Point", "coordinates": [ 8.082347741164886, 50.950967345781244 ] } },
{ "type": "Feature", "properties": { "strassenschluessel": "05970000003207456", "bezeichnung": "Höfenstraße" }, "geometry": { "type": "Point", "coordinates": [ 8.083800098868181, 50.950598748372485 ] } },
{ "type": "Feature", "properties": { "strassenschluessel": "05970000003207457", "bezeichnung": "Hof Buchen" }, "geometry": { "type": "Point", "coordinates": [ 8.085991585172067, 50.969198493145861 ] } },
{ "type": "Feature", "properties": { "strassenschluessel": "05970000003207458", "bezeichnung": "Hof Maustal" }, "geometry": { "type": "Point", "coordinates": [ 8.088854196410141, 50.964947361209745 ] } },
{ "type": "Feature", "properties": { "strassenschluessel": "05970000003207459", "bezeichnung": "Im Distelfeld" }, "geometry": { "type": "Point", "coordinates": [ 8.081222806390906, 50.952480975320931 ] } },
{ "type": "Feature", "properties": { "strassenschluessel": "05970000003207460", "bezeichnung": "Jägerstraße" }, "geometry": { "type": "Point", "coordinates": [ 8.083928752774263, 50.954364480519473 ] } },
{ "type": "Feature", "properties": { "strassenschluessel": "05970000003207461", "bezeichnung": "Kapellenstraße" }, "geometry": { "type": "Point", "coordinates": [ 8.081922025322909, 50.949535851117581 ] } },
{ "type": "Feature", "properties": { "strassenschluessel": "05970000003207462", "bezeichnung": "Nelkenweg" }, "geometry": { "type": "Point", "coordinates": [ 8.083518237181639, 50.944294747917844 ] } },
{ "type": "Feature", "properties": { "strassenschluessel": "05970000003207463", "bezeichnung": "Vor der Winterbach" }, "geometry": { "type": "Point", "coordinates": [ 8.082178609059126, 50.958162591889653 ] } },
{ "type": "Feature", "properties": { "strassenschluessel": "05970000003207464", "bezeichnung": "An der Steinwiese" }, "geometry": { "type": "Point", "coordinates": [ 8.083423226752366, 50.954486368533914 ] } },
{ "type": "Feature", "properties": { "strassenschluessel": "05970000003207465", "bezeichnung": "Adam-Kreuz-Straße" }, "geometry": { "type": "Point", "coordinates": [ 8.087333635500979, 50.952935985013092 ] } },
{ "type": "Feature", "properties": { "strassenschluessel": "05970000003207466", "bezeichnung": "Zum Mannsberg" }, "geometry": { "type": "Point", "coordinates": [ 8.088166128992805, 50.952509439089731 ] } },
{ "type": "Feature", "properties": { "strassenschluessel": "05970000003207467", "bezeichnung": "Auf den Plätzen" }, "geometry": { "type": "Point", "coordinates": [ 8.085854458648551, 50.951674361916993 ] } },
{ "type": "Feature", "properties": { "strassenschluessel": "05970000003207468", "bezeichnung": "Vor dem Mannsberg" }, "geometry": { "type": "Point", "coordinates": [ 8.084748404632595, 50.950822632055896 ] } },
{ "type": "Feature", "properties": { "strassenschluessel": "05970000003207481", "bezeichnung": "Am Lindenhof" }, "geometry": { "type": "Point", "coordinates": [ 8.19969383758783, 50.854580871193932 ] } },
{ "type": "Feature", "properties": { "strassenschluessel": "05970000003207482", "bezeichnung": "Am Mühlenrain" }, "geometry": { "type": "Point", "coordinates": [ 8.198627363367358, 50.858777338025043 ] } },
{ "type": "Feature", "properties": { "strassenschluessel": "05970000003207483", "bezeichnung": "Amselweg" }, "geometry": { "type": "Point", "coordinates": [ 8.197396285026645, 50.858366419312723 ] } },
{ "type": "Feature", "properties": { "strassenschluessel": "05970000003207484", "bezeichnung": "Auf der Struth" }, "geometry": { "type": "Point", "coordinates": [ 8.199228367553792, 50.851371995365035 ] } },
{ "type": "Feature", "properties": { "strassenschluessel": "05970000003207485", "bezeichnung": "Blütenweg" }, "geometry": { "type": "Point", "coordinates": [ 8.19560545014788, 50.851074612862689 ] } },
{ "type": "Feature", "properties": { "strassenschluessel": "05970000003207486", "bezeichnung": "Dillenburger Straße" }, "geometry": { "type": "Point", "coordinates": [ 8.199916332760226, 50.855520931939623 ] } },
{ "type": "Feature", "properties": { "strassenschluessel": "05970000003207487", "bezeichnung": "Donnerburg" }, "geometry": { "type": "Point", "coordinates": [ 8.190967670455192, 50.852910174611353 ] } },
{ "type": "Feature", "properties": { "strassenschluessel": "05970000003207488", "bezeichnung": "Falkenweg" }, "geometry": { "type": "Point", "coordinates": [ 8.196573050380795, 50.857841037451649 ] } },
{ "type": "Feature", "properties": { "strassenschluessel": "05970000003207489", "bezeichnung": "Glockenstraße" }, "geometry": { "type": "Point", "coordinates": [ 8.195933944039158, 50.855990240660198 ] } },
{ "type": "Feature", "properties": { "strassenschluessel": "05970000003207490", "bezeichnung": "Herrenweg" }, "geometry": { "type": "Point", "coordinates": [ 8.197065902011559, 50.855968663112677 ] } },
{ "type": "Feature", "properties": { "strassenschluessel": "05970000003207491", "bezeichnung": "Im Pfarrfeld" }, "geometry": { "type": "Point", "coordinates": [ 8.196515623953152, 50.859186860963966 ] } },
{ "type": "Feature", "properties": { "strassenschluessel": "05970000003207492", "bezeichnung": "Im Stift" }, "geometry": { "type": "Point", "coordinates": [ 8.197331378597388, 50.854657147793858 ] } },
{ "type": "Feature", "properties": { "strassenschluessel": "05970000003207493", "bezeichnung": "Im Wiesengrund" }, "geometry": { "type": "Point", "coordinates": [ 8.200255086739553, 50.856389386985747 ] } },
{ "type": "Feature", "properties": { "strassenschluessel": "05970000003207494", "bezeichnung": "In der Eiche" }, "geometry": { "type": "Point", "coordinates": [ 8.200840258395704, 50.854513123779839 ] } },
{ "type": "Feature", "properties": { "strassenschluessel": "05970000003207495", "bezeichnung": "Koblenzer Straße" }, "geometry": { "type": "Point", "coordinates": [ 8.199271667422932, 50.854173861323737 ] } },
{ "type": "Feature", "properties": { "strassenschluessel": "05970000003207496", "bezeichnung": "Krummstück" }, "geometry": { "type": "Point", "coordinates": [ 8.195529021193403, 50.854358115924853 ] } },
{ "type": "Feature", "properties": { "strassenschluessel": "05970000003207497", "bezeichnung": "Rotdornweg" }, "geometry": { "type": "Point", "coordinates": [ 8.201824172049371, 50.855146383566819 ] } },
{ "type": "Feature", "properties": { "strassenschluessel": "05970000003207498", "bezeichnung": "Steilweg" }, "geometry": { "type": "Point", "coordinates": [ 8.198144444530699, 50.858692266686582 ] } },
{ "type": "Feature", "properties": { "strassenschluessel": "05970000003207499", "bezeichnung": "Wetzlarer Straße" }, "geometry": { "type": "Point", "coordinates": [ 8.200147641061987, 50.861030774653734 ] } },
{ "type": "Feature", "properties": { "strassenschluessel": "05970000003207500", "bezeichnung": "Gängelweg" }, "geometry": { "type": "Point", "coordinates": [ 8.196462071186364, 50.85539636264869 ] } },
{ "type": "Feature", "properties": { "strassenschluessel": "05970000003207501", "bezeichnung": "Hofäckerweg" }, "geometry": { "type": "Point", "coordinates": [ 8.19700325267288, 50.854565204347814 ] } },
{ "type": "Feature", "properties": { "strassenschluessel": "05970000003207502", "bezeichnung": "Schimmelfederweg" }, "geometry": { "type": "Point", "coordinates": [ 8.195236944771372, 50.858020431074543 ] } },
{ "type": "Feature", "properties": { "strassenschluessel": "05970000003207503", "bezeichnung": "Irmgarteichener Weg" }, "geometry": { "type": "Point", "coordinates": [ 8.198302923384709, 50.853600333929705 ] } },
{ "type": "Feature", "properties": { "strassenschluessel": "05970000003207504", "bezeichnung": "Seifenwiese" }, "geometry": { "type": "Point", "coordinates": [ 8.196715991766343, 50.852287159027753 ] } },
{ "type": "Feature", "properties": { "strassenschluessel": "05970000003207505", "bezeichnung": "Cäcilienweg" }, "geometry": { "type": "Point", "coordinates": [ 8.19850013746013, 50.85798439695003 ] } },
{ "type": "Feature", "properties": { "strassenschluessel": "05970000003207521", "bezeichnung": "Am Bühlskopf" }, "geometry": { "type": "Point", "coordinates": [ 8.18763748514081, 50.89491770560447 ] } },
{ "type": "Feature", "properties": { "strassenschluessel": "05970000003207522", "bezeichnung": "Auf der Ley" }, "geometry": { "type": "Point", "coordinates": [ 8.189160044185934, 50.893327240178543 ] } },
{ "type": "Feature", "properties": { "strassenschluessel": "05970000003207523", "bezeichnung": "Buchenweg" }, "geometry": { "type": "Point", "coordinates": [ 8.191150287090165, 50.896172588215499 ] } },
{ "type": "Feature", "properties": { "strassenschluessel": "05970000003207524", "bezeichnung": "Fuhrweg" }, "geometry": { "type": "Point", "coordinates": [ 8.189658689623338, 50.891214720983641 ] } },
{ "type": "Feature", "properties": { "strassenschluessel": "05970000003207525", "bezeichnung": "Gießestraße" }, "geometry": { "type": "Point", "coordinates": [ 8.186640608330551, 50.895675147333229 ] } },
{ "type": "Feature", "properties": { "strassenschluessel": "05970000003207526", "bezeichnung": "Hellerstraße" }, "geometry": { "type": "Point", "coordinates": [ 8.189988015824836, 50.890900593085654 ] } },
{ "type": "Feature", "properties": { "strassenschluessel": "05970000003207527", "bezeichnung": "Kirchfeldweg" }, "geometry": { "type": "Point", "coordinates": [ 8.195956373257673, 50.898018574136842 ] } },
{ "type": "Feature", "properties": { "strassenschluessel": "05970000003207528", "bezeichnung": "Jagdhütte" }, "geometry": { "type": "Point", "coordinates": [ 8.185964349955968, 50.894894710754784 ] } },
{ "type": "Feature", "properties": { "strassenschluessel": "05970000003207529", "bezeichnung": "Lahnhof" }, "geometry": { "type": "Point", "coordinates": [ 8.237166278881356, 50.889857982513256 ] } },
{ "type": "Feature", "properties": { "strassenschluessel": "05970000003207530", "bezeichnung": "Pappelweg" }, "geometry": { "type": "Point", "coordinates": [ 8.191651549378218, 50.893943325669291 ] } },
{ "type": "Feature", "properties": { "strassenschluessel": "05970000003207531", "bezeichnung": "Sehlbachstraße" }, "geometry": { "type": "Point", "coordinates": [ 8.19470299770771, 50.897198043510087 ] } },
{ "type": "Feature", "properties": { "strassenschluessel": "05970000003207532", "bezeichnung": "Sieg-Lahn-Straße" }, "geometry": { "type": "Point", "coordinates": [ 8.193749326896167, 50.896217374543127 ] } },
{ "type": "Feature", "properties": { "strassenschluessel": "05970000003207533", "bezeichnung": "Sonnenhof" }, "geometry": { "type": "Point", "coordinates": [ 8.195080474192064, 50.884960245861812 ] } },
{ "type": "Feature", "properties": { "strassenschluessel": "05970000003207534", "bezeichnung": "Stefanshof" }, "geometry": { "type": "Point", "coordinates": [ 8.189963568985265, 50.901018569134756 ] } },
{ "type": "Feature", "properties": { "strassenschluessel": "05970000003207535", "bezeichnung": "Wiesengarten" }, "geometry": { "type": "Point", "coordinates": [ 8.187091916648665, 50.892381584563715 ] } },
{ "type": "Feature", "properties": { "strassenschluessel": "05970000003207551", "bezeichnung": "Alexander-Vollmer-Straße" }, "geometry": { "type": "Point", "coordinates": [ 8.103960257824122, 50.91599167906935 ] } },
{ "type": "Feature", "properties": { "strassenschluessel": "05970000003207552", "bezeichnung": "Altwiese" }, "geometry": { "type": "Point", "coordinates": [ 8.108925382552709, 50.922997704392529 ] } },
{ "type": "Feature", "properties": { "strassenschluessel": "05970000003207553", "bezeichnung": "Am Bernstein" }, "geometry": { "type": "Point", "coordinates": [ 8.111689619015999, 50.906114883072554 ] } },
{ "type": "Feature", "properties": { "strassenschluessel": "05970000003207554", "bezeichnung": "Am Bösen Born" }, "geometry": { "type": "Point", "coordinates": [ 8.11701066356186, 50.912936079082726 ] } },
{ "type": "Feature", "properties": { "strassenschluessel": "05970000003207555", "bezeichnung": "Am Kirchrain" }, "geometry": { "type": "Point", "coordinates": [ 8.109212298151974, 50.91047349071345 ] } },
{ "type": "Feature", "properties": { "strassenschluessel": "05970000003207556", "bezeichnung": "Amtsstraße" }, "geometry": { "type": "Point", "coordinates": [ 8.102773316137634, 50.911582106412318 ] } },
{ "type": "Feature", "properties": { "strassenschluessel": "05970000003207557", "bezeichnung": "Am Wolfshain" }, "geometry": { "type": "Point", "coordinates": [ 8.095599453806425, 50.920333480872522 ] } },
{ "type": "Feature", "properties": { "strassenschluessel": "05970000003207558", "bezeichnung": "An der Netphe" }, "geometry": { "type": "Point", "coordinates": [ 8.104624019329712, 50.917466275329964 ] } },
{ "type": "Feature", "properties": { "strassenschluessel": "05970000003207559", "bezeichnung": "An der Obernau" }, "geometry": { "type": "Point", "coordinates": [ 8.113851973667574, 50.912257548926661 ] } },
{ "type": "Feature", "properties": { "strassenschluessel": "05970000003207560", "bezeichnung": "An der Sieg" }, "geometry": { "type": "Point", "coordinates": [ 8.106797686090045, 50.909794993783763 ] } },
{ "type": "Feature", "properties": { "strassenschluessel": "05970000003207561", "bezeichnung": "Anton-Gabriel-Straße" }, "geometry": { "type": "Point", "coordinates": [ 8.101921037529385, 50.914562253408469 ] } },
{ "type": "Feature", "properties": { "strassenschluessel": "05970000003207562", "bezeichnung": "Auf den Sindern" }, "geometry": { "type": "Point", "coordinates": [ 8.106811081436758, 50.920788177259745 ] } },
{ "type": "Feature", "properties": { "strassenschluessel": "05970000003207563", "bezeichnung": "Bahnhofstraße" }, "geometry": { "type": "Point", "coordinates": [ 8.099967180464605, 50.912859805760789 ] } },
{ "type": "Feature", "properties": { "strassenschluessel": "05970000003207564", "bezeichnung": "Bergstraße" }, "geometry": { "type": "Point", "coordinates": [ 8.103395610573576, 50.91937290151828 ] } },
{ "type": "Feature", "properties": { "strassenschluessel": "05970000003207565", "bezeichnung": "Brauersdorfer Straße" }, "geometry": { "type": "Point", "coordinates": [ 8.11133701860307, 50.912075069367567 ] } },
{ "type": "Feature", "properties": { "strassenschluessel": "05970000003207566", "bezeichnung": "Breslauer Straße" }, "geometry": { "type": "Point", "coordinates": [ 8.12451185351568, 50.91260529994014 ] } },
{ "type": "Feature", "properties": { "strassenschluessel": "05970000003207567", "bezeichnung": "Bühler Weg" }, "geometry": { "type": "Point", "coordinates": [ 8.123709949649399, 50.912995077371484 ] } },
{ "type": "Feature", "properties": { "strassenschluessel": "05970000003207568", "bezeichnung": "Burggrabenstraße" }, "geometry": { "type": "Point", "coordinates": [ 8.09768371036103, 50.917761921934542 ] } },
{ "type": "Feature", "properties": { "strassenschluessel": "05970000003207569", "bezeichnung": "Dammstraße" }, "geometry": { "type": "Point", "coordinates": [ 8.099434687100389, 50.912975412636982 ] } },
{ "type": "Feature", "properties": { "strassenschluessel": "05970000003207570", "bezeichnung": "Danziger Straße" }, "geometry": { "type": "Point", "coordinates": [ 8.11803234576675, 50.913789992755277 ] } },
{ "type": "Feature", "properties": { "strassenschluessel": "05970000003207571", "bezeichnung": "Diesterwegstraße" }, "geometry": { "type": "Point", "coordinates": [ 8.111030664770507, 50.912970934679493 ] } },
{ "type": "Feature", "properties": { "strassenschluessel": "05970000003207572", "bezeichnung": "Erlenweg" }, "geometry": { "type": "Point", "coordinates": [ 8.09756017387979, 50.922032410019945 ] } },
{ "type": "Feature", "properties": { "strassenschluessel": "05970000003207573", "bezeichnung": "Frohnhausener Straße" }, "geometry": { "type": "Point", "coordinates": [ 8.096457570046082, 50.91662742442292 ] } },
{ "type": "Feature", "properties": { "strassenschluessel": "05970000003207574", "bezeichnung": "Glückaufstraße" }, "geometry": { "type": "Point", "coordinates": [ 8.104129314196054, 50.91515318755836 ] } },
{ "type": "Feature", "properties": { "strassenschluessel": "05970000003207575", "bezeichnung": "Güldenweg" }, "geometry": { "type": "Point", "coordinates": [ 8.115731287783667, 50.914983061659214 ] } },
{ "type": "Feature", "properties": { "strassenschluessel": "05970000003207576", "bezeichnung": "Haardtstraße" }, "geometry": { "type": "Point", "coordinates": [ 8.099860599073684, 50.917491007420438 ] } },
{ "type": "Feature", "properties": { "strassenschluessel": "05970000003207577", "bezeichnung": "Hasenweg" }, "geometry": { "type": "Point", "coordinates": [ 8.098784525323756, 50.921446225147768 ] } },
{ "type": "Feature", "properties": { "strassenschluessel": "05970000003207578", "bezeichnung": "Hochstraße" }, "geometry": { "type": "Point", "coordinates": [ 8.101813319641451, 50.916831077828498 ] } },
{ "type": "Feature", "properties": { "strassenschluessel": "05970000003207579", "bezeichnung": "Hochwiese" }, "geometry": { "type": "Point", "coordinates": [ 8.107211373263242, 50.921103065615071 ] } },
{ "type": "Feature", "properties": { "strassenschluessel": "05970000003207580", "bezeichnung": "Höhenstraße" }, "geometry": { "type": "Point", "coordinates": [ 8.102459457745146, 50.918814303354523 ] } },
{ "type": "Feature", "properties": { "strassenschluessel": "05970000003207581", "bezeichnung": "Hofstraße" }, "geometry": { "type": "Point", "coordinates": [ 8.098072531152837, 50.914753586927667 ] } },
{ "type": "Feature", "properties": { "strassenschluessel": "05970000003207582", "bezeichnung": "Hohen Rain" }, "geometry": { "type": "Point", "coordinates": [ 8.105066060844363, 50.921982698407128 ] } },
{ "type": "Feature", "properties": { "strassenschluessel": "05970000003207583", "bezeichnung": "Hubertusweg" }, "geometry": { "type": "Point", "coordinates": [ 8.091862593534682, 50.916544040989081 ] } },
{ "type": "Feature", "properties": { "strassenschluessel": "05970000003207584", "bezeichnung": "Im Nassen" }, "geometry": { "type": "Point", "coordinates": [ 8.111809387335059, 50.914180500900983 ] } },
{ "type": "Feature", "properties": { "strassenschluessel": "05970000003207585", "bezeichnung": "Im Steingarten" }, "geometry": { "type": "Point", "coordinates": [ 8.107968449054496, 50.912330156113832 ] } },
{ "type": "Feature", "properties": { "strassenschluessel": "05970000003207586", "bezeichnung": "In den Weidenbäumen" }, "geometry": { "type": "Point", "coordinates": [ 8.11424537713344, 50.913499039040438 ] } },
{ "type": "Feature", "properties": { "strassenschluessel": "05970000003207587", "bezeichnung": "In der Jungen Ecke" }, "geometry": { "type": "Point", "coordinates": [ 8.115901317051934, 50.913412902433606 ] } },
{ "type": "Feature", "properties": { "strassenschluessel": "05970000003207588", "bezeichnung": "Jahnstraße" }, "geometry": { "type": "Point", "coordinates": [ 8.105948197392486, 50.917163030578116 ] } },
{ "type": "Feature", "properties": { "strassenschluessel": "05970000003207589", "bezeichnung": "Wilhelm-Bulk-Straße" }, "geometry": { "type": "Point", "coordinates": [ 8.097992621408091, 50.917586124381678 ] } },
{ "type": "Feature", "properties": { "strassenschluessel": "05970000003207590", "bezeichnung": "Katharina-Diez-Straße" }, "geometry": { "type": "Point", "coordinates": [ 8.09807499970365, 50.91686822258859 ] } },
{ "type": "Feature", "properties": { "strassenschluessel": "05970000003207591", "bezeichnung": "Kreuzbergstraße" }, "geometry": { "type": "Point", "coordinates": [ 8.107104501542333, 50.91822245981416 ] } },
{ "type": "Feature", "properties": { "strassenschluessel": "05970000003207592", "bezeichnung": "Kronprinzenstraße" }, "geometry": { "type": "Point", "coordinates": [ 8.094907244122453, 50.915317549261466 ] } },
{ "type": "Feature", "properties": { "strassenschluessel": "05970000003207593", "bezeichnung": "Lahnstraße" }, "geometry": { "type": "Point", "coordinates": [ 8.101881549605315, 50.912860842427406 ] } },
{ "type": "Feature", "properties": { "strassenschluessel": "05970000003207594", "bezeichnung": "Leipziger Straße" }, "geometry": { "type": "Point", "coordinates": [ 8.121871148845917, 50.914437294181624 ] } },
{ "type": "Feature", "properties": { "strassenschluessel": "05970000003207595", "bezeichnung": "Lindenweg" }, "geometry": { "type": "Point", "coordinates": [ 8.098255902945111, 50.922224089998913 ] } },
{ "type": "Feature", "properties": { "strassenschluessel": "05970000003207596", "bezeichnung": "Carl-Weyland-Straße" }, "geometry": { "type": "Point", "coordinates": [ 8.099131649246296, 50.915636912727678 ] } },
{ "type": "Feature", "properties": { "strassenschluessel": "05970000003207597", "bezeichnung": "Marktplatz" }, "geometry": { "type": "Point", "coordinates": [ 8.108474709817138, 50.91130332446955 ] } },
{ "type": "Feature", "properties": { "strassenschluessel": "05970000003207598", "bezeichnung": "Müdersbergstraße" }, "geometry": { "type": "Point", "coordinates": [ 8.095548145739413, 50.916901598824012 ] } },
{ "type": "Feature", "properties": { "strassenschluessel": "05970000003207599", "bezeichnung": "Mühlenbachstraße" }, "geometry": { "type": "Point", "coordinates": [ 8.097922987640237, 50.914535317006241 ] } },
{ "type": "Feature", "properties": { "strassenschluessel": "05970000003207600", "bezeichnung": "Neuwiese" }, "geometry": { "type": "Point", "coordinates": [ 8.096203866345974, 50.914061965257154 ] } },
{ "type": "Feature", "properties": { "strassenschluessel": "05970000003207601", "bezeichnung": "Obere Industriestraße" }, "geometry": { "type": "Point", "coordinates": [ 8.091332238157101, 50.911387318260026 ] } },
{ "type": "Feature", "properties": { "strassenschluessel": "05970000003207602", "bezeichnung": "Oranienstraße" }, "geometry": { "type": "Point", "coordinates": [ 8.099030119730751, 50.913314074059613 ] } },
{ "type": "Feature", "properties": { "strassenschluessel": "05970000003207603", "bezeichnung": "Ritterstraße" }, "geometry": { "type": "Point", "coordinates": [ 8.100742614125856, 50.91684091188074 ] } },
{ "type": "Feature", "properties": { "strassenschluessel": "05970000003207604", "bezeichnung": "Rosenstraße" }, "geometry": { "type": "Point", "coordinates": [ 8.095487465031114, 50.918600643704281 ] } },
{ "type": "Feature", "properties": { "strassenschluessel": "05970000003207605", "bezeichnung": "Sandhellerweg" }, "geometry": { "type": "Point", "coordinates": [ 8.123863770494927, 50.914287200112156 ] } },
{ "type": "Feature", "properties": { "strassenschluessel": "05970000003207606", "bezeichnung": "Sankt-Peters-Platz" }, "geometry": { "type": "Point", "coordinates": [ 8.098032785704971, 50.913993374214918 ] } },
{ "type": "Feature", "properties": { "strassenschluessel": "05970000003207607", "bezeichnung": "Schillerstraße" }, "geometry": { "type": "Point", "coordinates": [ 8.101168543965024, 50.914491921086281 ] } },
{ "type": "Feature", "properties": { "strassenschluessel": "05970000003207608", "bezeichnung": "Schömelstraße" }, "geometry": { "type": "Point", "coordinates": [ 8.106590460703037, 50.915577300008373 ] } },
{ "type": "Feature", "properties": { "strassenschluessel": "05970000003207609", "bezeichnung": "Seitenweg" }, "geometry": { "type": "Point", "coordinates": [ 8.108849159548857, 50.912598331020163 ] } },
{ "type": "Feature", "properties": { "strassenschluessel": "05970000003207610", "bezeichnung": "Sonnenweg" }, "geometry": { "type": "Point", "coordinates": [ 8.108772469770519, 50.912874096146012 ] } },
{ "type": "Feature", "properties": { "strassenschluessel": "05970000003207611", "bezeichnung": "Steinweg" }, "geometry": { "type": "Point", "coordinates": [ 8.104962995430924, 50.912271875910342 ] } },
{ "type": "Feature", "properties": { "strassenschluessel": "05970000003207612", "bezeichnung": "Sternweg" }, "geometry": { "type": "Point", "coordinates": [ 8.111848483736512, 50.913135423961243 ] } },
{ "type": "Feature", "properties": { "strassenschluessel": "05970000003207613", "bezeichnung": "Talstraße" }, "geometry": { "type": "Point", "coordinates": [ 8.100405201452434, 50.912858685123418 ] } },
{ "type": "Feature", "properties": { "strassenschluessel": "05970000003207614", "bezeichnung": "Uferstraße" }, "geometry": { "type": "Point", "coordinates": [ 8.097152271798434, 50.913760245315373 ] } },
{ "type": "Feature", "properties": { "strassenschluessel": "05970000003207615", "bezeichnung": "Uhlandstraße" }, "geometry": { "type": "Point", "coordinates": [ 8.098224957274745, 50.916241868329379 ] } },
{ "type": "Feature", "properties": { "strassenschluessel": "05970000003207616", "bezeichnung": "Unterm Wasser" }, "geometry": { "type": "Point", "coordinates": [ 8.089741831548197, 50.911444750157514 ] } },
{ "type": "Feature", "properties": { "strassenschluessel": "05970000003207617", "bezeichnung": "Waldenburger Straße" }, "geometry": { "type": "Point", "coordinates": [ 8.120987800999947, 50.912700962358322 ] } },
{ "type": "Feature", "properties": { "strassenschluessel": "05970000003207618", "bezeichnung": "Weideweg" }, "geometry": { "type": "Point", "coordinates": [ 8.099155024218026, 50.917511204326516 ] } },
{ "type": "Feature", "properties": { "strassenschluessel": "05970000003207619", "bezeichnung": "Knospenweg" }, "geometry": { "type": "Point", "coordinates": [ 8.095305935393064, 50.917877137948309 ] } },
{ "type": "Feature", "properties": { "strassenschluessel": "05970000003207620", "bezeichnung": "Wiedichstraße" }, "geometry": { "type": "Point", "coordinates": [ 8.10752334371208, 50.919903988381442 ] } },
{ "type": "Feature", "properties": { "strassenschluessel": "05970000003207621", "bezeichnung": "Ziegeleistraße" }, "geometry": { "type": "Point", "coordinates": [ 8.095734371317636, 50.916199619902656 ] } },
{ "type": "Feature", "properties": { "strassenschluessel": "05970000003207622", "bezeichnung": "Zum Nöchel" }, "geometry": null },
{ "type": "Feature", "properties": { "strassenschluessel": "05970000003207623", "bezeichnung": "Zum Raumwäldchen" }, "geometry": { "type": "Point", "coordinates": [ 8.093141132892466, 50.909646855988576 ] } },
{ "type": "Feature", "properties": { "strassenschluessel": "05970000003207624", "bezeichnung": "Zur Ehreneiche" }, "geometry": { "type": "Point", "coordinates": [ 8.115039922782444, 50.916112775077174 ] } },
{ "type": "Feature", "properties": { "strassenschluessel": "05970000003207625", "bezeichnung": "Elisabeth-Grube-Straße" }, "geometry": { "type": "Point", "coordinates": [ 8.103952947840707, 50.912633699058546 ] } },
{ "type": "Feature", "properties": { "strassenschluessel": "05970000003207626", "bezeichnung": "Stauffenbergstraße" }, "geometry": { "type": "Point", "coordinates": [ 8.094435762489068, 50.921460267587371 ] } },
{ "type": "Feature", "properties": { "strassenschluessel": "05970000003207627", "bezeichnung": "Dahlienweg" }, "geometry": { "type": "Point", "coordinates": [ 8.107216546168491, 50.920252921506147 ] } },
{ "type": "Feature", "properties": { "strassenschluessel": "05970000003207628", "bezeichnung": "Gustav-Faber-Straße" }, "geometry": { "type": "Point", "coordinates": [ 8.095664719876858, 50.919431931289964 ] } },
{ "type": "Feature", "properties": { "strassenschluessel": "05970000003207629", "bezeichnung": "Im Wellerseifen" }, "geometry": { "type": "Point", "coordinates": [ 8.095958889777988, 50.921739356044334 ] } },
{ "type": "Feature", "properties": { "strassenschluessel": "05970000003207630", "bezeichnung": "Tulpenweg" }, "geometry": { "type": "Point", "coordinates": [ 8.107702803907683, 50.919288846330971 ] } },
{ "type": "Feature", "properties": { "strassenschluessel": "05970000003207631", "bezeichnung": "Im Börnchen" }, "geometry": { "type": "Point", "coordinates": [ 8.104638443152391, 50.920889577079556 ] } },
{ "type": "Feature", "properties": { "strassenschluessel": "05970000003207632", "bezeichnung": "Köhlerweg" }, "geometry": { "type": "Point", "coordinates": [ 8.078117945400427, 50.909051162815352 ] } },
{ "type": "Feature", "properties": { "strassenschluessel": "05970000003207633", "bezeichnung": "Neumarkt" }, "geometry": { "type": "Point", "coordinates": [ 8.103836123914228, 50.911600934606525 ] } },
{ "type": "Feature", "properties": { "strassenschluessel": "05970000003207634", "bezeichnung": "An der Braas" }, "geometry": { "type": "Point", "coordinates": [ 8.097794036792973, 50.912101436748529 ] } },
{ "type": "Feature", "properties": { "strassenschluessel": "05970000003207635", "bezeichnung": "Brandenburger Weg" }, "geometry": { "type": "Point", "coordinates": [ 8.116319005424325, 50.914853697728532 ] } },
{ "type": "Feature", "properties": { "strassenschluessel": "05970000003207636", "bezeichnung": "Görlitzer Weg" }, "geometry": { "type": "Point", "coordinates": [ 8.11666936987192, 50.915066871591932 ] } },
{ "type": "Feature", "properties": { "strassenschluessel": "05970000003207637", "bezeichnung": "Königsberger Straße" }, "geometry": { "type": "Point", "coordinates": [ 8.120999093860304, 50.91436461671271 ] } },
{ "type": "Feature", "properties": { "strassenschluessel": "05970000003207638", "bezeichnung": "Stettiner Straße" }, "geometry": { "type": "Point", "coordinates": [ 8.12344239747204, 50.914919723744987 ] } },
{ "type": "Feature", "properties": { "strassenschluessel": "05970000003207639", "bezeichnung": "Tilsiter Straße" }, "geometry": { "type": "Point", "coordinates": [ 8.120022007306464, 50.915049696939477 ] } },
{ "type": "Feature", "properties": { "strassenschluessel": "05970000003207640", "bezeichnung": "Töpferweg" }, "geometry": { "type": "Point", "coordinates": [ 8.105367739261181, 50.919957707911493 ] } },
{ "type": "Feature", "properties": { "strassenschluessel": "05970000003207641", "bezeichnung": "Bonhoefferstraße" }, "geometry": { "type": "Point", "coordinates": [ 8.094444888038149, 50.918618434814377 ] } },
{ "type": "Feature", "properties": { "strassenschluessel": "05970000003207642", "bezeichnung": "Geschwister-Scholl-Straße" }, "geometry": { "type": "Point", "coordinates": [ 8.092878168926763, 50.919055565264053 ] } },
{ "type": "Feature", "properties": { "strassenschluessel": "05970000003207643", "bezeichnung": "Goerdelerstraße" }, "geometry": { "type": "Point", "coordinates": [ 8.096658345127606, 50.921833564965617 ] } },
{ "type": "Feature", "properties": { "strassenschluessel": "05970000003207644", "bezeichnung": "Leuschnerstraße" }, "geometry": { "type": "Point", "coordinates": [ 8.096234489282271, 50.920726871202525 ] } },
{ "type": "Feature", "properties": { "strassenschluessel": "05970000003207645", "bezeichnung": "Von-Galen-Straße" }, "geometry": { "type": "Point", "coordinates": [ 8.093715577271464, 50.918238790256702 ] } },
{ "type": "Feature", "properties": { "strassenschluessel": "05970000003207646", "bezeichnung": "Adolf-Kolping-Weg" }, "geometry": { "type": "Point", "coordinates": [ 8.113588033042705, 50.917328529923267 ] } },
{ "type": "Feature", "properties": { "strassenschluessel": "05970000003207647", "bezeichnung": "Bodelschwinghstraße" }, "geometry": { "type": "Point", "coordinates": [ 8.11314543636213, 50.914807269861946 ] } },
{ "type": "Feature", "properties": { "strassenschluessel": "05970000003207648", "bezeichnung": "Carl-Sonnenschein-Weg" }, "geometry": { "type": "Point", "coordinates": [ 8.112265466137762, 50.915243660290109 ] } },
{ "type": "Feature", "properties": { "strassenschluessel": "05970000003207649", "bezeichnung": "Franz-Hitze-Weg" }, "geometry": { "type": "Point", "coordinates": [ 8.111098430255284, 50.915297821014164 ] } },
{ "type": "Feature", "properties": { "strassenschluessel": "05970000003207650", "bezeichnung": "Heinrich-Brauns-Weg" }, "geometry": { "type": "Point", "coordinates": [ 8.112591366403793, 50.916276313776315 ] } },
{ "type": "Feature", "properties": { "strassenschluessel": "05970000003207651", "bezeichnung": "Kettelerstraße" }, "geometry": { "type": "Point", "coordinates": [ 8.112562628471366, 50.915992928483476 ] } },
{ "type": "Feature", "properties": { "strassenschluessel": "05970000003207652", "bezeichnung": "Oberlinweg" }, "geometry": { "type": "Point", "coordinates": [ 8.109350115026952, 50.91726506511695 ] } },
{ "type": "Feature", "properties": { "strassenschluessel": "05970000003207653", "bezeichnung": "Raiffeisenweg" }, "geometry": { "type": "Point", "coordinates": [ 8.113313809189082, 50.914067681513153 ] } },
{ "type": "Feature", "properties": { "strassenschluessel": "05970000003207654", "bezeichnung": "Theodor-Fliedner-Weg" }, "geometry": { "type": "Point", "coordinates": [ 8.111480764159973, 50.9170194178636 ] } },
{ "type": "Feature", "properties": { "strassenschluessel": "05970000003207655", "bezeichnung": "Wichernstraße" }, "geometry": { "type": "Point", "coordinates": [ 8.108609182924457, 50.916221896565609 ] } },
{ "type": "Feature", "properties": { "strassenschluessel": "05970000003207656", "bezeichnung": "Nell-Breuning-Weg" }, "geometry": { "type": "Point", "coordinates": [ 8.115136005764182, 50.915841919252799 ] } },
{ "type": "Feature", "properties": { "strassenschluessel": "05970000003207657", "bezeichnung": "Von-Moltke-Straße" }, "geometry": { "type": "Point", "coordinates": [ 8.093222154298536, 50.921258923466041 ] } },
{ "type": "Feature", "properties": { "strassenschluessel": "05970000003207671", "bezeichnung": "Am Bornacker" }, "geometry": { "type": "Point", "coordinates": [ 8.085847115762144, 50.924650462316833 ] } },
{ "type": "Feature", "properties": { "strassenschluessel": "05970000003207672", "bezeichnung": "Am Hainberg" }, "geometry": { "type": "Point", "coordinates": [ 8.080199321818068, 50.939115179345933 ] } },
{ "type": "Feature", "properties": { "strassenschluessel": "05970000003207673", "bezeichnung": "Auf der Schütze" }, "geometry": { "type": "Point", "coordinates": [ 8.09015450826981, 50.924043985740937 ] } },
{ "type": "Feature", "properties": { "strassenschluessel": "05970000003207674", "bezeichnung": "Bogenstraße" }, "geometry": { "type": "Point", "coordinates": [ 8.086745053946819, 50.924819549038759 ] } },
{ "type": "Feature", "properties": { "strassenschluessel": "05970000003207675", "bezeichnung": "Eckmannshausener Straße" }, "geometry": { "type": "Point", "coordinates": [ 8.091521382322636, 50.92411992578279 ] } },
{ "type": "Feature", "properties": { "strassenschluessel": "05970000003207676", "bezeichnung": "Hömbergstraße" }, "geometry": { "type": "Point", "coordinates": [ 8.08843455292792, 50.924602686942151 ] } },
{ "type": "Feature", "properties": { "strassenschluessel": "05970000003207677", "bezeichnung": "Im Höfchen" }, "geometry": { "type": "Point", "coordinates": [ 8.091668627125312, 50.924451864263247 ] } },
{ "type": "Feature", "properties": { "strassenschluessel": "05970000003207678", "bezeichnung": "Im Köppengarten" }, "geometry": { "type": "Point", "coordinates": [ 8.085111504916965, 50.924645914884884 ] } },
{ "type": "Feature", "properties": { "strassenschluessel": "05970000003207679", "bezeichnung": "Im Winkel" }, "geometry": { "type": "Point", "coordinates": [ 8.090984560505213, 50.924504688514823 ] } },
{ "type": "Feature", "properties": { "strassenschluessel": "05970000003207680", "bezeichnung": "Schürenstraße" }, "geometry": { "type": "Point", "coordinates": [ 8.092245529281136, 50.924645856964283 ] } },
{ "type": "Feature", "properties": { "strassenschluessel": "05970000003207681", "bezeichnung": "Viehweg" }, "geometry": { "type": "Point", "coordinates": [ 8.089215781238847, 50.926068853125614 ] } },
{ "type": "Feature", "properties": { "strassenschluessel": "05970000003207682", "bezeichnung": "Vor der Sang" }, "geometry": { "type": "Point", "coordinates": [ 8.089648880653558, 50.92336429493853 ] } },
{ "type": "Feature", "properties": { "strassenschluessel": "05970000003207683", "bezeichnung": "Vorm Seifchen" }, "geometry": { "type": "Point", "coordinates": [ 8.084561318479063, 50.923443089262477 ] } },
{ "type": "Feature", "properties": { "strassenschluessel": "05970000003207684", "bezeichnung": "Zum Heidegarten" }, "geometry": { "type": "Point", "coordinates": [ 8.088453932814756, 50.92500381140033 ] } },
{ "type": "Feature", "properties": { "strassenschluessel": "05970000003207685", "bezeichnung": "Zum Rademächen" }, "geometry": { "type": "Point", "coordinates": [ 8.088393109640693, 50.925267132781315 ] } },
{ "type": "Feature", "properties": { "strassenschluessel": "05970000003207686", "bezeichnung": "Zur Kunzenbach" }, "geometry": { "type": "Point", "coordinates": [ 8.085969826551118, 50.925294285858342 ] } },
{ "type": "Feature", "properties": { "strassenschluessel": "05970000003207701", "bezeichnung": "Albert-Klenner-Straße" }, "geometry": { "type": "Point", "coordinates": [ 8.164813036721609, 50.871294898943134 ] } },
{ "type": "Feature", "properties": { "strassenschluessel": "05970000003207702", "bezeichnung": "Am Hewig" }, "geometry": { "type": "Point", "coordinates": [ 8.168557057726765, 50.871564922935868 ] } },
{ "type": "Feature", "properties": { "strassenschluessel": "05970000003207703", "bezeichnung": "Deuzer Weg" }, "geometry": { "type": "Point", "coordinates": [ 8.162357835760337, 50.872782319516119 ] } },
{ "type": "Feature", "properties": { "strassenschluessel": "05970000003207704", "bezeichnung": "Johannlandstraße" }, "geometry": { "type": "Point", "coordinates": [ 8.159690829535352, 50.871633093293305 ] } },
{ "type": "Feature", "properties": { "strassenschluessel": "05970000003207705", "bezeichnung": "Kirschborn" }, "geometry": { "type": "Point", "coordinates": [ 8.166217433863821, 50.87302803155724 ] } },
{ "type": "Feature", "properties": { "strassenschluessel": "05970000003207706", "bezeichnung": "Krachenberg" }, "geometry": { "type": "Point", "coordinates": [ 8.164098373922274, 50.869144896581133 ] } },
{ "type": "Feature", "properties": { "strassenschluessel": "05970000003207707", "bezeichnung": "Leywiese" }, "geometry": { "type": "Point", "coordinates": [ 8.161586652998004, 50.869770664777263 ] } },
{ "type": "Feature", "properties": { "strassenschluessel": "05970000003207708", "bezeichnung": "Mittelbach" }, "geometry": { "type": "Point", "coordinates": [ 8.16838784762624, 50.868069052012395 ] } },
{ "type": "Feature", "properties": { "strassenschluessel": "05970000003207709", "bezeichnung": "Ockersdorf" }, "geometry": { "type": "Point", "coordinates": [ 8.170962039662768, 50.870873947637406 ] } },
{ "type": "Feature", "properties": { "strassenschluessel": "05970000003207710", "bezeichnung": "Rudersdorfer Straße" }, "geometry": { "type": "Point", "coordinates": [ 8.162672626450407, 50.870146027168794 ] } },
{ "type": "Feature", "properties": { "strassenschluessel": "05970000003207711", "bezeichnung": "Schulstraße" }, "geometry": { "type": "Point", "coordinates": [ 8.167711380704125, 50.871176473049367 ] } },
{ "type": "Feature", "properties": { "strassenschluessel": "05970000003207712", "bezeichnung": "Simmelsbach" }, "geometry": { "type": "Point", "coordinates": [ 8.161351677691643, 50.866015726968385 ] } },
{ "type": "Feature", "properties": { "strassenschluessel": "05970000003207713", "bezeichnung": "Zur Schwarzen Heide" }, "geometry": { "type": "Point", "coordinates": [ 8.164892108107747, 50.872900120352973 ] } },
{ "type": "Feature", "properties": { "strassenschluessel": "05970000003207714", "bezeichnung": "Anzerbergstraße" }, "geometry": { "type": "Point", "coordinates": [ 8.162055108559478, 50.868574915905057 ] } },
{ "type": "Feature", "properties": { "strassenschluessel": "05970000003207715", "bezeichnung": "Auf der Spitze" }, "geometry": { "type": "Point", "coordinates": [ 8.16812794208438, 50.87302142041959 ] } },
{ "type": "Feature", "properties": { "strassenschluessel": "05970000003207716", "bezeichnung": "Vor der Noll" }, "geometry": { "type": "Point", "coordinates": [ 8.168476352866161, 50.87205257204333 ] } },
{ "type": "Feature", "properties": { "strassenschluessel": "05970000003207717", "bezeichnung": "Zur Brecht" }, "geometry": { "type": "Point", "coordinates": [ 8.169955190965798, 50.871817807973848 ] } },
{ "type": "Feature", "properties": { "strassenschluessel": "05970000003207718", "bezeichnung": "Am Eiersberg" }, "geometry": { "type": "Point", "coordinates": [ 8.163601260957609, 50.867884227130247 ] } },
{ "type": "Feature", "properties": { "strassenschluessel": "05970000003207720", "bezeichnung": "Torrbach" }, "geometry": { "type": "Point", "coordinates": [ 8.158705044439516, 50.870585729827518 ] } },
{ "type": "Feature", "properties": { "strassenschluessel": "05970000003207732", "bezeichnung": "Im Neuen Garten" }, "geometry": { "type": "Point", "coordinates": [ 8.162322662024044, 50.950997885625036 ] } },
{ "type": "Feature", "properties": { "strassenschluessel": "05970000003207733", "bezeichnung": "In der Sohlbach" }, "geometry": null },
{ "type": "Feature", "properties": { "strassenschluessel": "05970000003207734", "bezeichnung": "Lützeler Weg" }, "geometry": { "type": "Point", "coordinates": [ 8.162203715296837, 50.951682875225941 ] } },
{ "type": "Feature", "properties": { "strassenschluessel": "05970000003207735", "bezeichnung": "Nöckelstraße" }, "geometry": { "type": "Point", "coordinates": [ 8.160348606745957, 50.9496526981345 ] } },
{ "type": "Feature", "properties": { "strassenschluessel": "05970000003207736", "bezeichnung": "Rödchenweg" }, "geometry": { "type": "Point", "coordinates": [ 8.167410988312568, 50.951036150800988 ] } },
{ "type": "Feature", "properties": { "strassenschluessel": "05970000003207737", "bezeichnung": "Unterm Rain" }, "geometry": { "type": "Point", "coordinates": [ 8.161694574220371, 50.94982118873039 ] } },
{ "type": "Feature", "properties": { "strassenschluessel": "05970000003207738", "bezeichnung": "Vorm Breitenberg" }, "geometry": { "type": "Point", "coordinates": [ 8.163298909082481, 50.948441960931007 ] } },
{ "type": "Feature", "properties": { "strassenschluessel": "05970000003207739", "bezeichnung": "Weiherstraße" }, "geometry": { "type": "Point", "coordinates": [ 8.16094875698094, 50.949246338303141 ] } },
{ "type": "Feature", "properties": { "strassenschluessel": "05970000003207740", "bezeichnung": "Am Rödchen" }, "geometry": { "type": "Point", "coordinates": [ 8.163339386571245, 50.951225685541864 ] } },
{ "type": "Feature", "properties": { "strassenschluessel": "05970000003207751", "bezeichnung": "Am alten Hain" }, "geometry": { "type": "Point", "coordinates": [ 8.055072472374636, 50.952504317896263 ] } },
{ "type": "Feature", "properties": { "strassenschluessel": "05970000003207752", "bezeichnung": "Am Berg" }, "geometry": { "type": "Point", "coordinates": [ 8.054177618370366, 50.948435355333409 ] } },
{ "type": "Feature", "properties": { "strassenschluessel": "05970000003207753", "bezeichnung": "Dorfstraße" }, "geometry": { "type": "Point", "coordinates": [ 8.056494679112042, 50.951431542416252 ] } },
{ "type": "Feature", "properties": { "strassenschluessel": "05970000003207754", "bezeichnung": "Grünstraße" }, "geometry": { "type": "Point", "coordinates": [ 8.055919195085787, 50.951384814295572 ] } },
{ "type": "Feature", "properties": { "strassenschluessel": "05970000003207755", "bezeichnung": "Haferweg" }, "geometry": { "type": "Point", "coordinates": [ 8.061596723541429, 50.94203834367724 ] } },
{ "type": "Feature", "properties": { "strassenschluessel": "05970000003207756", "bezeichnung": "Hauptstraße" }, "geometry": { "type": "Point", "coordinates": [ 8.054763783956082, 50.949491354041598 ] } },
{ "type": "Feature", "properties": { "strassenschluessel": "05970000003207757", "bezeichnung": "Hellbergstraße" }, "geometry": { "type": "Point", "coordinates": [ 8.057247566104261, 50.950510102400017 ] } },
{ "type": "Feature", "properties": { "strassenschluessel": "05970000003207758", "bezeichnung": "Herzhausener Straße" }, "geometry": { "type": "Point", "coordinates": [ 8.061944926328291, 50.945413508110185 ] } },