{
"type": "FeatureCollection",
"features": [
{ "type": "Feature", "properties": { "strassenschluessel": "05170000002833001", "bezeichnung": "Ahornweg" }, "geometry": { "type": "Point", "coordinates": [ 6.564376006558323, 51.440666519036824 ] } },
{ "type": "Feature", "properties": { "strassenschluessel": "05170000002833002", "bezeichnung": "Alte Mühle" }, "geometry": { "type": "Point", "coordinates": [ 6.581383405692313, 51.463193803516795 ] } },
{ "type": "Feature", "properties": { "strassenschluessel": "05170000002833003", "bezeichnung": "Alte Rathausstraße" }, "geometry": { "type": "Point", "coordinates": [ 6.577248055530792, 51.448972948534497 ] } },
{ "type": "Feature", "properties": { "strassenschluessel": "05170000002833004", "bezeichnung": "Am Eckschenberg" }, "geometry": { "type": "Point", "coordinates": [ 6.586298497971335, 51.471520052723285 ] } },
{ "type": "Feature", "properties": { "strassenschluessel": "05170000002833005", "bezeichnung": "Am Hartschenfeld" }, "geometry": { "type": "Point", "coordinates": [ 6.542333337865121, 51.441288552944719 ] } },
{ "type": "Feature", "properties": { "strassenschluessel": "05170000002833006", "bezeichnung": "Am Honigshuck" }, "geometry": { "type": "Point", "coordinates": [ 6.537257414271473, 51.468556467087815 ] } },
{ "type": "Feature", "properties": { "strassenschluessel": "05170000002833007", "bezeichnung": "Am Hugengraben" }, "geometry": { "type": "Point", "coordinates": [ 6.560234617991803, 51.445698292575571 ] } },
{ "type": "Feature", "properties": { "strassenschluessel": "05170000002833008", "bezeichnung": "Am Klotzfeld" }, "geometry": { "type": "Point", "coordinates": [ 6.532877562025184, 51.439767073367669 ] } },
{ "type": "Feature", "properties": { "strassenschluessel": "05170000002833009", "bezeichnung": "Am Ophülsgraben" }, "geometry": { "type": "Point", "coordinates": [ 6.572133537139324, 51.417942632275349 ] } },
{ "type": "Feature", "properties": { "strassenschluessel": "05170000002833010", "bezeichnung": "Amselweg" }, "geometry": { "type": "Point", "coordinates": [ 6.579202781347172, 51.454015671998981 ] } },
{ "type": "Feature", "properties": { "strassenschluessel": "05170000002833011", "bezeichnung": "Am Vietengraben" }, "geometry": { "type": "Point", "coordinates": [ 6.567320585886034, 51.457049422689821 ] } },
{ "type": "Feature", "properties": { "strassenschluessel": "05170000002833012", "bezeichnung": "An der Bleiche" }, "geometry": { "type": "Point", "coordinates": [ 6.582745126747793, 51.448210209961438 ] } },
{ "type": "Feature", "properties": { "strassenschluessel": "05170000002833013", "bezeichnung": "An der Ley" }, "geometry": { "type": "Point", "coordinates": [ 6.526666351234848, 51.442601755719075 ] } },
{ "type": "Feature", "properties": { "strassenschluessel": "05170000002833014", "bezeichnung": "Andreas-Bräm-Straße" }, "geometry": { "type": "Point", "coordinates": [ 6.579066712534837, 51.447900492356112 ] } },
{ "type": "Feature", "properties": { "strassenschluessel": "05170000002833015", "bezeichnung": "Anrathsweg" }, "geometry": { "type": "Point", "coordinates": [ 6.569755184350024, 51.475818170107559 ] } },
{ "type": "Feature", "properties": { "strassenschluessel": "05170000002833016", "bezeichnung": "Averdunksweg" }, "geometry": { "type": "Point", "coordinates": [ 6.571527023189922, 51.458330747283817 ] } },
{ "type": "Feature", "properties": { "strassenschluessel": "05170000002833017", "bezeichnung": "Bachstraße" }, "geometry": { "type": "Point", "coordinates": [ 6.533245310840559, 51.442895026830008 ] } },
{ "type": "Feature", "properties": { "strassenschluessel": "05170000002833018", "bezeichnung": "Bahnhofstraße" }, "geometry": { "type": "Point", "coordinates": [ 6.529741165265723, 51.436340528988147 ] } },
{ "type": "Feature", "properties": { "strassenschluessel": "05170000002833019", "bezeichnung": "Balderbruchweg" }, "geometry": { "type": "Point", "coordinates": [ 6.597384069034407, 51.460896952768273 ] } },
{ "type": "Feature", "properties": { "strassenschluessel": "05170000002833020", "bezeichnung": "Beethovenstraße" }, "geometry": { "type": "Point", "coordinates": [ 6.574029661864544, 51.449454297970384 ] } },
{ "type": "Feature", "properties": { "strassenschluessel": "05170000002833021", "bezeichnung": "Bendschenweg" }, "geometry": { "type": "Point", "coordinates": [ 6.567927773936372, 51.438231703604941 ] } },
{ "type": "Feature", "properties": { "strassenschluessel": "05170000002833022", "bezeichnung": "Bergschenweg" }, "geometry": { "type": "Point", "coordinates": [ 6.558616800829083, 51.409231186934257 ] } },
{ "type": "Feature", "properties": { "strassenschluessel": "05170000002833023", "bezeichnung": "Bergweg" }, "geometry": { "type": "Point", "coordinates": [ 6.535403266117723, 51.467525006210415 ] } },
{ "type": "Feature", "properties": { "strassenschluessel": "05170000002833024", "bezeichnung": "Birkenstraße" }, "geometry": { "type": "Point", "coordinates": [ 6.527081722815009, 51.433625516184669 ] } },
{ "type": "Feature", "properties": { "strassenschluessel": "05170000002833025", "bezeichnung": "Bloemersheim" }, "geometry": { "type": "Point", "coordinates": [ 6.514063184042366, 51.442713900621371 ] } },
{ "type": "Feature", "properties": { "strassenschluessel": "05170000002833026", "bezeichnung": "Bloemersheimer Weg" }, "geometry": { "type": "Point", "coordinates": [ 6.514766976054276, 51.446076985686354 ] } },
{ "type": "Feature", "properties": { "strassenschluessel": "05170000002833027", "bezeichnung": "Blumenstraße" }, "geometry": { "type": "Point", "coordinates": [ 6.575590627538026, 51.442007613201611 ] } },
{ "type": "Feature", "properties": { "strassenschluessel": "05170000002833028", "bezeichnung": "Boschheidestraße" }, "geometry": { "type": "Point", "coordinates": [ 6.558083943466204, 51.450749290702085 ] } },
{ "type": "Feature", "properties": { "strassenschluessel": "05170000002833029", "bezeichnung": "Breslauer Straße" }, "geometry": { "type": "Point", "coordinates": [ 6.541844893996053, 51.435120633349364 ] } },
{ "type": "Feature", "properties": { "strassenschluessel": "05170000002833030", "bezeichnung": "Bruckschenweg" }, "geometry": { "type": "Point", "coordinates": [ 6.551903285729614, 51.405409771128902 ] } },
{ "type": "Feature", "properties": { "strassenschluessel": "05170000002833031", "bezeichnung": "Bruchstraße" }, "geometry": { "type": "Point", "coordinates": [ 6.581437320040944, 51.45131415392099 ] } },
{ "type": "Feature", "properties": { "strassenschluessel": "05170000002833032", "bezeichnung": "Buchenplatz" }, "geometry": { "type": "Point", "coordinates": [ 6.567123088307397, 51.446389533526606 ] } },
{ "type": "Feature", "properties": { "strassenschluessel": "05170000002833033", "bezeichnung": "Danziger Straße" }, "geometry": { "type": "Point", "coordinates": [ 6.543047954262696, 51.435810598391299 ] } },
{ "type": "Feature", "properties": { "strassenschluessel": "05170000002833034", "bezeichnung": "Dickschenstraße" }, "geometry": { "type": "Point", "coordinates": [ 6.548670762076031, 51.44221083411572 ] } },
{ "type": "Feature", "properties": { "strassenschluessel": "05170000002833035", "bezeichnung": "Donger Schulweg" }, "geometry": { "type": "Point", "coordinates": [ 6.576248728664125, 51.474862522679715 ] } },
{ "type": "Feature", "properties": { "strassenschluessel": "05170000002833036", "bezeichnung": "Dongstraße" }, "geometry": { "type": "Point", "coordinates": [ 6.573803160378138, 51.470390539948141 ] } },
{ "type": "Feature", "properties": { "strassenschluessel": "05170000002833037", "bezeichnung": "Döpperstraße" }, "geometry": { "type": "Point", "coordinates": [ 6.537509633563682, 51.441792630977858 ] } },
{ "type": "Feature", "properties": { "strassenschluessel": "05170000002833038", "bezeichnung": "Dr.-Hertel-Straße" }, "geometry": { "type": "Point", "coordinates": [ 6.530259557479795, 51.433801307036006 ] } },
{ "type": "Feature", "properties": { "strassenschluessel": "05170000002833039", "bezeichnung": "Drosselweg" }, "geometry": { "type": "Point", "coordinates": [ 6.578864856511758, 51.454363298897981 ] } },
{ "type": "Feature", "properties": { "strassenschluessel": "05170000002833040", "bezeichnung": "Drüenstraße" }, "geometry": { "type": "Point", "coordinates": [ 6.570843526313888, 51.436841284090811 ] } },
{ "type": "Feature", "properties": { "strassenschluessel": "05170000002833041", "bezeichnung": "Ebertstraße" }, "geometry": { "type": "Point", "coordinates": [ 6.573786141020973, 51.440552483261911 ] } },
{ "type": "Feature", "properties": { "strassenschluessel": "05170000002833042", "bezeichnung": "Eichenstraße" }, "geometry": { "type": "Point", "coordinates": [ 6.526746281334872, 51.431081440671576 ] } },
{ "type": "Feature", "properties": { "strassenschluessel": "05170000002833043", "bezeichnung": "Eickhausweg" }, "geometry": { "type": "Point", "coordinates": [ 6.592475017701645, 51.466165045792714 ] } },
{ "type": "Feature", "properties": { "strassenschluessel": "05170000002833044", "bezeichnung": "Elbestraße" }, "geometry": { "type": "Point", "coordinates": [ 6.575655724981949, 51.456839880984049 ] } },
{ "type": "Feature", "properties": { "strassenschluessel": "05170000002833045", "bezeichnung": "Emil-Schweitzer-Straße" }, "geometry": { "type": "Point", "coordinates": [ 6.570657811047265, 51.444938919763594 ] } },
{ "type": "Feature", "properties": { "strassenschluessel": "05170000002833046", "bezeichnung": "Erlenstraße" }, "geometry": { "type": "Point", "coordinates": [ 6.528259255070325, 51.433451117792131 ] } },
{ "type": "Feature", "properties": { "strassenschluessel": "05170000002833047", "bezeichnung": "Ernst-Moritz-Arndt-Straße" }, "geometry": { "type": "Point", "coordinates": [ 6.568015285670463, 51.439798203621187 ] } },
{ "type": "Feature", "properties": { "strassenschluessel": "05170000002833048", "bezeichnung": "Etzoldplatz" }, "geometry": { "type": "Point", "coordinates": [ 6.554577964818001, 51.437132075153613 ] } },
{ "type": "Feature", "properties": { "strassenschluessel": "05170000002833049", "bezeichnung": "Etzoldstraße" }, "geometry": { "type": "Point", "coordinates": [ 6.554496658376707, 51.43679497813568 ] } },
{ "type": "Feature", "properties": { "strassenschluessel": "05170000002833050", "bezeichnung": "Eyller Straße" }, "geometry": { "type": "Point", "coordinates": [ 6.526091232360047, 51.470656455955769 ] } },
{ "type": "Feature", "properties": { "strassenschluessel": "05170000002833051", "bezeichnung": "Falkenstraße" }, "geometry": { "type": "Point", "coordinates": [ 6.582039431729471, 51.453420484023269 ] } },
{ "type": "Feature", "properties": { "strassenschluessel": "05170000002833052", "bezeichnung": "Fasanenweg" }, "geometry": { "type": "Point", "coordinates": [ 6.579514233797886, 51.437547894269052 ] } },
{ "type": "Feature", "properties": { "strassenschluessel": "05170000002833053", "bezeichnung": "Feldstraße" }, "geometry": { "type": "Point", "coordinates": [ 6.530113473658832, 51.449826343973513 ] } },
{ "type": "Feature", "properties": { "strassenschluessel": "05170000002833054", "bezeichnung": "Fichtestraße" }, "geometry": { "type": "Point", "coordinates": [ 6.573256701392139, 51.439556574653949 ] } },
{ "type": "Feature", "properties": { "strassenschluessel": "05170000002833055", "bezeichnung": "Finefraustraße" }, "geometry": { "type": "Point", "coordinates": [ 6.570859581864638, 51.439775200857476 ] } },
{ "type": "Feature", "properties": { "strassenschluessel": "05170000002833056", "bezeichnung": "Finkenstraße" }, "geometry": { "type": "Point", "coordinates": [ 6.579170719373527, 51.455260405598359 ] } },
{ "type": "Feature", "properties": { "strassenschluessel": "05170000002833057", "bezeichnung": "Flohweg" }, "geometry": { "type": "Point", "coordinates": [ 6.540182365271699, 51.44068134861741 ] } },
{ "type": "Feature", "properties": { "strassenschluessel": "05170000002833058", "bezeichnung": "Fränzkesweg" }, "geometry": { "type": "Point", "coordinates": [ 6.537596779477172, 51.436379419536259 ] } },
{ "type": "Feature", "properties": { "strassenschluessel": "05170000002833059", "bezeichnung": "Friedensstraße" }, "geometry": { "type": "Point", "coordinates": [ 6.579464293968186, 51.453481413765878 ] } },
{ "type": "Feature", "properties": { "strassenschluessel": "05170000002833060", "bezeichnung": "Friesenweg" }, "geometry": { "type": "Point", "coordinates": [ 6.542654978592116, 51.448290508862648 ] } },
{ "type": "Feature", "properties": { "strassenschluessel": "05170000002833061", "bezeichnung": "Fritz-Baum-Allee" }, "geometry": { "type": "Point", "coordinates": [ 6.546104766476334, 51.438561820394476 ] } },
{ "type": "Feature", "properties": { "strassenschluessel": "05170000002833062", "bezeichnung": "Fürmannsheck" }, "geometry": { "type": "Point", "coordinates": [ 6.555450625028937, 51.434459170523098 ] } },
{ "type": "Feature", "properties": { "strassenschluessel": "05170000002833063", "bezeichnung": "Fürmannstraße" }, "geometry": { "type": "Point", "coordinates": [ 6.554072566160225, 51.436926417687346 ] } },
{ "type": "Feature", "properties": { "strassenschluessel": "05170000002833064", "bezeichnung": "Gartenstraße" }, "geometry": { "type": "Point", "coordinates": [ 6.571303074280077, 51.457192652518266 ] } },
{ "type": "Feature", "properties": { "strassenschluessel": "05170000002833065", "bezeichnung": "Gartmannstraße" }, "geometry": { "type": "Point", "coordinates": [ 6.550170399097913, 51.43143698092824 ] } },
{ "type": "Feature", "properties": { "strassenschluessel": "05170000002833066", "bezeichnung": "Geilingsweg" }, "geometry": { "type": "Point", "coordinates": [ 6.533861910234841, 51.416904400599421 ] } },
{ "type": "Feature", "properties": { "strassenschluessel": "05170000002833067", "bezeichnung": "Geitlingstraße" }, "geometry": { "type": "Point", "coordinates": [ 6.572848511218258, 51.440105067492873 ] } },
{ "type": "Feature", "properties": { "strassenschluessel": "05170000002833068", "bezeichnung": "Geldernsche Straße" }, "geometry": { "type": "Point", "coordinates": [ 6.539227520829353, 51.467521042483256 ] } },
{ "type": "Feature", "properties": { "strassenschluessel": "05170000002833069", "bezeichnung": "Girondellestraße" }, "geometry": { "type": "Point", "coordinates": [ 6.571062336021759, 51.44134769297569 ] } },
{ "type": "Feature", "properties": { "strassenschluessel": "05170000002833070", "bezeichnung": "Glatzer Straße" }, "geometry": { "type": "Point", "coordinates": [ 6.553209161094943, 51.436169184611565 ] } },
{ "type": "Feature", "properties": { "strassenschluessel": "05170000002833071", "bezeichnung": "Glogauer Straße" }, "geometry": { "type": "Point", "coordinates": [ 6.552180719791777, 51.433523193668051 ] } },
{ "type": "Feature", "properties": { "strassenschluessel": "05170000002833072", "bezeichnung": "Glückaufstraße" }, "geometry": { "type": "Point", "coordinates": [ 6.567064011084137, 51.439904123197323 ] } },
{ "type": "Feature", "properties": { "strassenschluessel": "05170000002833073", "bezeichnung": "Goldbergstraße" }, "geometry": { "type": "Point", "coordinates": [ 6.575369812615426, 51.448461684278598 ] } },
{ "type": "Feature", "properties": { "strassenschluessel": "05170000002833074", "bezeichnung": "Göntgenstraße" }, "geometry": { "type": "Point", "coordinates": [ 6.570921781019623, 51.43751687943157 ] } },
{ "type": "Feature", "properties": { "strassenschluessel": "05170000002833075", "bezeichnung": "Grabenstraße" }, "geometry": { "type": "Point", "coordinates": [ 6.56161824759259, 51.439660027815734 ] } },
{ "type": "Feature", "properties": { "strassenschluessel": "05170000002833076", "bezeichnung": "Grafschafter Platz" }, "geometry": { "type": "Point", "coordinates": [ 6.574849228033268, 51.449785597699588 ] } },
{ "type": "Feature", "properties": { "strassenschluessel": "05170000002833077", "bezeichnung": "Grenzweg" }, "geometry": null },
{ "type": "Feature", "properties": { "strassenschluessel": "05170000002833078", "bezeichnung": "Grevenstraße" }, "geometry": { "type": "Point", "coordinates": [ 6.576303009151631, 51.447435250005839 ] } },
{ "type": "Feature", "properties": { "strassenschluessel": "05170000002833079", "bezeichnung": "Grotfeldsweg" }, "geometry": { "type": "Point", "coordinates": [ 6.578473787753587, 51.441290958292839 ] } },
{ "type": "Feature", "properties": { "strassenschluessel": "05170000002833080", "bezeichnung": "Grüner Weg" }, "geometry": { "type": "Point", "coordinates": [ 6.539486490327685, 51.422240936350626 ] } },
{ "type": "Feature", "properties": { "strassenschluessel": "05170000002833081", "bezeichnung": "Gülixweg" }, "geometry": { "type": "Point", "coordinates": [ 6.532920664074522, 51.465477747976983 ] } },
{ "type": "Feature", "properties": { "strassenschluessel": "05170000002833082", "bezeichnung": "Haarbeckstraße" }, "geometry": { "type": "Point", "coordinates": [ 6.567680190015004, 51.450942288129781 ] } },
{ "type": "Feature", "properties": { "strassenschluessel": "05170000002833083", "bezeichnung": "Hans-Böckler-Str." }, "geometry": { "type": "Point", "coordinates": [ 6.569200602423805, 51.44286568270136 ] } },
{ "type": "Feature", "properties": { "strassenschluessel": "05170000002833084", "bezeichnung": "Hartfeldstraße" }, "geometry": { "type": "Point", "coordinates": [ 6.548828717368147, 51.437110241601296 ] } },
{ "type": "Feature", "properties": { "strassenschluessel": "05170000002833085", "bezeichnung": "Niederrheinallee" }, "geometry": { "type": "Point", "coordinates": [ 6.529469476552768, 51.438240211230706 ] } },
{ "type": "Feature", "properties": { "strassenschluessel": "05170000002833086", "bezeichnung": "Heckrathstraße" }, "geometry": { "type": "Point", "coordinates": [ 6.588424541841967, 51.452110720740556 ] } },
{ "type": "Feature", "properties": { "strassenschluessel": "05170000002833087", "bezeichnung": "Heisterweg" }, "geometry": { "type": "Point", "coordinates": [ 6.511510487213421, 51.455574040010774 ] } },
{ "type": "Feature", "properties": { "strassenschluessel": "05170000002833088", "bezeichnung": "Herkweg" }, "geometry": { "type": "Point", "coordinates": [ 6.587456768729112, 51.451356007262241 ] } },
{ "type": "Feature", "properties": { "strassenschluessel": "05170000002833090", "bezeichnung": "Hindenburgplatz" }, "geometry": { "type": "Point", "coordinates": [ 6.566688329184992, 51.442318637283215 ] } },
{ "type": "Feature", "properties": { "strassenschluessel": "05170000002833091", "bezeichnung": "Hirschberger Straße" }, "geometry": { "type": "Point", "coordinates": [ 6.551953286936552, 51.434819589675222 ] } },
{ "type": "Feature", "properties": { "strassenschluessel": "05170000002833092", "bezeichnung": "Hochkamerstraße" }, "geometry": { "type": "Point", "coordinates": [ 6.534884229186499, 51.453514086334692 ] } },
{ "type": "Feature", "properties": { "strassenschluessel": "05170000002833092", "bezeichnung": "Hochkamerstraße" }, "geometry": { "type": "Point", "coordinates": [ 6.534884229186499, 51.453514086334692 ] } },
{ "type": "Feature", "properties": { "strassenschluessel": "05170000002833093", "bezeichnung": "Hochstraße" }, "geometry": { "type": "Point", "coordinates": [ 6.577480204466898, 51.456771000974335 ] } },
{ "type": "Feature", "properties": { "strassenschluessel": "05170000002833094", "bezeichnung": "Holtmannstraße" }, "geometry": { "type": "Point", "coordinates": [ 6.555571880978078, 51.436157974014691 ] } },
{ "type": "Feature", "properties": { "strassenschluessel": "05170000002833095", "bezeichnung": "Hülser Straße" }, "geometry": { "type": "Point", "coordinates": [ 6.554620906021483, 51.403630690541853 ] } },
{ "type": "Feature", "properties": { "strassenschluessel": "05170000002833096", "bezeichnung": "Husemannstraße" }, "geometry": { "type": "Point", "coordinates": [ 6.569388658925143, 51.445505117606622 ] } },
{ "type": "Feature", "properties": { "strassenschluessel": "05170000002833097", "bezeichnung": "Im Mühlenwinkel" }, "geometry": { "type": "Point", "coordinates": [ 6.531055038696865, 51.434114738318563 ] } },
{ "type": "Feature", "properties": { "strassenschluessel": "05170000002833098", "bezeichnung": "Im Schönen Winkel" }, "geometry": { "type": "Point", "coordinates": [ 6.527459267965654, 51.443821026206521 ] } },
{ "type": "Feature", "properties": { "strassenschluessel": "05170000002833099", "bezeichnung": "Im Wiesengrund" }, "geometry": { "type": "Point", "coordinates": [ 6.579558343734885, 51.438175264209264 ] } },
{ "type": "Feature", "properties": { "strassenschluessel": "05170000002833100", "bezeichnung": "Inneboltstraße" }, "geometry": { "type": "Point", "coordinates": [ 6.550493315013409, 51.438558729459302 ] } },
{ "type": "Feature", "properties": { "strassenschluessel": "05170000002833101", "bezeichnung": "Jahnstraße" }, "geometry": { "type": "Point", "coordinates": [ 6.569366238993613, 51.448999722582549 ] } },
{ "type": "Feature", "properties": { "strassenschluessel": "05170000002833102", "bezeichnung": "Kaetherstraße" }, "geometry": { "type": "Point", "coordinates": [ 6.534963696935047, 51.423478759980213 ] } },
{ "type": "Feature", "properties": { "strassenschluessel": "05170000002833103", "bezeichnung": "Kantstraße" }, "geometry": { "type": "Point", "coordinates": [ 6.561089724756741, 51.446400094995226 ] } },
{ "type": "Feature", "properties": { "strassenschluessel": "05170000002833104", "bezeichnung": "Kapellener Straße" }, "geometry": { "type": "Point", "coordinates": [ 6.560557438091898, 51.399287032412509 ] } },
{ "type": "Feature", "properties": { "strassenschluessel": "05170000002833105", "bezeichnung": "Kirchfuhrweg" }, "geometry": { "type": "Point", "coordinates": [ 6.579577790913593, 51.454626285371674 ] } },
{ "type": "Feature", "properties": { "strassenschluessel": "05170000002833107", "bezeichnung": "Kirchwehmsdyk" }, "geometry": { "type": "Point", "coordinates": [ 6.561429651764024, 51.408655947462471 ] } },
{ "type": "Feature", "properties": { "strassenschluessel": "05170000002833108", "bezeichnung": "Kleine Straße" }, "geometry": { "type": "Point", "coordinates": [ 6.53173820958383, 51.44074828272764 ] } },
{ "type": "Feature", "properties": { "strassenschluessel": "05170000002833109", "bezeichnung": "Klietbruchweg" }, "geometry": { "type": "Point", "coordinates": [ 6.555807516880246, 51.399220686618087 ] } },
{ "type": "Feature", "properties": { "strassenschluessel": "05170000002833110", "bezeichnung": "Königsberger Straße" }, "geometry": { "type": "Point", "coordinates": [ 6.54127173861099, 51.435827974521018 ] } },
{ "type": "Feature", "properties": { "strassenschluessel": "05170000002833111", "bezeichnung": "Körnerstraße" }, "geometry": { "type": "Point", "coordinates": [ 6.572717058021595, 51.438830269452609 ] } },
{ "type": "Feature", "properties": { "strassenschluessel": "05170000002833112", "bezeichnung": "Kranichstraße" }, "geometry": { "type": "Point", "coordinates": [ 6.581921629005173, 51.455568625800801 ] } },
{ "type": "Feature", "properties": { "strassenschluessel": "05170000002833113", "bezeichnung": "Krefelder Straße" }, "geometry": { "type": "Point", "coordinates": [ 6.559309314741877, 51.409329438776304 ] } },
{ "type": "Feature", "properties": { "strassenschluessel": "05170000002833114", "bezeichnung": "Kreuzstraße" }, "geometry": { "type": "Point", "coordinates": [ 6.566065747382815, 51.445588737646737 ] } },
{ "type": "Feature", "properties": { "strassenschluessel": "05170000002833115", "bezeichnung": "Kuckucksweg" }, "geometry": { "type": "Point", "coordinates": [ 6.58282301185846, 51.452836957404408 ] } },
{ "type": "Feature", "properties": { "strassenschluessel": "05170000002833116", "bezeichnung": "Kurze Straße" }, "geometry": { "type": "Point", "coordinates": [ 6.563531788543152, 51.442116061825132 ] } },
{ "type": "Feature", "properties": { "strassenschluessel": "05170000002833117", "bezeichnung": "Larfeldsweg" }, "geometry": { "type": "Point", "coordinates": [ 6.568197629640173, 51.440835957831389 ] } },
{ "type": "Feature", "properties": { "strassenschluessel": "05170000002833118", "bezeichnung": "Laukenstraße" }, "geometry": { "type": "Point", "coordinates": [ 6.569849390932219, 51.442168284704742 ] } },
{ "type": "Feature", "properties": { "strassenschluessel": "05170000002833119", "bezeichnung": "Liegnitzer Straße" }, "geometry": { "type": "Point", "coordinates": [ 6.551656785222953, 51.432894831960283 ] } },
{ "type": "Feature", "properties": { "strassenschluessel": "05170000002833120", "bezeichnung": "Lindenstraße" }, "geometry": { "type": "Point", "coordinates": [ 6.576501093668849, 51.451555086907902 ] } },
{ "type": "Feature", "properties": { "strassenschluessel": "05170000002833121", "bezeichnung": "Littardweg" }, "geometry": { "type": "Point", "coordinates": [ 6.506906216308754, 51.465848773709112 ] } },
{ "type": "Feature", "properties": { "strassenschluessel": "05170000002833122", "bezeichnung": "Londongstraße" }, "geometry": { "type": "Point", "coordinates": [ 6.574916059250212, 51.443704526030459 ] } },
{ "type": "Feature", "properties": { "strassenschluessel": "05170000002833123", "bezeichnung": "Luiter Dyk" }, "geometry": { "type": "Point", "coordinates": [ 6.56191721517376, 51.395109797554042 ] } },
{ "type": "Feature", "properties": { "strassenschluessel": "05170000002833124", "bezeichnung": "Luiter Straße" }, "geometry": { "type": "Point", "coordinates": [ 6.569615096249912, 51.39852869049178 ] } },
{ "type": "Feature", "properties": { "strassenschluessel": "05170000002833125", "bezeichnung": "Mandelstraße" }, "geometry": { "type": "Point", "coordinates": [ 6.577821350050746, 51.452243566020918 ] } },
{ "type": "Feature", "properties": { "strassenschluessel": "05170000002833126", "bezeichnung": "Max-von-Schenkendorf-Str." }, "geometry": { "type": "Point", "coordinates": [ 6.567778363446434, 51.438866124267093 ] } },
{ "type": "Feature", "properties": { "strassenschluessel": "05170000002833127", "bezeichnung": "Mentorstraße" }, "geometry": { "type": "Point", "coordinates": [ 6.570236388811687, 51.438835154216186 ] } },
{ "type": "Feature", "properties": { "strassenschluessel": "05170000002833128", "bezeichnung": "Merbishof" }, "geometry": { "type": "Point", "coordinates": [ 6.579628487695433, 51.472148354635983 ] } },
{ "type": "Feature", "properties": { "strassenschluessel": "05170000002833129", "bezeichnung": "Merbisstraße" }, "geometry": { "type": "Point", "coordinates": [ 6.591572608857395, 51.470156891102661 ] } },
{ "type": "Feature", "properties": { "strassenschluessel": "05170000002833130", "bezeichnung": "Minhorstweg" }, "geometry": { "type": "Point", "coordinates": [ 6.523565022652667, 51.462860268101274 ] } },
{ "type": "Feature", "properties": { "strassenschluessel": "05170000002833131", "bezeichnung": "Mittelstraße" }, "geometry": { "type": "Point", "coordinates": [ 6.567362531175524, 51.445996051545301 ] } },
{ "type": "Feature", "properties": { "strassenschluessel": "05170000002833132", "bezeichnung": "Mozartstraße" }, "geometry": { "type": "Point", "coordinates": [ 6.576506439921995, 51.449922805884214 ] } },
{ "type": "Feature", "properties": { "strassenschluessel": "05170000002833133", "bezeichnung": "Mühlenstraße" }, "geometry": { "type": "Point", "coordinates": [ 6.522335962702897, 51.467091456074229 ] } },
{ "type": "Feature", "properties": { "strassenschluessel": "05170000002833134", "bezeichnung": "Mühlenweg" }, "geometry": { "type": "Point", "coordinates": [ 6.579780961484944, 51.459448505833358 ] } },
{ "type": "Feature", "properties": { "strassenschluessel": "05170000002833135", "bezeichnung": "Neenrathstraße" }, "geometry": { "type": "Point", "coordinates": [ 6.537143112019541, 51.477554976435847 ] } },
{ "type": "Feature", "properties": { "strassenschluessel": "05170000002833136", "bezeichnung": "Nelkenstraße" }, "geometry": { "type": "Point", "coordinates": [ 6.57439564834768, 51.442056881573038 ] } },
{ "type": "Feature", "properties": { "strassenschluessel": "05170000002833137", "bezeichnung": "Neufelder Straße" }, "geometry": { "type": "Point", "coordinates": [ 6.522300026171585, 51.436826690535405 ] } },
{ "type": "Feature", "properties": { "strassenschluessel": "05170000002833138", "bezeichnung": "Niederrheinstraße" }, "geometry": { "type": "Point", "coordinates": [ 6.549274281702687, 51.441416926270918 ] } },
{ "type": "Feature", "properties": { "strassenschluessel": "05170000002833139", "bezeichnung": "Nieper Straße" }, "geometry": { "type": "Point", "coordinates": [ 6.536883681316178, 51.432763354077743 ] } },
{ "type": "Feature", "properties": { "strassenschluessel": "05170000002833140", "bezeichnung": "Nordstraße" }, "geometry": { "type": "Point", "coordinates": [ 6.566929388239108, 51.446829436552534 ] } },
{ "type": "Feature", "properties": { "strassenschluessel": "05170000002833141", "bezeichnung": "Oestermannstraße" }, "geometry": { "type": "Point", "coordinates": [ 6.546213902050437, 51.436983066010555 ] } },
{ "type": "Feature", "properties": { "strassenschluessel": "05170000002833142", "bezeichnung": "Opholtsweg" }, "geometry": { "type": "Point", "coordinates": [ 6.54479975507059, 51.424018405655993 ] } },
{ "type": "Feature", "properties": { "strassenschluessel": "05170000002833143", "bezeichnung": "Pappelstraße" }, "geometry": { "type": "Point", "coordinates": [ 6.526772049299097, 51.432423142280641 ] } },
{ "type": "Feature", "properties": { "strassenschluessel": "05170000002833144", "bezeichnung": "Parkstraße" }, "geometry": { "type": "Point", "coordinates": [ 6.524077325523579, 51.430875107816284 ] } },
{ "type": "Feature", "properties": { "strassenschluessel": "05170000002833145", "bezeichnung": "Paschenweg" }, "geometry": { "type": "Point", "coordinates": [ 6.585166948845103, 51.460485249434072 ] } },
{ "type": "Feature", "properties": { "strassenschluessel": "05170000002833146", "bezeichnung": "Pastoratstraße" }, "geometry": { "type": "Point", "coordinates": [ 6.533142817259026, 51.436792261897274 ] } },
{ "type": "Feature", "properties": { "strassenschluessel": "05170000002833147", "bezeichnung": "Peschkenstraße" }, "geometry": { "type": "Point", "coordinates": [ 6.534855234818976, 51.440758421312559 ] } },
{ "type": "Feature", "properties": { "strassenschluessel": "05170000002833148", "bezeichnung": "Plankendicksweg" }, "geometry": { "type": "Point", "coordinates": [ 6.533062755936799, 51.433942736432805 ] } },
{ "type": "Feature", "properties": { "strassenschluessel": "05170000002833149", "bezeichnung": "Platanenstraße" }, "geometry": { "type": "Point", "coordinates": [ 6.527753397019493, 51.431202778295088 ] } },
{ "type": "Feature", "properties": { "strassenschluessel": "05170000002833150", "bezeichnung": "Posener Straße" }, "geometry": { "type": "Point", "coordinates": [ 6.542703333615875, 51.435230789544811 ] } },
{ "type": "Feature", "properties": { "strassenschluessel": "05170000002833151", "bezeichnung": "Poststraße" }, "geometry": { "type": "Point", "coordinates": [ 6.578091299749254, 51.447205177901544 ] } },
{ "type": "Feature", "properties": { "strassenschluessel": "05170000002833153", "bezeichnung": "Rayener Kirchweg" }, "geometry": { "type": "Point", "coordinates": [ 6.53483144087357, 51.443424381667356 ] } },
{ "type": "Feature", "properties": { "strassenschluessel": "05170000002833154", "bezeichnung": "Rayener Straße" }, "geometry": { "type": "Point", "coordinates": [ 6.526403972919986, 51.449101145645109 ] } },
{ "type": "Feature", "properties": { "strassenschluessel": "05170000002833155", "bezeichnung": "Repelener Straße" }, "geometry": { "type": "Point", "coordinates": [ 6.59463902612794, 51.465583330788789 ] } },
{ "type": "Feature", "properties": { "strassenschluessel": "05170000002833156", "bezeichnung": "Ringstraße" }, "geometry": { "type": "Point", "coordinates": [ 6.563838337236009, 51.446382534952271 ] } },
{ "type": "Feature", "properties": { "strassenschluessel": "05170000002833157", "bezeichnung": "Roosenstraße" }, "geometry": { "type": "Point", "coordinates": [ 6.547127179867704, 51.440731155858046 ] } },
{ "type": "Feature", "properties": { "strassenschluessel": "05170000002833158", "bezeichnung": "Seiltgenweg" }, "geometry": { "type": "Point", "coordinates": [ 6.547736352054292, 51.449037046695331 ] } },
{ "type": "Feature", "properties": { "strassenschluessel": "05170000002833159", "bezeichnung": "Siebertstraße" }, "geometry": { "type": "Point", "coordinates": [ 6.564947452180725, 51.441217680890006 ] } },
{ "type": "Feature", "properties": { "strassenschluessel": "05170000002833160", "bezeichnung": "Sittermannstraße" }, "geometry": { "type": "Point", "coordinates": [ 6.530777830993177, 51.428092757194094 ] } },
{ "type": "Feature", "properties": { "strassenschluessel": "05170000002833161", "bezeichnung": "Speemannsweg" }, "geometry": { "type": "Point", "coordinates": [ 6.568699893612772, 51.406777765447913 ] } },
{ "type": "Feature", "properties": { "strassenschluessel": "05170000002833162", "bezeichnung": "Spickerbruchweg" }, "geometry": { "type": "Point", "coordinates": [ 6.524076126332629, 51.453451705319665 ] } },
{ "type": "Feature", "properties": { "strassenschluessel": "05170000002833163", "bezeichnung": "Spickschenweg" }, "geometry": { "type": "Point", "coordinates": [ 6.537028751884174, 51.442378992620306 ] } },
{ "type": "Feature", "properties": { "strassenschluessel": "05170000002833164", "bezeichnung": "Springenweg" }, "geometry": { "type": "Point", "coordinates": [ 6.53634566984217, 51.440191726060725 ] } },
{ "type": "Feature", "properties": { "strassenschluessel": "05170000002833165", "bezeichnung": "Süsselheide" }, "geometry": { "type": "Point", "coordinates": [ 6.546209373451586, 51.422993402903948 ] } },
{ "type": "Feature", "properties": { "strassenschluessel": "05170000002833166", "bezeichnung": "Littardweg" }, "geometry": null },
{ "type": "Feature", "properties": { "strassenschluessel": "05170000002833167", "bezeichnung": "Schietenweg" }, "geometry": { "type": "Point", "coordinates": [ 6.583244017198179, 51.474919906421945 ] } },
{ "type": "Feature", "properties": { "strassenschluessel": "05170000002833168", "bezeichnung": "Schillerstraße" }, "geometry": { "type": "Point", "coordinates": [ 6.56266120141002, 51.448067806203333 ] } },
{ "type": "Feature", "properties": { "strassenschluessel": "05170000002833169", "bezeichnung": "Schlägel-und-Eisen-Straße" }, "geometry": { "type": "Point", "coordinates": [ 6.570647611720531, 51.442966175131765 ] } },
{ "type": "Feature", "properties": { "strassenschluessel": "05170000002833170", "bezeichnung": "Schöttenstraße" }, "geometry": { "type": "Point", "coordinates": [ 6.527330429554871, 51.436356815428738 ] } },
{ "type": "Feature", "properties": { "strassenschluessel": "05170000002833171", "bezeichnung": "Schubertstraße" }, "geometry": { "type": "Point", "coordinates": [ 6.574396892243837, 51.45048847453949 ] } },
{ "type": "Feature", "properties": { "strassenschluessel": "05170000002833172", "bezeichnung": "Schwalbenstraße" }, "geometry": { "type": "Point", "coordinates": [ 6.581043081675787, 51.454473692501502 ] } },
{ "type": "Feature", "properties": { "strassenschluessel": "05170000002833173", "bezeichnung": "Stettiner Straße" }, "geometry": { "type": "Point", "coordinates": [ 6.544393214556758, 51.435411439648782 ] } },
{ "type": "Feature", "properties": { "strassenschluessel": "05170000002833174", "bezeichnung": "Stratmannsweg" }, "geometry": { "type": "Point", "coordinates": [ 6.539085464785684, 51.436703971290207 ] } },
{ "type": "Feature", "properties": { "strassenschluessel": "05170000002833175", "bezeichnung": "Tannenbergweg" }, "geometry": { "type": "Point", "coordinates": [ 6.516916185067352, 51.468978774094793 ] } },
{ "type": "Feature", "properties": { "strassenschluessel": "05170000002833176", "bezeichnung": "Terniepenweg" }, "geometry": { "type": "Point", "coordinates": [ 6.52499657767426, 51.432681002495258 ] } },
{ "type": "Feature", "properties": { "strassenschluessel": "05170000002833177", "bezeichnung": "Tersteegenstraße" }, "geometry": { "type": "Point", "coordinates": [ 6.546569850402947, 51.446195126982289 ] } },
{ "type": "Feature", "properties": { "strassenschluessel": "05170000002833178", "bezeichnung": "Trixweg" }, "geometry": { "type": "Point", "coordinates": [ 6.556859153233979, 51.428025434237263 ] } },
{ "type": "Feature", "properties": { "strassenschluessel": "05170000002833179", "bezeichnung": "Vietenstraße" }, "geometry": { "type": "Point", "coordinates": [ 6.565065147140676, 51.444671114643143 ] } },
{ "type": "Feature", "properties": { "strassenschluessel": "05170000002833180", "bezeichnung": "Vinnmannsweg" }, "geometry": { "type": "Point", "coordinates": [ 6.530652929552034, 51.45328584790385 ] } },
{ "type": "Feature", "properties": { "strassenschluessel": "05170000002833181", "bezeichnung": "Vluynbuscher Straße" }, "geometry": { "type": "Point", "coordinates": [ 6.522996215738998, 51.450755980991353 ] } },
{ "type": "Feature", "properties": { "strassenschluessel": "05170000002833182", "bezeichnung": "Vluyner Straße" }, "geometry": { "type": "Point", "coordinates": [ 6.530125183244245, 51.465788361071084 ] } },
{ "type": "Feature", "properties": { "strassenschluessel": "05170000002833183", "bezeichnung": "Von-der-Leyen-Platz" }, "geometry": { "type": "Point", "coordinates": [ 6.531646134951981, 51.438296321573176 ] } },
{ "type": "Feature", "properties": { "strassenschluessel": "05170000002833184", "bezeichnung": "Vorsselsweg" }, "geometry": { "type": "Point", "coordinates": [ 6.577937163845101, 51.465324887518712 ] } },
{ "type": "Feature", "properties": { "strassenschluessel": "05170000002833185", "bezeichnung": "Waisenhausstraße" }, "geometry": { "type": "Point", "coordinates": [ 6.574991851177224, 51.452956148196435 ] } },
{ "type": "Feature", "properties": { "strassenschluessel": "05170000002833186", "bezeichnung": "Waldenburger Straße" }, "geometry": { "type": "Point", "coordinates": [ 6.553144332543109, 51.436397789390377 ] } },
{ "type": "Feature", "properties": { "strassenschluessel": "05170000002833187", "bezeichnung": "Waldmannsweg" }, "geometry": { "type": "Point", "coordinates": [ 6.526792506309734, 51.44154198607157 ] } },
{ "type": "Feature", "properties": { "strassenschluessel": "05170000002833188", "bezeichnung": "Waldstraße" }, "geometry": { "type": "Point", "coordinates": [ 6.566623605804205, 51.442555552179861 ] } },
{ "type": "Feature", "properties": { "strassenschluessel": "05170000002833189", "bezeichnung": "Waldweg" }, "geometry": { "type": "Point", "coordinates": [ 6.511732951057594, 51.479042355666934 ] } },
{ "type": "Feature", "properties": { "strassenschluessel": "05170000002833190", "bezeichnung": "Waldwinkelsweg" }, "geometry": { "type": "Point", "coordinates": [ 6.541964527467621, 51.402606726877515 ] } },
{ "type": "Feature", "properties": { "strassenschluessel": "05170000002833191", "bezeichnung": "Weddigenallee" }, "geometry": { "type": "Point", "coordinates": [ 6.562544181792175, 51.438537219036014 ] } },
{ "type": "Feature", "properties": { "strassenschluessel": "05170000002833192", "bezeichnung": "Weddigenplatz" }, "geometry": { "type": "Point", "coordinates": [ 6.562769303175547, 51.439095999586073 ] } },
{ "type": "Feature", "properties": { "strassenschluessel": "05170000002833193", "bezeichnung": "Weddigenstraße" }, "geometry": { "type": "Point", "coordinates": [ 6.564165007752853, 51.441226204128291 ] } },
{ "type": "Feature", "properties": { "strassenschluessel": "05170000002833194", "bezeichnung": "Weichselstraße" }, "geometry": { "type": "Point", "coordinates": [ 6.575087910507068, 51.458290616375614 ] } },
{ "type": "Feature", "properties": { "strassenschluessel": "05170000002833195", "bezeichnung": "Weimannsweg" }, "geometry": { "type": "Point", "coordinates": [ 6.555231681525902, 51.421198348485177 ] } },
{ "type": "Feature", "properties": { "strassenschluessel": "05170000002833196", "bezeichnung": "Weistraße" }, "geometry": { "type": "Point", "coordinates": [ 6.545342838974866, 51.446132636419769 ] } },
{ "type": "Feature", "properties": { "strassenschluessel": "05170000002833197", "bezeichnung": "Wichernstraße" }, "geometry": { "type": "Point", "coordinates": [ 6.575603501487279, 51.452982618233371 ] } },
{ "type": "Feature", "properties": { "strassenschluessel": "05170000002833198", "bezeichnung": "Wiesenstraße" }, "geometry": { "type": "Point", "coordinates": [ 6.569267087646727, 51.446199474851532 ] } },
{ "type": "Feature", "properties": { "strassenschluessel": "05170000002833199", "bezeichnung": "Wiesfurthstraße" }, "geometry": { "type": "Point", "coordinates": [ 6.583599389880892, 51.453946453896918 ] } },
{ "type": "Feature", "properties": { "strassenschluessel": "05170000002833200", "bezeichnung": "Wilhelm-Reuter-Allee" }, "geometry": { "type": "Point", "coordinates": [ 6.57996390321432, 51.444370574414485 ] } },
{ "type": "Feature", "properties": { "strassenschluessel": "05170000002833201", "bezeichnung": "Wittfeldsweg" }, "geometry": { "type": "Point", "coordinates": [ 6.525912999031556, 51.456558376461452 ] } },
{ "type": "Feature", "properties": { "strassenschluessel": "05170000002833202", "bezeichnung": "Wittrahmsweg" }, "geometry": { "type": "Point", "coordinates": [ 6.55796161652184, 51.430944140356345 ] } },
{ "type": "Feature", "properties": { "strassenschluessel": "05170000002833203", "bezeichnung": "Zum Boschhof" }, "geometry": { "type": "Point", "coordinates": [ 6.546081249663786, 51.460415825712317 ] } },
{ "type": "Feature", "properties": { "strassenschluessel": "05170000002833204", "bezeichnung": "Gottesberger Straße" }, "geometry": { "type": "Point", "coordinates": [ 6.551321131057347, 51.432128806770415 ] } },
{ "type": "Feature", "properties": { "strassenschluessel": "05170000002833205", "bezeichnung": "Grünberger Straße" }, "geometry": { "type": "Point", "coordinates": [ 6.550368336854374, 51.432057769785466 ] } },
{ "type": "Feature", "properties": { "strassenschluessel": "05170000002833206", "bezeichnung": "Reichenbacher Straße" }, "geometry": { "type": "Point", "coordinates": [ 6.553091747421829, 51.432049438893124 ] } },
{ "type": "Feature", "properties": { "strassenschluessel": "05170000002833207", "bezeichnung": "Sperlingsweg" }, "geometry": { "type": "Point", "coordinates": [ 6.583161662927711, 51.45195004302434 ] } },
{ "type": "Feature", "properties": { "strassenschluessel": "05170000002833208", "bezeichnung": "Zeisigweg" }, "geometry": { "type": "Point", "coordinates": [ 6.583937157947616, 51.453778196342498 ] } },
{ "type": "Feature", "properties": { "strassenschluessel": "05170000002833209", "bezeichnung": "Richardstraße" }, "geometry": { "type": "Point", "coordinates": [ 6.590597333846531, 51.471639496895719 ] } },
{ "type": "Feature", "properties": { "strassenschluessel": "05170000002833210", "bezeichnung": "Am Lerchenfeld" }, "geometry": { "type": "Point", "coordinates": [ 6.581440076359598, 51.456166951221725 ] } },
{ "type": "Feature", "properties": { "strassenschluessel": "05170000002833211", "bezeichnung": "Akazienstraße" }, "geometry": { "type": "Point", "coordinates": [ 6.526435002580586, 51.430453764549675 ] } },
{ "type": "Feature", "properties": { "strassenschluessel": "05170000002833212", "bezeichnung": "Oderstraße" }, "geometry": { "type": "Point", "coordinates": [ 6.580675683834387, 51.460545283189113 ] } },
{ "type": "Feature", "properties": { "strassenschluessel": "05170000002833213", "bezeichnung": "Bohnenweg" }, "geometry": { "type": "Point", "coordinates": [ 6.547398741635839, 51.443458894552982 ] } },
{ "type": "Feature", "properties": { "strassenschluessel": "05170000002833214", "bezeichnung": "Diesterwegstraße" }, "geometry": { "type": "Point", "coordinates": [ 6.550135114171493, 51.432515464188 ] } },
{ "type": "Feature", "properties": { "strassenschluessel": "05170000002833215", "bezeichnung": "Feltgenstraße" }, "geometry": { "type": "Point", "coordinates": [ 6.533799763375638, 51.433647340592174 ] } },
{ "type": "Feature", "properties": { "strassenschluessel": "05170000002833216", "bezeichnung": "Heideweg" }, "geometry": { "type": "Point", "coordinates": [ 6.547522119468866, 51.443070918775582 ] } },
{ "type": "Feature", "properties": { "strassenschluessel": "05170000002833217", "bezeichnung": "Vluyner Platz" }, "geometry": { "type": "Point", "coordinates": [ 6.53084834519815, 51.437091248901389 ] } },
{ "type": "Feature", "properties": { "strassenschluessel": "05170000002833219", "bezeichnung": "Kiefernweg" }, "geometry": { "type": "Point", "coordinates": [ 6.522156632200189, 51.430523284393907 ] } },
{ "type": "Feature", "properties": { "strassenschluessel": "05170000002833220", "bezeichnung": "Ulmenweg" }, "geometry": { "type": "Point", "coordinates": [ 6.523149868750059, 51.430535859283168 ] } },
{ "type": "Feature", "properties": { "strassenschluessel": "05170000002833221", "bezeichnung": "Humboldtstraße" }, "geometry": { "type": "Point", "coordinates": [ 6.537169698711403, 51.439316185057791 ] } },
{ "type": "Feature", "properties": { "strassenschluessel": "05170000002833222", "bezeichnung": "Leibnizstraße" }, "geometry": { "type": "Point", "coordinates": [ 6.538181860343579, 51.439855041298713 ] } },
{ "type": "Feature", "properties": { "strassenschluessel": "05170000002833223", "bezeichnung": "Vluyner Nordring" }, "geometry": { "type": "Point", "coordinates": [ 6.538172710682731, 51.441010121431219 ] } },
{ "type": "Feature", "properties": { "strassenschluessel": "05170000002833224", "bezeichnung": "Münchweg" }, "geometry": { "type": "Point", "coordinates": [ 6.550111056022214, 51.435991090084535 ] } },
{ "type": "Feature", "properties": { "strassenschluessel": "05170000002833225", "bezeichnung": "Vluyner Südring" }, "geometry": { "type": "Point", "coordinates": [ 6.539117021443747, 51.434777524333931 ] } },
{ "type": "Feature", "properties": { "strassenschluessel": "05170000002833226", "bezeichnung": "Heinrich-Trox-Platz" }, "geometry": { "type": "Point", "coordinates": [ 6.540761134004283, 51.438164605319535 ] } },
{ "type": "Feature", "properties": { "strassenschluessel": "05170000002833227", "bezeichnung": "Paschenfurth" }, "geometry": { "type": "Point", "coordinates": [ 6.577794806846883, 51.462444270490039 ] } },
{ "type": "Feature", "properties": { "strassenschluessel": "05170000002833228", "bezeichnung": "Richard-Wagner-Straße" }, "geometry": { "type": "Point", "coordinates": [ 6.57450706391262, 51.448505480673361 ] } },
{ "type": "Feature", "properties": { "strassenschluessel": "05170000002833229", "bezeichnung": "Inneboltskat" }, "geometry": { "type": "Point", "coordinates": [ 6.542801533074686, 51.429373203663673 ] } },
{ "type": "Feature", "properties": { "strassenschluessel": "05170000002833230", "bezeichnung": "Lintforter Straße" }, "geometry": null },
{ "type": "Feature", "properties": { "strassenschluessel": "05170000002833231", "bezeichnung": "An der Neuen Mühle" }, "geometry": { "type": "Point", "coordinates": [ 6.575420109901839, 51.424583821734025 ] } },
{ "type": "Feature", "properties": { "strassenschluessel": "05170000002833232", "bezeichnung": "Händelstraße" }, "geometry": { "type": "Point", "coordinates": [ 6.564257371281037, 51.449991597887802 ] } },
{ "type": "Feature", "properties": { "strassenschluessel": "05170000002833233", "bezeichnung": "Brahmsweg" }, "geometry": { "type": "Point", "coordinates": [ 6.565972936840441, 51.450399455004415 ] } },
{ "type": "Feature", "properties": { "strassenschluessel": "05170000002833234", "bezeichnung": "Haydnstraße" }, "geometry": { "type": "Point", "coordinates": [ 6.56486281533391, 51.449163575026219 ] } },
{ "type": "Feature", "properties": { "strassenschluessel": "05170000002833235", "bezeichnung": "Schumannweg" }, "geometry": { "type": "Point", "coordinates": [ 6.56735134170779, 51.44928490053919 ] } },
{ "type": "Feature", "properties": { "strassenschluessel": "05170000002833236", "bezeichnung": "Kirchplatz" }, "geometry": { "type": "Point", "coordinates": [ 6.530001532891365, 51.438474121193032 ] } },
{ "type": "Feature", "properties": { "strassenschluessel": "05170000002833237", "bezeichnung": "Schulplatz" }, "geometry": { "type": "Point", "coordinates": [ 6.531114341798199, 51.439338115058199 ] } },
{ "type": "Feature", "properties": { "strassenschluessel": "05170000002833238", "bezeichnung": "Dürerstraße" }, "geometry": { "type": "Point", "coordinates": [ 6.534213205858158, 51.444038555572654 ] } },
{ "type": "Feature", "properties": { "strassenschluessel": "05170000002833239", "bezeichnung": "Menzelweg" }, "geometry": { "type": "Point", "coordinates": [ 6.534635516057187, 51.44482292973786 ] } },
{ "type": "Feature", "properties": { "strassenschluessel": "05170000002833240", "bezeichnung": "Rembrandtweg" }, "geometry": { "type": "Point", "coordinates": [ 6.535907117947103, 51.446061978359637 ] } },
{ "type": "Feature", "properties": { "strassenschluessel": "05170000002833241", "bezeichnung": "Rubensweg" }, "geometry": { "type": "Point", "coordinates": [ 6.534049593622028, 51.443721116490515 ] } },
{ "type": "Feature", "properties": { "strassenschluessel": "05170000002833242", "bezeichnung": "Spitzweggasse" }, "geometry": { "type": "Point", "coordinates": [ 6.533888984595571, 51.445790560704822 ] } },
{ "type": "Feature", "properties": { "strassenschluessel": "05170000002833243", "bezeichnung": "Thomaweg" }, "geometry": { "type": "Point", "coordinates": [ 6.535515792168158, 51.446991967335258 ] } },
{ "type": "Feature", "properties": { "strassenschluessel": "05170000002833244", "bezeichnung": "Zilleweg" }, "geometry": { "type": "Point", "coordinates": [ 6.533229127328725, 51.444200099272635 ] } },
{ "type": "Feature", "properties": { "strassenschluessel": "05170000002833245", "bezeichnung": "Neukirchener Ring" }, "geometry": { "type": "Point", "coordinates": [ 6.57886950698373, 51.457095637389244 ] } },
{ "type": "Feature", "properties": { "strassenschluessel": "05170000002833246", "bezeichnung": "Benedensdyk" }, "geometry": { "type": "Point", "coordinates": [ 6.545960424863842, 51.404152374439114 ] } },
{ "type": "Feature", "properties": { "strassenschluessel": "05170000002833247", "bezeichnung": "Am Hoschenhof" }, "geometry": { "type": "Point", "coordinates": [ 6.519662373795942, 51.431096450068075 ] } },
{ "type": "Feature", "properties": { "strassenschluessel": "05170000002833247", "bezeichnung": "Am Hoschenhof" }, "geometry": { "type": "Point", "coordinates": [ 6.519662373795942, 51.431096450068075 ] } },
{ "type": "Feature", "properties": { "strassenschluessel": "05170000002833248", "bezeichnung": "Am Schützenhaus" }, "geometry": { "type": "Point", "coordinates": [ 6.581088653249734, 51.447435099489525 ] } },
{ "type": "Feature", "properties": { "strassenschluessel": "05170000002833249", "bezeichnung": "Am Sourenhof" }, "geometry": { "type": "Point", "coordinates": [ 6.570891766249337, 51.448597711469141 ] } },
{ "type": "Feature", "properties": { "strassenschluessel": "05170000002833250", "bezeichnung": "Johann-Strauß-Weg" }, "geometry": { "type": "Point", "coordinates": [ 6.572251744773308, 51.447725365860222 ] } },
{ "type": "Feature", "properties": { "strassenschluessel": "05170000002833251", "bezeichnung": "Paul-Klee-Straße" }, "geometry": { "type": "Point", "coordinates": [ 6.531949035429426, 51.4427858515783 ] } },
{ "type": "Feature", "properties": { "strassenschluessel": "05170000002833252", "bezeichnung": "Barlachstraße" }, "geometry": { "type": "Point", "coordinates": [ 6.530378650559946, 51.44519712676518 ] } },
{ "type": "Feature", "properties": { "strassenschluessel": "05170000002833253", "bezeichnung": "Franz-Marc-Straße" }, "geometry": { "type": "Point", "coordinates": [ 6.529630127973708, 51.444226408891573 ] } },
{ "type": "Feature", "properties": { "strassenschluessel": "05170000002833254", "bezeichnung": "Emil-Nolde-Weg" }, "geometry": { "type": "Point", "coordinates": [ 6.530878450614656, 51.443673708027688 ] } },
{ "type": "Feature", "properties": { "strassenschluessel": "05170000002833255", "bezeichnung": "Kollwitzstraße" }, "geometry": { "type": "Point", "coordinates": [ 6.530185782294253, 51.442668024792482 ] } },
{ "type": "Feature", "properties": { "strassenschluessel": "05170000002833256", "bezeichnung": "Weserstraße" }, "geometry": { "type": "Point", "coordinates": [ 6.578162258353678, 51.461818006116452 ] } },
{ "type": "Feature", "properties": { "strassenschluessel": "05170000002833257", "bezeichnung": "Kleigaat" }, "geometry": { "type": "Point", "coordinates": [ 6.548807159229398, 51.400457236605114 ] } },
{ "type": "Feature", "properties": { "strassenschluessel": "05170000002833258", "bezeichnung": "Unterdorf" }, "geometry": { "type": "Point", "coordinates": [ 6.529993444908888, 51.437207334538293 ] } },
{ "type": "Feature", "properties": { "strassenschluessel": "05170000002833259", "bezeichnung": "Bruckhausfeld" }, "geometry": { "type": "Point", "coordinates": [ 6.531490186930998, 51.436528799920964 ] } },
{ "type": "Feature", "properties": { "strassenschluessel": "05170000002833260", "bezeichnung": "Hohenforsterweg" }, "geometry": { "type": "Point", "coordinates": [ 6.57556457320447, 51.401709865848304 ] } },
{ "type": "Feature", "properties": { "strassenschluessel": "05170000002833261", "bezeichnung": "Emil-Schweitzer-Straße A" }, "geometry": { "type": "Point", "coordinates": [ 6.568990153650107, 51.444914784000574 ] } },
{ "type": "Feature", "properties": { "strassenschluessel": "05170000002833262", "bezeichnung": "Emil-Schweitzer-Straße B" }, "geometry": { "type": "Point", "coordinates": [ 6.569743722755024, 51.444898838996821 ] } },
{ "type": "Feature", "properties": { "strassenschluessel": "05170000002833263", "bezeichnung": "Emil-Schweitzer-Straße C" }, "geometry": { "type": "Point", "coordinates": [ 6.570304969405102, 51.445025191524259 ] } },
{ "type": "Feature", "properties": { "strassenschluessel": "05170000002833264", "bezeichnung": "Emil-Schweitzer-Straße D" }, "geometry": { "type": "Point", "coordinates": [ 6.5704987507509, 51.445452008164509 ] } },
{ "type": "Feature", "properties": { "strassenschluessel": "05170000002833265", "bezeichnung": "Emil-Schweitzer-Straße E" }, "geometry": { "type": "Point", "coordinates": [ 6.571121605577645, 51.445569408308643 ] } },
{ "type": "Feature", "properties": { "strassenschluessel": "05170000002833266", "bezeichnung": "Emil-Schweitzer-Straße F" }, "geometry": { "type": "Point", "coordinates": [ 6.571708561911808, 51.445692365705547 ] } },
{ "type": "Feature", "properties": { "strassenschluessel": "05170000002833267", "bezeichnung": "Emil-Schweitzer-Straße G" }, "geometry": { "type": "Point", "coordinates": [ 6.572020278036022, 51.446006325531719 ] } },
{ "type": "Feature", "properties": { "strassenschluessel": "05170000002833268", "bezeichnung": "Emil-Schweitzer-Straße H" }, "geometry": { "type": "Point", "coordinates": [ 6.572670040842985, 51.446091223379952 ] } },
{ "type": "Feature", "properties": { "strassenschluessel": "05170000002833269", "bezeichnung": "Emil-Schweitzer-Straße J" }, "geometry": { "type": "Point", "coordinates": [ 6.573147203287523, 51.445830021513501 ] } },
{ "type": "Feature", "properties": { "strassenschluessel": "05170000002833270", "bezeichnung": "Emil-Schweitzer-Straße K" }, "geometry": { "type": "Point", "coordinates": [ 6.573261659662694, 51.445551719469343 ] } },
{ "type": "Feature", "properties": { "strassenschluessel": "05170000002833271", "bezeichnung": "Emil-Schweitzer-Straße L" }, "geometry": { "type": "Point", "coordinates": [ 6.572934032947732, 51.44523155159667 ] } },
{ "type": "Feature", "properties": { "strassenschluessel": "05170000002833272", "bezeichnung": "Emil-Schweitzer-Straße M" }, "geometry": { "type": "Point", "coordinates": [ 6.573045043256652, 51.445014415842344 ] } },
{ "type": "Feature", "properties": { "strassenschluessel": "05170000002833273", "bezeichnung": "Emil-Schweitzer-Straße N" }, "geometry": { "type": "Point", "coordinates": [ 6.572520944906142, 51.44480188688528 ] } },
{ "type": "Feature", "properties": { "strassenschluessel": "05170000002833274", "bezeichnung": "Emil-Schweitzer-Straße O" }, "geometry": { "type": "Point", "coordinates": [ 6.571944866448638, 51.444311913792603 ] } },
{ "type": "Feature", "properties": { "strassenschluessel": "05170000002833275", "bezeichnung": "Emil-Schweitzer-Straße P" }, "geometry": { "type": "Point", "coordinates": [ 6.571382315049874, 51.444562464293796 ] } },
{ "type": "Feature", "properties": { "strassenschluessel": "05170000002833276", "bezeichnung": "Emil-Schweitzer-Straße Q" }, "geometry": { "type": "Point", "coordinates": [ 6.570844796046065, 51.444544963836691 ] } },
{ "type": "Feature", "properties": { "strassenschluessel": "05170000002833277", "bezeichnung": "Emil-Schweitzer-Straße R" }, "geometry": { "type": "Point", "coordinates": [ 6.570290067798175, 51.443954966368501 ] } },
{ "type": "Feature", "properties": { "strassenschluessel": "05170000002833278", "bezeichnung": "Emil-Schweitzer-Straße S" }, "geometry": { "type": "Point", "coordinates": [ 6.569858127645976, 51.444035153711781 ] } },
{ "type": "Feature", "properties": { "strassenschluessel": "05170000002833279", "bezeichnung": "Leineweberplatz" }, "geometry": { "type": "Point", "coordinates": [ 6.5319281917728, 51.439145762305792 ] } },
{ "type": "Feature", "properties": { "strassenschluessel": "05170000002833280", "bezeichnung": "Missionshof" }, "geometry": { "type": "Point", "coordinates": [ 6.579222098840856, 51.451075536045167 ] } },
{ "type": "Feature", "properties": { "strassenschluessel": "05170000002833281", "bezeichnung": "Bonhoefferstraße" }, "geometry": { "type": "Point", "coordinates": [ 6.563273025673003, 51.448685018713284 ] } },
{ "type": "Feature", "properties": { "strassenschluessel": "05170000002833282", "bezeichnung": "Geschwister-Scholl-Straße" }, "geometry": { "type": "Point", "coordinates": [ 6.564372966917924, 51.448639256333109 ] } },
{ "type": "Feature", "properties": { "strassenschluessel": "05170000002833284", "bezeichnung": "Silberseeweg" }, "geometry": null },
{ "type": "Feature", "properties": { "strassenschluessel": "05170000002833285", "bezeichnung": "Groß-Opholt" }, "geometry": { "type": "Point", "coordinates": [ 6.543501734233378, 51.423797049489991 ] } },
{ "type": "Feature", "properties": { "strassenschluessel": "05170000002833286", "bezeichnung": "Heymannshof" }, "geometry": { "type": "Point", "coordinates": [ 6.539227111854567, 51.435727409746356 ] } },
{ "type": "Feature", "properties": { "strassenschluessel": "05170000002833287", "bezeichnung": "Ricarda-Huch-Straße" }, "geometry": { "type": "Point", "coordinates": [ 6.537196759963066, 51.434412855294454 ] } },
{ "type": "Feature", "properties": { "strassenschluessel": "05170000002833288", "bezeichnung": "Anna-Seghers-Straße" }, "geometry": { "type": "Point", "coordinates": [ 6.535103694775845, 51.433879763985772 ] } },
{ "type": "Feature", "properties": { "strassenschluessel": "05170000002833289", "bezeichnung": "Ludwig-Doll-Straße" }, "geometry": { "type": "Point", "coordinates": [ 6.576761000953796, 51.454996436745972 ] } },
{ "type": "Feature", "properties": { "strassenschluessel": "05170000002833290", "bezeichnung": "Merianstraße" }, "geometry": { "type": "Point", "coordinates": [ 6.539113320453517, 51.441398125973521 ] } },
{ "type": "Feature", "properties": { "strassenschluessel": "05170000002833291", "bezeichnung": "Von-Arnim-Weg" }, "geometry": { "type": "Point", "coordinates": [ 6.539744811478315, 51.441751275633315 ] } },
{ "type": "Feature", "properties": { "strassenschluessel": "05170000002833292", "bezeichnung": "Pascalstraße" }, "geometry": { "type": "Point", "coordinates": [ 6.545831626470015, 51.431703334521394 ] } },
{ "type": "Feature", "properties": { "strassenschluessel": "05170000002833293", "bezeichnung": "Kelvinstraße" }, "geometry": { "type": "Point", "coordinates": [ 6.542554587017485, 51.43208892465649 ] } },
{ "type": "Feature", "properties": { "strassenschluessel": "05170000002833294", "bezeichnung": "Keplerstraße" }, "geometry": { "type": "Point", "coordinates": [ 6.544159325110044, 51.428871540818854 ] } },
{ "type": "Feature", "properties": { "strassenschluessel": "05170000002833295", "bezeichnung": "Am Dreßlerhof" }, "geometry": { "type": "Point", "coordinates": [ 6.536114869034378, 51.436877534590437 ] } },
{ "type": "Feature", "properties": { "strassenschluessel": "05170000002833296", "bezeichnung": "Weberstraße" }, "geometry": { "type": "Point", "coordinates": [ 6.534406187368651, 51.43691162420653 ] } },
{ "type": "Feature", "properties": { "strassenschluessel": "05170000002833297", "bezeichnung": "Droste-Hülshoff-Straße" }, "geometry": { "type": "Point", "coordinates": [ 6.537332237627483, 51.435286749313718 ] } },
{ "type": "Feature", "properties": { "strassenschluessel": "05170000002833298", "bezeichnung": "Ina-Seidel-Straße" }, "geometry": { "type": "Point", "coordinates": [ 6.533927246462248, 51.435195327026371 ] } },
{ "type": "Feature", "properties": { "strassenschluessel": "05170000002833299", "bezeichnung": "Spreegasse" }, "geometry": { "type": "Point", "coordinates": [ 6.576123046376735, 51.457975832826612 ] } },
{ "type": "Feature", "properties": { "strassenschluessel": "05170000002833300", "bezeichnung": "Havelstraße" }, "geometry": { "type": "Point", "coordinates": [ 6.575452835035812, 51.456448176687054 ] } },
{ "type": "Feature", "properties": { "strassenschluessel": "05170000002833301", "bezeichnung": "Raiffeisenstraße" }, "geometry": { "type": "Point", "coordinates": [ 6.573177178116361, 51.458874652012923 ] } },
{ "type": "Feature", "properties": { "strassenschluessel": "05170000002833302", "bezeichnung": "Im Mausegatt" }, "geometry": { "type": "Point", "coordinates": [ 6.574391509324133, 51.438831470801944 ] } },
{ "type": "Feature", "properties": { "strassenschluessel": "05170000002833304", "bezeichnung": "Alexander-Bell-Straße" }, "geometry": null },
{ "type": "Feature", "properties": { "strassenschluessel": "05170000002833305", "bezeichnung": "Grafschafter Straße" }, "geometry": { "type": "Point", "coordinates": [ 6.586723093932994, 51.462778503204547 ] } },
{ "type": "Feature", "properties": { "strassenschluessel": "05170000002833306", "bezeichnung": "Endstraße" }, "geometry": { "type": "Point", "coordinates": [ 6.595728849923963, 51.467496613558275 ] } },
{ "type": "Feature", "properties": { "strassenschluessel": "05170000002833307", "bezeichnung": "James-Watt-Straße" }, "geometry": { "type": "Point", "coordinates": [ 6.593800032754805, 51.468601224351673 ] } },
{ "type": "Feature", "properties": { "strassenschluessel": "05170000002833308", "bezeichnung": "Mouvauxstraße" }, "geometry": { "type": "Point", "coordinates": [ 6.542298853187681, 51.433910183651506 ] } },
{ "type": "Feature", "properties": { "strassenschluessel": "05170000002833309", "bezeichnung": "Ustroner Straße" }, "geometry": { "type": "Point", "coordinates": [ 6.540015702521354, 51.433929028795085 ] } },
{ "type": "Feature", "properties": { "strassenschluessel": "05170000002833310", "bezeichnung": "Ingeborg-Bachmann-Straße" }, "geometry": { "type": "Point", "coordinates": [ 6.538338629308638, 51.434046112733874 ] } },
{ "type": "Feature", "properties": { "strassenschluessel": "05170000002833311", "bezeichnung": "Luise-Rinser-Straße" }, "geometry": { "type": "Point", "coordinates": [ 6.539027064089685, 51.433163114295731 ] } },
{ "type": "Feature", "properties": { "strassenschluessel": "05170000002833312", "bezeichnung": "Am Schmitzfeld" }, "geometry": { "type": "Point", "coordinates": [ 6.525618949544095, 51.434698347806687 ] } },
{ "type": "Feature", "properties": { "strassenschluessel": "05170000002833313", "bezeichnung": "Saalestraße" }, "geometry": { "type": "Point", "coordinates": [ 6.576511063834376, 51.457490946213227 ] } },
{ "type": "Feature", "properties": { "strassenschluessel": "05170000002833314", "bezeichnung": "Alte Weberei" }, "geometry": { "type": "Point", "coordinates": [ 6.527735409056113, 51.442792211191055 ] } },
{ "type": "Feature", "properties": { "strassenschluessel": "05170000002833315", "bezeichnung": "Antoniusstraße" }, "geometry": { "type": "Point", "coordinates": [ 6.538655775180803, 51.443233502481753 ] } },
{ "type": "Feature", "properties": { "strassenschluessel": "05170000002833316", "bezeichnung": "An der Dampfmühle" }, "geometry": { "type": "Point", "coordinates": [ 6.576992910450175, 51.445678057217549 ] } },
{ "type": "Feature", "properties": { "strassenschluessel": "05170000002833317", "bezeichnung": "An der Friedenskirche" }, "geometry": { "type": "Point", "coordinates": [ 6.56495143075845, 51.437430789913805 ] } },
{ "type": "Feature", "properties": { "strassenschluessel": "05170000002833318", "bezeichnung": "Im Ried" }, "geometry": { "type": "Point", "coordinates": [ 6.564585363013638, 51.437250800670782 ] } },
{ "type": "Feature", "properties": { "strassenschluessel": "05170000002833319", "bezeichnung": "Am Oberkamp" }, "geometry": { "type": "Point", "coordinates": [ 6.534719950118466, 51.432159149450342 ] } },
{ "type": "Feature", "properties": { "strassenschluessel": "05170000002833320", "bezeichnung": "Platz am Museum" }, "geometry": { "type": "Point", "coordinates": [ 6.533936385897956, 51.437977083884256 ] } },
{ "type": "Feature", "properties": { "strassenschluessel": "05170000002833321", "bezeichnung": "Kiebitzweg" }, "geometry": { "type": "Point", "coordinates": [ 6.581668681964014, 51.456950486148976 ] } },
{ "type": "Feature", "properties": { "strassenschluessel": "05170000002833322", "bezeichnung": "Steinbrückenstraße" }, "geometry": null },
{ "type": "Feature", "properties": { "strassenschluessel": "05170000002833323", "bezeichnung": "Kerrygoldstraße" }, "geometry": { "type": "Point", "coordinates": [ 6.592125663981734, 51.468544478489974 ] } },
{ "type": "Feature", "properties": { "strassenschluessel": "05170000002833324", "bezeichnung": "Am Alten Pastorat" }, "geometry": null },
{ "type": "Feature", "properties": { "strassenschluessel": "05170000002833325", "bezeichnung": "Barbarastraße" }, "geometry": { "type": "Point", "coordinates": [ 6.57111020082567, 51.439052156055055 ] } },
{ "type": "Feature", "properties": { "strassenschluessel": "05170000002833326", "bezeichnung": "Lookdyk" }, "geometry": null },
{ "type": "Feature", "properties": { "strassenschluessel": "05170000002833327", "bezeichnung": "Dicksche Heide" }, "geometry": { "type": "Point", "coordinates": [ 6.552164710033741, 51.442939730080276 ] } },
{ "type": "Feature", "properties": { "strassenschluessel": "05170000002833328", "bezeichnung": "Drentheweg" }, "geometry": { "type": "Point", "coordinates": [ 6.55085758575887, 51.442211532338632 ] } },
{ "type": "Feature", "properties": { "strassenschluessel": "05170000002833329", "bezeichnung": "Moränenweg" }, "geometry": { "type": "Point", "coordinates": [ 6.554041582629241, 51.443389088100901 ] } },
{ "type": "Feature", "properties": { "strassenschluessel": "05170000002833330", "bezeichnung": "Niederberg" }, "geometry": null },
{ "type": "Feature", "properties": { "strassenschluessel": "05170000002833331", "bezeichnung": "Juraweg" }, "geometry": { "type": "Point", "coordinates": [ 6.551844161530161, 51.443539438461123 ] } },
{ "type": "Feature", "properties": { "strassenschluessel": "05170000002833332", "bezeichnung": "Carbonweg" }, "geometry": { "type": "Point", "coordinates": [ 6.551755953408716, 51.444268148945284 ] } },
{ "type": "Feature", "properties": { "strassenschluessel": "05170000002833333", "bezeichnung": "Kreideweg" }, "geometry": { "type": "Point", "coordinates": [ 6.55358546423045, 51.44437706836699 ] } },
{ "type": "Feature", "properties": { "strassenschluessel": "05170000002833334", "bezeichnung": "Knappenring" }, "geometry": { "type": "Point", "coordinates": [ 6.553471048155788, 51.438146744272146 ] } },
{ "type": "Feature", "properties": { "strassenschluessel": "05170000002833335", "bezeichnung": "Grubenwehrstraße" }, "geometry": { "type": "Point", "coordinates": [ 6.5550553529636, 51.438102451061674 ] } },
{ "type": "Feature", "properties": { "strassenschluessel": "05170000002833336", "bezeichnung": "Seilfahrtstraße" }, "geometry": null },
{ "type": "Feature", "properties": { "strassenschluessel": "05170000002833337", "bezeichnung": "An den Schächten" }, "geometry": null },
{ "type": "Feature", "properties": { "strassenschluessel": "05170000002833338", "bezeichnung": "Zur Himmelstreppe" }, "geometry": null },
{ "type": "Feature", "properties": { "strassenschluessel": "05170000002833339", "bezeichnung": "Granitweg" }, "geometry": { "type": "Point", "coordinates": [ 6.556308174783495, 51.443132449414541 ] } },
{ "type": "Feature", "properties": { "strassenschluessel": "05170000002833340", "bezeichnung": "Quarzweg" }, "geometry": { "type": "Point", "coordinates": [ 6.558524163709933, 51.443931923064753 ] } },
{ "type": "Feature", "properties": { "strassenschluessel": "05170000002833341", "bezeichnung": "Schieferstraße" }, "geometry": { "type": "Point", "coordinates": [ 6.55676179312054, 51.444470529408882 ] } },
{ "type": "Feature", "properties": { "strassenschluessel": "05170000002833342", "bezeichnung": "Fröbelweg" }, "geometry": { "type": "Point", "coordinates": [ 6.546922299650252, 51.436271697643704 ] } },
{ "type": "Feature", "properties": { "strassenschluessel": "05170000002833343", "bezeichnung": "Anthrazitweg" }, "geometry": { "type": "Point", "coordinates": [ 6.555297141480428, 51.445322660830094 ] } },
{ "type": "Feature", "properties": { "strassenschluessel": "05170000002833344", "bezeichnung": "Devonweg" }, "geometry": { "type": "Point", "coordinates": [ 6.557453151215426, 51.445358998053848 ] } },
{ "type": "Feature", "properties": { "strassenschluessel": "05170000002833345", "bezeichnung": "Denkmalplatz" }, "geometry": null },
{ "type": "Feature", "properties": { "strassenschluessel": "05170000002833346", "bezeichnung": "Sandweg" }, "geometry": null },
{ "type": "Feature", "properties": { "strassenschluessel": "05170000002833347", "bezeichnung": "Robinienweg" }, "geometry": { "type": "Point", "coordinates": [ 6.532626373134347, 51.431274654577891 ] } },
{ "type": "Feature", "properties": { "strassenschluessel": "05170000002833348", "bezeichnung": "Wacholderweg" }, "geometry": { "type": "Point", "coordinates": [ 6.531652100468667, 51.431832525689899 ] } },
{ "type": "Feature", "properties": { "strassenschluessel": "05170000002833349", "bezeichnung": "Am Markt" }, "geometry": null },
{ "type": "Feature", "properties": { "strassenschluessel": "05170000002833490", "bezeichnung": "Siedlung Egelsberg" }, "geometry": null },
{ "type": "Feature", "properties": { "strassenschluessel": "051700000028=3157", "bezeichnung": "Autobahn Nimwegen-Köln (E31)" }, "geometry": null },
{ "type": "Feature", "properties": { "strassenschluessel": "051700000028=3440", "bezeichnung": "Autobahn Venlo-Dortmund (E34)" }, "geometry": null },
{ "type": "Feature", "properties": { "strassenschluessel": "051700000028=9231", "bezeichnung": "Eisenbahn Moers-Sevelen" }, "geometry": null }
]
}
