{
"type": "FeatureCollection",
"features": [
{ "type": "Feature", "properties": { "strassenschluessel": "05162000002400100", "bezeichnung": "Abteiweg" }, "geometry": { "type": "Point", "coordinates": [ 6.714171026558795, 51.176226783691334 ] } },
{ "type": "Feature", "properties": { "strassenschluessel": "05162000002400110", "bezeichnung": "Ackerweg" }, "geometry": { "type": "Point", "coordinates": [ 6.712652709188561, 51.143024982667264 ] } },
{ "type": "Feature", "properties": { "strassenschluessel": "05162000002400120", "bezeichnung": "Adlerstraße" }, "geometry": { "type": "Point", "coordinates": [ 6.730297238182752, 51.153490683650219 ] } },
{ "type": "Feature", "properties": { "strassenschluessel": "05162000002400130", "bezeichnung": "Adolf-Flecken-Straße" }, "geometry": { "type": "Point", "coordinates": [ 6.683569564261046, 51.202357851736544 ] } },
{ "type": "Feature", "properties": { "strassenschluessel": "05162000002400140", "bezeichnung": "Adolfstraße" }, "geometry": { "type": "Point", "coordinates": [ 6.674107475886121, 51.20657443120642 ] } },
{ "type": "Feature", "properties": { "strassenschluessel": "05162000002400141", "bezeichnung": "Adolfstraße" }, "geometry": { "type": "Point", "coordinates": [ 6.670839213221993, 51.208438727417054 ] } },
{ "type": "Feature", "properties": { "strassenschluessel": "05162000002400150", "bezeichnung": "Aggerstraße" }, "geometry": { "type": "Point", "coordinates": [ 6.731962073814723, 51.165575663140501 ] } },
{ "type": "Feature", "properties": { "strassenschluessel": "05162000002400153", "bezeichnung": "Agrippastraße" }, "geometry": null },
{ "type": "Feature", "properties": { "strassenschluessel": "05162000002400155", "bezeichnung": "Agrippinaweg" }, "geometry": { "type": "Point", "coordinates": [ 6.704454816065011, 51.184334399238665 ] } },
{ "type": "Feature", "properties": { "strassenschluessel": "05162000002400160", "bezeichnung": "Ahornstraße" }, "geometry": { "type": "Point", "coordinates": [ 6.724468922385471, 51.12181946529703 ] } },
{ "type": "Feature", "properties": { "strassenschluessel": "05162000002400170", "bezeichnung": "Ahrstraße" }, "geometry": { "type": "Point", "coordinates": [ 6.732096178688506, 51.162850317203663 ] } },
{ "type": "Feature", "properties": { "strassenschluessel": "05162000002400180", "bezeichnung": "Akazienweg" }, "geometry": { "type": "Point", "coordinates": [ 6.727745680642003, 51.123610947953551 ] } },
{ "type": "Feature", "properties": { "strassenschluessel": "05162000002400190", "bezeichnung": "Albert-Schatz-Straße" }, "geometry": { "type": "Point", "coordinates": [ 6.664853072842932, 51.157632236822323 ] } },
{ "type": "Feature", "properties": { "strassenschluessel": "05162000002400200", "bezeichnung": "Albert-Schweitzer-Straße" }, "geometry": { "type": "Point", "coordinates": [ 6.744913797251404, 51.138714779368556 ] } },
{ "type": "Feature", "properties": { "strassenschluessel": "05162000002400210", "bezeichnung": "Albertus-Magnus-Straße" }, "geometry": { "type": "Point", "coordinates": [ 6.745561810697288, 51.138391846581648 ] } },
{ "type": "Feature", "properties": { "strassenschluessel": "05162000002400220", "bezeichnung": "Alemannenstraße" }, "geometry": { "type": "Point", "coordinates": [ 6.676170189961365, 51.206921130545091 ] } },
{ "type": "Feature", "properties": { "strassenschluessel": "05162000002400230", "bezeichnung": "Alex-Schmorell-Straße" }, "geometry": { "type": "Point", "coordinates": [ 6.691933443695159, 51.154088184119821 ] } },
{ "type": "Feature", "properties": { "strassenschluessel": "05162000002400240", "bezeichnung": "Alexianerplatz" }, "geometry": { "type": "Point", "coordinates": [ 6.704064953162237, 51.18970763668419 ] } },
{ "type": "Feature", "properties": { "strassenschluessel": "05162000002400250", "bezeichnung": "Alfred-Delp-Straße" }, "geometry": { "type": "Point", "coordinates": [ 6.696647213208751, 51.16052030212191 ] } },
{ "type": "Feature", "properties": { "strassenschluessel": "05162000002400255", "bezeichnung": "Alfred-Pierburg-Straße" }, "geometry": { "type": "Point", "coordinates": [ 6.691621568061941, 51.223131200148849 ] } },
{ "type": "Feature", "properties": { "strassenschluessel": "05162000002400257", "bezeichnung": "Allmende" }, "geometry": { "type": "Point", "coordinates": [ 6.789860604201671, 51.163176799413499 ] } },
{ "type": "Feature", "properties": { "strassenschluessel": "05162000002400260", "bezeichnung": "Aloysiusstraße" }, "geometry": { "type": "Point", "coordinates": [ 6.750115684234551, 51.148091378440952 ] } },
{ "type": "Feature", "properties": { "strassenschluessel": "05162000002400270", "bezeichnung": "Alte Aachener Straße" }, "geometry": { "type": "Point", "coordinates": [ 6.682848567761436, 51.189156623245957 ] } },
{ "type": "Feature", "properties": { "strassenschluessel": "05162000002400280", "bezeichnung": "Alte Hauptstraße" }, "geometry": { "type": "Point", "coordinates": [ 6.7333923669788, 51.128284526304881 ] } },
{ "type": "Feature", "properties": { "strassenschluessel": "05162000002400290", "bezeichnung": "Alte Uferstraße" }, "geometry": { "type": "Point", "coordinates": [ 6.704282402311496, 51.142592013197834 ] } },
{ "type": "Feature", "properties": { "strassenschluessel": "05162000002400300", "bezeichnung": "Altebrücker Straße" }, "geometry": { "type": "Point", "coordinates": [ 6.741844010168631, 51.137872803409287 ] } },
{ "type": "Feature", "properties": { "strassenschluessel": "05162000002400320", "bezeichnung": "Am Alten Bach" }, "geometry": { "type": "Point", "coordinates": [ 6.745658928300276, 51.141224541421167 ] } },
{ "type": "Feature", "properties": { "strassenschluessel": "05162000002400330", "bezeichnung": "Am Alten Sportplatz" }, "geometry": { "type": "Point", "coordinates": [ 6.670305946290368, 51.165689255908795 ] } },
{ "type": "Feature", "properties": { "strassenschluessel": "05162000002400335", "bezeichnung": "Am Alten Wasserturm" }, "geometry": null },
{ "type": "Feature", "properties": { "strassenschluessel": "05162000002400340", "bezeichnung": "Am Alten Weiher" }, "geometry": { "type": "Point", "coordinates": [ 6.693063485399708, 51.194250210569187 ] } },
{ "type": "Feature", "properties": { "strassenschluessel": "05162000002400360", "bezeichnung": "Am Backes" }, "geometry": { "type": "Point", "coordinates": [ 6.700108447123932, 51.141605140005481 ] } },
{ "type": "Feature", "properties": { "strassenschluessel": "05162000002400370", "bezeichnung": "Am Baldhof" }, "geometry": { "type": "Point", "coordinates": [ 6.68480093272007, 51.179358169496112 ] } },
{ "type": "Feature", "properties": { "strassenschluessel": "05162000002400375", "bezeichnung": "Am Bettikumer Hof" }, "geometry": { "type": "Point", "coordinates": [ 6.715177752903307, 51.145386098069217 ] } },
{ "type": "Feature", "properties": { "strassenschluessel": "05162000002400385", "bezeichnung": "Am Blankenwasser" }, "geometry": { "type": "Point", "coordinates": [ 6.749038514652827, 51.1647853637634 ] } },
{ "type": "Feature", "properties": { "strassenschluessel": "05162000002400386", "bezeichnung": "Am Blankenwasser" }, "geometry": { "type": "Point", "coordinates": [ 6.7589217515488, 51.1538065136942 ] } },
{ "type": "Feature", "properties": { "strassenschluessel": "05162000002400390", "bezeichnung": "Am Bollenberg" }, "geometry": { "type": "Point", "coordinates": [ 6.783883318909015, 51.161669878101904 ] } },
{ "type": "Feature", "properties": { "strassenschluessel": "05162000002400395", "bezeichnung": "Am Bommerhof" }, "geometry": { "type": "Point", "coordinates": [ 6.683832608806112, 51.230320328286858 ] } },
{ "type": "Feature", "properties": { "strassenschluessel": "05162000002400400", "bezeichnung": "Am Clemenshof" }, "geometry": { "type": "Point", "coordinates": [ 6.653567319265777, 51.208108745097547 ] } },
{ "type": "Feature", "properties": { "strassenschluessel": "05162000002400410", "bezeichnung": "Am Derikumer Hof" }, "geometry": { "type": "Point", "coordinates": [ 6.730744490465113, 51.167231081417931 ] } },
{ "type": "Feature", "properties": { "strassenschluessel": "05162000002400411", "bezeichnung": "Am Derikumer Hof" }, "geometry": { "type": "Point", "coordinates": [ 6.733274554429329, 51.166382832243244 ] } },
{ "type": "Feature", "properties": { "strassenschluessel": "05162000002400420", "bezeichnung": "Am Deußhof" }, "geometry": { "type": "Point", "coordinates": [ 6.693677014409906, 51.158173043372088 ] } },
{ "type": "Feature", "properties": { "strassenschluessel": "05162000002400430", "bezeichnung": "Am Dormannsbusch" }, "geometry": { "type": "Point", "coordinates": [ 6.747227242249963, 51.174424943518169 ] } },
{ "type": "Feature", "properties": { "strassenschluessel": "05162000002400440", "bezeichnung": "Am Dreieck" }, "geometry": { "type": "Point", "coordinates": [ 6.730534674223813, 51.126627823777426 ] } },
{ "type": "Feature", "properties": { "strassenschluessel": "05162000002400450", "bezeichnung": "Am Driesch" }, "geometry": { "type": "Point", "coordinates": [ 6.677697006547885, 51.140727251230572 ] } },
{ "type": "Feature", "properties": { "strassenschluessel": "05162000002400460", "bezeichnung": "Am Erprather Weg" }, "geometry": { "type": "Point", "coordinates": [ 6.674305966615552, 51.162631725214489 ] } },
{ "type": "Feature", "properties": { "strassenschluessel": "05162000002400465", "bezeichnung": "Am Fährweg" }, "geometry": { "type": "Point", "coordinates": [ 6.751763495190574, 51.174634030750305 ] } },
{ "type": "Feature", "properties": { "strassenschluessel": "05162000002400470", "bezeichnung": "Am Flachshof" }, "geometry": { "type": "Point", "coordinates": [ 6.659966319177431, 51.221435430941291 ] } },
{ "type": "Feature", "properties": { "strassenschluessel": "05162000002400480", "bezeichnung": "Am Friedhof" }, "geometry": null },
{ "type": "Feature", "properties": { "strassenschluessel": "05162000002400485", "bezeichnung": "Am Fronhof" }, "geometry": { "type": "Point", "coordinates": [ 6.761759077533508, 51.131351452186045 ] } },
{ "type": "Feature", "properties": { "strassenschluessel": "05162000002400490", "bezeichnung": "Am Fuchsberg" }, "geometry": { "type": "Point", "coordinates": [ 6.767177159145351, 51.15242313745032 ] } },
{ "type": "Feature", "properties": { "strassenschluessel": "05162000002400500", "bezeichnung": "Am Goldberg" }, "geometry": { "type": "Point", "coordinates": [ 6.740500270126548, 51.16227020426647 ] } },
{ "type": "Feature", "properties": { "strassenschluessel": "05162000002400510", "bezeichnung": "Am Goldmorgen" }, "geometry": { "type": "Point", "coordinates": [ 6.699166795683109, 51.144970561361347 ] } },
{ "type": "Feature", "properties": { "strassenschluessel": "05162000002400512", "bezeichnung": "Am Golfplatz" }, "geometry": { "type": "Point", "coordinates": [ 6.719254585701339, 51.160594767318621 ] } },
{ "type": "Feature", "properties": { "strassenschluessel": "05162000002400515", "bezeichnung": "Am Hagelkreuz" }, "geometry": { "type": "Point", "coordinates": [ 6.704624962246585, 51.148282708988638 ] } },
{ "type": "Feature", "properties": { "strassenschluessel": "05162000002400520", "bezeichnung": "Am Hasenberg" }, "geometry": { "type": "Point", "coordinates": [ 6.662779624378214, 51.216590675481655 ] } },
{ "type": "Feature", "properties": { "strassenschluessel": "05162000002400525", "bezeichnung": "Am Haus Vogelsang" }, "geometry": { "type": "Point", "coordinates": [ 6.666859878631042, 51.222351380248341 ] } },
{ "type": "Feature", "properties": { "strassenschluessel": "05162000002400530", "bezeichnung": "Am Heiligenhäuschen" }, "geometry": { "type": "Point", "coordinates": [ 6.674176191514993, 51.163411741478278 ] } },
{ "type": "Feature", "properties": { "strassenschluessel": "05162000002400540", "bezeichnung": "Am Henselsgraben" }, "geometry": { "type": "Point", "coordinates": [ 6.753819300107471, 51.139458753444316 ] } },
{ "type": "Feature", "properties": { "strassenschluessel": "05162000002400550", "bezeichnung": "Am Hochofen" }, "geometry": { "type": "Point", "coordinates": [ 6.715634734413716, 51.224435452001373 ] } },
{ "type": "Feature", "properties": { "strassenschluessel": "05162000002400550", "bezeichnung": "Am Hochofen" }, "geometry": { "type": "Point", "coordinates": [ 6.715634734413716, 51.224435452001373 ] } },
{ "type": "Feature", "properties": { "strassenschluessel": "05162000002400560", "bezeichnung": "Am Hohen Weg" }, "geometry": { "type": "Point", "coordinates": [ 6.672760999372686, 51.218253084484118 ] } },
{ "type": "Feature", "properties": { "strassenschluessel": "05162000002400570", "bezeichnung": "Am Hummelbach" }, "geometry": { "type": "Point", "coordinates": [ 6.703821801754811, 51.146323609503959 ] } },
{ "type": "Feature", "properties": { "strassenschluessel": "05162000002400575", "bezeichnung": "Am Illinghauser Hof" }, "geometry": { "type": "Point", "coordinates": [ 6.748611459659315, 51.140320132785646 ] } },
{ "type": "Feature", "properties": { "strassenschluessel": "05162000002400580", "bezeichnung": "Am Josefshaus" }, "geometry": { "type": "Point", "coordinates": [ 6.731375202080192, 51.134072417812014 ] } },
{ "type": "Feature", "properties": { "strassenschluessel": "05162000002400590", "bezeichnung": "Am Jostensbusch" }, "geometry": { "type": "Point", "coordinates": [ 6.664174751565461, 51.210603445061722 ] } },
{ "type": "Feature", "properties": { "strassenschluessel": "05162000002400595", "bezeichnung": "Am Jröne Meerke" }, "geometry": { "type": "Point", "coordinates": [ 6.655917895584316, 51.217670656197804 ] } },
{ "type": "Feature", "properties": { "strassenschluessel": "05162000002400600", "bezeichnung": "Am Kapellchen" }, "geometry": { "type": "Point", "coordinates": [ 6.723298555361123, 51.142655040820671 ] } },
{ "type": "Feature", "properties": { "strassenschluessel": "05162000002400610", "bezeichnung": "Am Katzenberg" }, "geometry": { "type": "Point", "coordinates": [ 6.671649555518311, 51.218586876023096 ] } },
{ "type": "Feature", "properties": { "strassenschluessel": "05162000002400620", "bezeichnung": "Am Kaulacker" }, "geometry": { "type": "Point", "coordinates": [ 6.747477468361446, 51.139340696080403 ] } },
{ "type": "Feature", "properties": { "strassenschluessel": "05162000002400625", "bezeichnung": "Am Kehlturm" }, "geometry": null },
{ "type": "Feature", "properties": { "strassenschluessel": "05162000002400628", "bezeichnung": "Am Keutenhof" }, "geometry": { "type": "Point", "coordinates": [ 6.686331374661568, 51.189870613229786 ] } },
{ "type": "Feature", "properties": { "strassenschluessel": "05162000002400630", "bezeichnung": "Am Kirchberg" }, "geometry": { "type": "Point", "coordinates": [ 6.705415513866739, 51.141746158749662 ] } },
{ "type": "Feature", "properties": { "strassenschluessel": "05162000002400635", "bezeichnung": "Am Kirchenmorgen" }, "geometry": { "type": "Point", "coordinates": [ 6.754461788695028, 51.145478108714329 ] } },
{ "type": "Feature", "properties": { "strassenschluessel": "05162000002400640", "bezeichnung": "Am Kirschbäumchen" }, "geometry": { "type": "Point", "coordinates": [ 6.699119085194516, 51.159119496393906 ] } },
{ "type": "Feature", "properties": { "strassenschluessel": "05162000002400650", "bezeichnung": "Am Kivitzbusch" }, "geometry": { "type": "Point", "coordinates": [ 6.670163372171414, 51.212947792793891 ] } },
{ "type": "Feature", "properties": { "strassenschluessel": "05162000002400660", "bezeichnung": "Am Kiwittenberg" }, "geometry": { "type": "Point", "coordinates": [ 6.784326832883002, 51.162869568184 ] } },
{ "type": "Feature", "properties": { "strassenschluessel": "05162000002400670", "bezeichnung": "Am Konebusch" }, "geometry": { "type": "Point", "coordinates": [ 6.706284424838198, 51.145499588865967 ] } },
{ "type": "Feature", "properties": { "strassenschluessel": "05162000002400690", "bezeichnung": "Am Konvent" }, "geometry": { "type": "Point", "coordinates": [ 6.690719856455209, 51.200109061285978 ] } },
{ "type": "Feature", "properties": { "strassenschluessel": "05162000002400700", "bezeichnung": "Am Kotthauserweg" }, "geometry": { "type": "Point", "coordinates": [ 6.679163363577792, 51.215724480507653 ] } },
{ "type": "Feature", "properties": { "strassenschluessel": "05162000002400710", "bezeichnung": "Am Krausenbaum" }, "geometry": { "type": "Point", "coordinates": [ 6.683450541441585, 51.185690258261175 ] } },
{ "type": "Feature", "properties": { "strassenschluessel": "05162000002400720", "bezeichnung": "Am Kreitz" }, "geometry": { "type": "Point", "coordinates": [ 6.65521393881451, 51.169722722389032 ] } },
{ "type": "Feature", "properties": { "strassenschluessel": "05162000002400721", "bezeichnung": "Am Kreitz" }, "geometry": { "type": "Point", "coordinates": [ 6.653025972027715, 51.168771337157096 ] } },
{ "type": "Feature", "properties": { "strassenschluessel": "05162000002400730", "bezeichnung": "Am Kreuzfeld" }, "geometry": { "type": "Point", "coordinates": [ 6.78248661171436, 51.160320237803617 ] } },
{ "type": "Feature", "properties": { "strassenschluessel": "05162000002400740", "bezeichnung": "Am Kruchensbusch" }, "geometry": { "type": "Point", "coordinates": [ 6.671750150247282, 51.20166373135978 ] } },
{ "type": "Feature", "properties": { "strassenschluessel": "05162000002400747", "bezeichnung": "Am Kuckhofer Feld" }, "geometry": { "type": "Point", "coordinates": [ 6.760270174590818, 51.141371601482497 ] } },
{ "type": "Feature", "properties": { "strassenschluessel": "05162000002400750", "bezeichnung": "Am Leuchtenhof" }, "geometry": { "type": "Point", "coordinates": [ 6.651288590357605, 51.210895406117807 ] } },
{ "type": "Feature", "properties": { "strassenschluessel": "05162000002400752", "bezeichnung": "Am Lichtweg" }, "geometry": { "type": "Point", "coordinates": [ 6.750800259378706, 51.143865807441806 ] } },
{ "type": "Feature", "properties": { "strassenschluessel": "05162000002400753", "bezeichnung": "Am Linckhof" }, "geometry": { "type": "Point", "coordinates": [ 6.749730753993448, 51.140750890014125 ] } },
{ "type": "Feature", "properties": { "strassenschluessel": "05162000002400755", "bezeichnung": "Am Lindbruch" }, "geometry": { "type": "Point", "coordinates": [ 6.7440919519886, 51.142145143365589 ] } },
{ "type": "Feature", "properties": { "strassenschluessel": "05162000002400760", "bezeichnung": "Am Lindenplatz" }, "geometry": { "type": "Point", "coordinates": [ 6.690992328579492, 51.160733672624971 ] } },
{ "type": "Feature", "properties": { "strassenschluessel": "05162000002400765", "bezeichnung": "Am Lousfeld" }, "geometry": { "type": "Point", "coordinates": [ 6.665641493159837, 51.169590150010826 ] } },
{ "type": "Feature", "properties": { "strassenschluessel": "05162000002400770", "bezeichnung": "Am Margaretenbusch" }, "geometry": { "type": "Point", "coordinates": [ 6.659240509214986, 51.222617952729671 ] } },
{ "type": "Feature", "properties": { "strassenschluessel": "05162000002400773", "bezeichnung": "Am Marianum" }, "geometry": { "type": "Point", "coordinates": [ 6.674800723818212, 51.192608251708265 ] } },
{ "type": "Feature", "properties": { "strassenschluessel": "05162000002400775", "bezeichnung": "Am Mühlenweg" }, "geometry": { "type": "Point", "coordinates": [ 6.751107756025007, 51.144056202747215 ] } },
{ "type": "Feature", "properties": { "strassenschluessel": "05162000002400790", "bezeichnung": "Am Nierholz" }, "geometry": { "type": "Point", "coordinates": [ 6.703577095398698, 51.144126750924023 ] } },
{ "type": "Feature", "properties": { "strassenschluessel": "05162000002400800", "bezeichnung": "Am Norfbach" }, "geometry": { "type": "Point", "coordinates": [ 6.736277203947283, 51.136295087738894 ] } },
{ "type": "Feature", "properties": { "strassenschluessel": "05162000002400810", "bezeichnung": "Am Obertor" }, "geometry": { "type": "Point", "coordinates": [ 6.698370203663228, 51.194202792809797 ] } },
{ "type": "Feature", "properties": { "strassenschluessel": "05162000002400820", "bezeichnung": "Am Palmstrauch" }, "geometry": { "type": "Point", "coordinates": [ 6.693512527840901, 51.154822069495765 ] } },
{ "type": "Feature", "properties": { "strassenschluessel": "05162000002400830", "bezeichnung": "Am Pappelwäldchen" }, "geometry": { "type": "Point", "coordinates": [ 6.666048186974074, 51.220623405099253 ] } },
{ "type": "Feature", "properties": { "strassenschluessel": "05162000002400840", "bezeichnung": "Am Pickenhof" }, "geometry": { "type": "Point", "coordinates": [ 6.757280683373866, 51.142643663396569 ] } },
{ "type": "Feature", "properties": { "strassenschluessel": "05162000002400850", "bezeichnung": "Am Reckberg" }, "geometry": { "type": "Point", "coordinates": [ 6.761040828938774, 51.177310028925589 ] } },
{ "type": "Feature", "properties": { "strassenschluessel": "05162000002400851", "bezeichnung": "Am Reckberg" }, "geometry": null },
{ "type": "Feature", "properties": { "strassenschluessel": "05162000002400856", "bezeichnung": "Am RennbahnPark" }, "geometry": { "type": "Point", "coordinates": [ 6.699116598663716, 51.198202690740331 ] } },
{ "type": "Feature", "properties": { "strassenschluessel": "05162000002400858", "bezeichnung": "Am Reuschenberger Markt" }, "geometry": { "type": "Point", "coordinates": [ 6.683456425429686, 51.166481416396188 ] } },
{ "type": "Feature", "properties": { "strassenschluessel": "05162000002400860", "bezeichnung": "Am Rindergraben" }, "geometry": { "type": "Point", "coordinates": [ 6.730208788519393, 51.121231061404956 ] } },
{ "type": "Feature", "properties": { "strassenschluessel": "05162000002400870", "bezeichnung": "Am Rohlesbusch" }, "geometry": { "type": "Point", "coordinates": [ 6.700431977560134, 51.147747839794228 ] } },
{ "type": "Feature", "properties": { "strassenschluessel": "05162000002400880", "bezeichnung": "Am Römerbad" }, "geometry": { "type": "Point", "coordinates": [ 6.715555265805467, 51.187380788108953 ] } },
{ "type": "Feature", "properties": { "strassenschluessel": "05162000002400890", "bezeichnung": "Am Römerlager" }, "geometry": { "type": "Point", "coordinates": [ 6.734467076380604, 51.182199284519648 ] } },
{ "type": "Feature", "properties": { "strassenschluessel": "05162000002400900", "bezeichnung": "Am Römerweg" }, "geometry": { "type": "Point", "coordinates": [ 6.721697084339564, 51.143448967595447 ] } },
{ "type": "Feature", "properties": { "strassenschluessel": "05162000002400910", "bezeichnung": "Am Röttgen" }, "geometry": { "type": "Point", "coordinates": [ 6.754378441911411, 51.178230817140502 ] } },
{ "type": "Feature", "properties": { "strassenschluessel": "05162000002400920", "bezeichnung": "Am Sandberg" }, "geometry": { "type": "Point", "coordinates": [ 6.672731042077678, 51.163649310485262 ] } },
{ "type": "Feature", "properties": { "strassenschluessel": "05162000002400930", "bezeichnung": "Am Sandhof" }, "geometry": { "type": "Point", "coordinates": [ 6.732040250798337, 51.16317014729924 ] } },
{ "type": "Feature", "properties": { "strassenschluessel": "05162000002400935", "bezeichnung": "Am Schlicherumer Feld" }, "geometry": null },
{ "type": "Feature", "properties": { "strassenschluessel": "05162000002400938", "bezeichnung": "Am Schwanenhof" }, "geometry": null },
{ "type": "Feature", "properties": { "strassenschluessel": "05162000002400940", "bezeichnung": "Am Schwarzen Graben" }, "geometry": { "type": "Point", "coordinates": [ 6.717177359240241, 51.12395700378547 ] } },
{ "type": "Feature", "properties": { "strassenschluessel": "05162000002400950", "bezeichnung": "Am Selikumer Weg" }, "geometry": { "type": "Point", "coordinates": [ 6.672817902409641, 51.162362709579327 ] } },
{ "type": "Feature", "properties": { "strassenschluessel": "05162000002400960", "bezeichnung": "Am Spienhauer" }, "geometry": { "type": "Point", "coordinates": [ 6.699544002841933, 51.146012030360751 ] } },
{ "type": "Feature", "properties": { "strassenschluessel": "05162000002400970", "bezeichnung": "Am Sporthafen" }, "geometry": { "type": "Point", "coordinates": [ 6.726920563696454, 51.184359587919907 ] } },
{ "type": "Feature", "properties": { "strassenschluessel": "05162000002400980", "bezeichnung": "Am Stadtarchiv" }, "geometry": { "type": "Point", "coordinates": [ 6.699059452670491, 51.195178560870133 ] } },
{ "type": "Feature", "properties": { "strassenschluessel": "05162000002400990", "bezeichnung": "Am Stadtwald" }, "geometry": { "type": "Point", "coordinates": [ 6.646508221165126, 51.215434763594502 ] } },
{ "type": "Feature", "properties": { "strassenschluessel": "05162000002400991", "bezeichnung": "Am Stadtwald" }, "geometry": null },
{ "type": "Feature", "properties": { "strassenschluessel": "05162000002401000", "bezeichnung": "Am Steinacker" }, "geometry": { "type": "Point", "coordinates": [ 6.741336508891668, 51.141226892464687 ] } },
{ "type": "Feature", "properties": { "strassenschluessel": "05162000002401010", "bezeichnung": "Am Stock" }, "geometry": { "type": "Point", "coordinates": [ 6.63967239482754, 51.22930456126722 ] } },
{ "type": "Feature", "properties": { "strassenschluessel": "05162000002401020", "bezeichnung": "Am Strauchbusch" }, "geometry": { "type": "Point", "coordinates": [ 6.679674688519539, 51.229053645028891 ] } },
{ "type": "Feature", "properties": { "strassenschluessel": "05162000002401030", "bezeichnung": "Am Strickmorgen" }, "geometry": { "type": "Point", "coordinates": [ 6.686789533846788, 51.183162358765387 ] } },
{ "type": "Feature", "properties": { "strassenschluessel": "05162000002401040", "bezeichnung": "Am Südpark" }, "geometry": { "type": "Point", "coordinates": [ 6.68510432074963, 51.176197884532748 ] } },
{ "type": "Feature", "properties": { "strassenschluessel": "05162000002401045", "bezeichnung": "Am Theisenhof" }, "geometry": { "type": "Point", "coordinates": [ 6.665769963680451, 51.170233866783228 ] } },
{ "type": "Feature", "properties": { "strassenschluessel": "05162000002401050", "bezeichnung": "Am Vogelbusch" }, "geometry": { "type": "Point", "coordinates": [ 6.733524391806692, 51.13472680861689 ] } },
{ "type": "Feature", "properties": { "strassenschluessel": "05162000002401055", "bezeichnung": "Am Wannloch" }, "geometry": { "type": "Point", "coordinates": [ 6.669332985973583, 51.156261855799357 ] } },
{ "type": "Feature", "properties": { "strassenschluessel": "05162000002401060", "bezeichnung": "Am Weberholz" }, "geometry": { "type": "Point", "coordinates": [ 6.706301416649746, 51.143992893153282 ] } },
{ "type": "Feature", "properties": { "strassenschluessel": "05162000002401080", "bezeichnung": "Am Weyerskamp" }, "geometry": { "type": "Point", "coordinates": [ 6.668205953026192, 51.217574060089127 ] } },
{ "type": "Feature", "properties": { "strassenschluessel": "05162000002401090", "bezeichnung": "Am Wolfsbruch" }, "geometry": { "type": "Point", "coordinates": [ 6.734935916672604, 51.171863531436742 ] } },
{ "type": "Feature", "properties": { "strassenschluessel": "05162000002401100", "bezeichnung": "Am Zeechenplätzchen" }, "geometry": { "type": "Point", "coordinates": [ 6.671464780763928, 51.163522828724133 ] } },
{ "type": "Feature", "properties": { "strassenschluessel": "05162000002401110", "bezeichnung": "Am Ziegelofen" }, "geometry": { "type": "Point", "coordinates": [ 6.696925713747935, 51.159852377673495 ] } },
{ "type": "Feature", "properties": { "strassenschluessel": "05162000002401115", "bezeichnung": "Am Ziegenpfad" }, "geometry": { "type": "Point", "coordinates": [ 6.748597189970709, 51.172842199744601 ] } },
{ "type": "Feature", "properties": { "strassenschluessel": "05162000002401120", "bezeichnung": "Am Zollhafen" }, "geometry": { "type": "Point", "coordinates": [ 6.695918713540523, 51.19969711840443 ] } },
{ "type": "Feature", "properties": { "strassenschluessel": "05162000002401125", "bezeichnung": "Ammianusstraße" }, "geometry": null },
{ "type": "Feature", "properties": { "strassenschluessel": "05162000002401130", "bezeichnung": "Amselstraße" }, "geometry": { "type": "Point", "coordinates": [ 6.68262022222696, 51.167290432990306 ] } },
{ "type": "Feature", "properties": { "strassenschluessel": "05162000002401135", "bezeichnung": "Amsterdamer Straße" }, "geometry": { "type": "Point", "coordinates": [ 6.716450111290912, 51.170574488384545 ] } },
{ "type": "Feature", "properties": { "strassenschluessel": "05162000002401137", "bezeichnung": "An den Weiden" }, "geometry": { "type": "Point", "coordinates": [ 6.671546883790531, 51.13910010601311 ] } },
{ "type": "Feature", "properties": { "strassenschluessel": "05162000002401138", "bezeichnung": "An der Alten Ziegelei" }, "geometry": { "type": "Point", "coordinates": [ 6.736963136583368, 51.128284647376915 ] } },
{ "type": "Feature", "properties": { "strassenschluessel": "05162000002401139", "bezeichnung": "An der Alten Räucherei" }, "geometry": { "type": "Point", "coordinates": [ 6.664522641117029, 51.167352365947423 ] } },
{ "type": "Feature", "properties": { "strassenschluessel": "05162000002401140", "bezeichnung": "An der Barriere" }, "geometry": { "type": "Point", "coordinates": [ 6.684065818842388, 51.168906481473236 ] } },
{ "type": "Feature", "properties": { "strassenschluessel": "05162000002401150", "bezeichnung": "An der Eiche" }, "geometry": { "type": "Point", "coordinates": [ 6.741611845065429, 51.175863726682721 ] } },
{ "type": "Feature", "properties": { "strassenschluessel": "05162000002401160", "bezeichnung": "An der Erftmündung" }, "geometry": { "type": "Point", "coordinates": [ 6.729380447607876, 51.180446575003323 ] } },
{ "type": "Feature", "properties": { "strassenschluessel": "05162000002401165", "bezeichnung": "An der Feldscheune" }, "geometry": { "type": "Point", "coordinates": [ 6.752356431058761, 51.14447429508342 ] } },
{ "type": "Feature", "properties": { "strassenschluessel": "05162000002401170", "bezeichnung": "An der Hammer Brücke" }, "geometry": { "type": "Point", "coordinates": [ 6.715082921583922, 51.205664980343293 ] } },
{ "type": "Feature", "properties": { "strassenschluessel": "05162000002401180", "bezeichnung": "An der Hecke" }, "geometry": { "type": "Point", "coordinates": [ 6.645532688284405, 51.207686028072374 ] } },
{ "type": "Feature", "properties": { "strassenschluessel": "05162000002401200", "bezeichnung": "An der Katzenkaule" }, "geometry": { "type": "Point", "coordinates": [ 6.746730017012017, 51.140746612943254 ] } },
{ "type": "Feature", "properties": { "strassenschluessel": "05162000002401205", "bezeichnung": "An der Klause" }, "geometry": { "type": "Point", "coordinates": [ 6.667274617476269, 51.161498129115422 ] } },
{ "type": "Feature", "properties": { "strassenschluessel": "05162000002401210", "bezeichnung": "An der Kreuzhecke" }, "geometry": { "type": "Point", "coordinates": [ 6.705807615033022, 51.159775097469549 ] } },
{ "type": "Feature", "properties": { "strassenschluessel": "05162000002401220", "bezeichnung": "An der L 142" }, "geometry": null },
{ "type": "Feature", "properties": { "strassenschluessel": "05162000002401230", "bezeichnung": "An der Laage" }, "geometry": { "type": "Point", "coordinates": [ 6.711318132802162, 51.143966101184539 ] } },
{ "type": "Feature", "properties": { "strassenschluessel": "05162000002401240", "bezeichnung": "An der Maar" }, "geometry": { "type": "Point", "coordinates": [ 6.638064624701903, 51.163163763809727 ] } },
{ "type": "Feature", "properties": { "strassenschluessel": "05162000002401250", "bezeichnung": "An der Münze" }, "geometry": { "type": "Point", "coordinates": [ 6.694100825685814, 51.197643974294877 ] } },
{ "type": "Feature", "properties": { "strassenschluessel": "05162000002401260", "bezeichnung": "An der Norf" }, "geometry": { "type": "Point", "coordinates": [ 6.734509226110641, 51.166435127064062 ] } },
{ "type": "Feature", "properties": { "strassenschluessel": "05162000002401270", "bezeichnung": "An der Obererft" }, "geometry": { "type": "Point", "coordinates": [ 6.698771257394424, 51.190498063299501 ] } },
{ "type": "Feature", "properties": { "strassenschluessel": "05162000002401280", "bezeichnung": "An der Rehhecke" }, "geometry": { "type": "Point", "coordinates": [ 6.657061034005917, 51.213521020412351 ] } },
{ "type": "Feature", "properties": { "strassenschluessel": "05162000002401281", "bezeichnung": "An der Rehhecke" }, "geometry": null },
{ "type": "Feature", "properties": { "strassenschluessel": "05162000002401290", "bezeichnung": "An der Schleppbahn" }, "geometry": { "type": "Point", "coordinates": [ 6.675142671556355, 51.162954092390393 ] } },
{ "type": "Feature", "properties": { "strassenschluessel": "05162000002401292", "bezeichnung": "An der Skihalle" }, "geometry": { "type": "Point", "coordinates": [ 6.648945012088637, 51.171383728651691 ] } },
{ "type": "Feature", "properties": { "strassenschluessel": "05162000002401297", "bezeichnung": "An der Villa Sophia" }, "geometry": { "type": "Point", "coordinates": [ 6.729411240650633, 51.160134321387943 ] } },
{ "type": "Feature", "properties": { "strassenschluessel": "05162000002401299", "bezeichnung": "An der Zehntscheune" }, "geometry": { "type": "Point", "coordinates": [ 6.66553039359539, 51.169017507307636 ] } },
{ "type": "Feature", "properties": { "strassenschluessel": "05162000002401300", "bezeichnung": "Annabergstraße" }, "geometry": { "type": "Point", "coordinates": [ 6.672909195766692, 51.160371916778431 ] } },
{ "type": "Feature", "properties": { "strassenschluessel": "05162000002401305", "bezeichnung": "Angelika-Kauffmann-Straße" }, "geometry": { "type": "Point", "coordinates": [ 6.756910169195894, 51.140382282197521 ] } },
{ "type": "Feature", "properties": { "strassenschluessel": "05162000002401310", "bezeichnung": "Anne-Frank-Straße" }, "geometry": { "type": "Point", "coordinates": [ 6.695150789637651, 51.157124315360001 ] } },
{ "type": "Feature", "properties": { "strassenschluessel": "05162000002401315", "bezeichnung": "Annemarie-Renger-Straße" }, "geometry": null },
{ "type": "Feature", "properties": { "strassenschluessel": "05162000002401320", "bezeichnung": "Annostraße" }, "geometry": { "type": "Point", "coordinates": [ 6.669244283723891, 51.207602012583472 ] } },
{ "type": "Feature", "properties": { "strassenschluessel": "05162000002401325", "bezeichnung": "Antoniusweg" }, "geometry": { "type": "Point", "coordinates": [ 6.72339473850273, 51.142951865125937 ] } },
{ "type": "Feature", "properties": { "strassenschluessel": "05162000002401330", "bezeichnung": "Anton-Kux-Straße" }, "geometry": { "type": "Point", "coordinates": [ 6.713815476816984, 51.192358675497076 ] } },
{ "type": "Feature", "properties": { "strassenschluessel": "05162000002401335", "bezeichnung": "Arembergstraße" }, "geometry": { "type": "Point", "coordinates": [ 6.748209623732861, 51.177084742067223 ] } },
{ "type": "Feature", "properties": { "strassenschluessel": "05162000002401340", "bezeichnung": "Arndtstraße" }, "geometry": { "type": "Point", "coordinates": [ 6.69708604483879, 51.189542769185906 ] } },
{ "type": "Feature", "properties": { "strassenschluessel": "05162000002401345", "bezeichnung": "Artur-Platz-Weg" }, "geometry": { "type": "Point", "coordinates": [ 6.715217066419431, 51.179224446232652 ] } },
{ "type": "Feature", "properties": { "strassenschluessel": "05162000002401350", "bezeichnung": "Asternstraße" }, "geometry": { "type": "Point", "coordinates": [ 6.678303381933633, 51.167718639853135 ] } },
{ "type": "Feature", "properties": { "strassenschluessel": "05162000002401360", "bezeichnung": "Auf dem Berg" }, "geometry": { "type": "Point", "coordinates": [ 6.646177647174086, 51.207522083516331 ] } },
{ "type": "Feature", "properties": { "strassenschluessel": "05162000002401365", "bezeichnung": "Auf dem Ufer" }, "geometry": { "type": "Point", "coordinates": [ 6.693979753573064, 51.199792748794302 ] } },
{ "type": "Feature", "properties": { "strassenschluessel": "05162000002401370", "bezeichnung": "Auf den Stöcken" }, "geometry": { "type": "Point", "coordinates": [ 6.684463291277965, 51.138397680207426 ] } },
{ "type": "Feature", "properties": { "strassenschluessel": "05162000002401380", "bezeichnung": "Auf der Heide" }, "geometry": { "type": "Point", "coordinates": [ 6.650711506774848, 51.207522744117497 ] } },
{ "type": "Feature", "properties": { "strassenschluessel": "05162000002401390", "bezeichnung": "Auf'm Kamp" }, "geometry": { "type": "Point", "coordinates": [ 6.669917645312645, 51.218974493057075 ] } },
{ "type": "Feature", "properties": { "strassenschluessel": "05162000002401395", "bezeichnung": "August-Macke-Straße" }, "geometry": { "type": "Point", "coordinates": [ 6.747036447660265, 51.133448378979779 ] } },
{ "type": "Feature", "properties": { "strassenschluessel": "05162000002401400", "bezeichnung": "Augustastraße" }, "geometry": { "type": "Point", "coordinates": [ 6.674376746295122, 51.199054128535138 ] } },
{ "type": "Feature", "properties": { "strassenschluessel": "05162000002401410", "bezeichnung": "Augustinusstraße" }, "geometry": { "type": "Point", "coordinates": [ 6.700610576081545, 51.192929233342475 ] } },
{ "type": "Feature", "properties": { "strassenschluessel": "05162000002401411", "bezeichnung": "Augustinusstraße" }, "geometry": { "type": "Point", "coordinates": [ 6.703832504573989, 51.19118239189585 ] } },
{ "type": "Feature", "properties": { "strassenschluessel": "05162000002401420", "bezeichnung": "Aurinstraße" }, "geometry": { "type": "Point", "coordinates": [ 6.68985185388195, 51.165452479895961 ] } },
{ "type": "Feature", "properties": { "strassenschluessel": "05162000002401430", "bezeichnung": "Azalienstraße" }, "geometry": { "type": "Point", "coordinates": [ 6.675348473262627, 51.171072335671319 ] } },
{ "type": "Feature", "properties": { "strassenschluessel": "05162000002401450", "bezeichnung": "Bachstraße" }, "geometry": { "type": "Point", "coordinates": [ 6.680238000010985, 51.22677710800987 ] } },
{ "type": "Feature", "properties": { "strassenschluessel": "05162000002401460", "bezeichnung": "Bahnhof (Bahnhofsgebäude)" }, "geometry": { "type": "Point", "coordinates": [ 6.685089961711944, 51.206281352026679 ] } },
{ "type": "Feature", "properties": { "strassenschluessel": "05162000002401470", "bezeichnung": "Bahnhofstraße" }, "geometry": { "type": "Point", "coordinates": [ 6.664886709010443, 51.163145728763205 ] } },
{ "type": "Feature", "properties": { "strassenschluessel": "05162000002401480", "bezeichnung": "Bahnstraße" }, "geometry": { "type": "Point", "coordinates": [ 6.730551858975795, 51.160950830646662 ] } },
{ "type": "Feature", "properties": { "strassenschluessel": "05162000002401490", "bezeichnung": "Bataverstraße" }, "geometry": null },
{ "type": "Feature", "properties": { "strassenschluessel": "05162000002401491", "bezeichnung": "Bataverstraße" }, "geometry": { "type": "Point", "coordinates": [ 6.680625739962197, 51.221623470354167 ] } },
{ "type": "Feature", "properties": { "strassenschluessel": "05162000002401501", "bezeichnung": "Batteriestraße" }, "geometry": { "type": "Point", "coordinates": [ 6.693108809980366, 51.20162049717883 ] } },
{ "type": "Feature", "properties": { "strassenschluessel": "05162000002401510", "bezeichnung": "Bauerbahn" }, "geometry": { "type": "Point", "coordinates": [ 6.643744754465001, 51.196327121446096 ] } },
{ "type": "Feature", "properties": { "strassenschluessel": "05162000002401511", "bezeichnung": "Bauerbahn" }, "geometry": { "type": "Point", "coordinates": [ 6.646698065958831, 51.200449390547526 ] } },
{ "type": "Feature", "properties": { "strassenschluessel": "05162000002401520", "bezeichnung": "Bedburger Straße" }, "geometry": { "type": "Point", "coordinates": [ 6.728801017648029, 51.170024839312575 ] } },
{ "type": "Feature", "properties": { "strassenschluessel": "05162000002401530", "bezeichnung": "Beethovenstraße" }, "geometry": { "type": "Point", "coordinates": [ 6.678824846806022, 51.228413177774264 ] } },
{ "type": "Feature", "properties": { "strassenschluessel": "05162000002401540", "bezeichnung": "Begonienweg" }, "geometry": { "type": "Point", "coordinates": [ 6.724215881663195, 51.122076240790896 ] } },
{ "type": "Feature", "properties": { "strassenschluessel": "05162000002401550", "bezeichnung": "Behringstraße" }, "geometry": { "type": "Point", "coordinates": [ 6.673023404083064, 51.18656082920387 ] } },
{ "type": "Feature", "properties": { "strassenschluessel": "05162000002401560", "bezeichnung": "Bejähringerhof" }, "geometry": { "type": "Point", "coordinates": [ 6.634176942195591, 51.177892634963676 ] } },
{ "type": "Feature", "properties": { "strassenschluessel": "05162000002401570", "bezeichnung": "Bendweg" }, "geometry": { "type": "Point", "coordinates": [ 6.78263821458791, 51.161333094673672 ] } },
{ "type": "Feature", "properties": { "strassenschluessel": "05162000002401580", "bezeichnung": "Benediktweg" }, "geometry": null },
{ "type": "Feature", "properties": { "strassenschluessel": "05162000002401590", "bezeichnung": "Benzstraße" }, "geometry": { "type": "Point", "coordinates": [ 6.655679207523336, 51.227036917738751 ] } },
{ "type": "Feature", "properties": { "strassenschluessel": "05162000002401595", "bezeichnung": "Berger Weg" }, "geometry": { "type": "Point", "coordinates": [ 6.647793727985627, 51.151543746923892 ] } },
{ "type": "Feature", "properties": { "strassenschluessel": "05162000002401600", "bezeichnung": "Bergerhof" }, "geometry": null },
{ "type": "Feature", "properties": { "strassenschluessel": "05162000002401610", "bezeichnung": "Berghäuschensweg" }, "geometry": { "type": "Point", "coordinates": [ 6.706457946103761, 51.186906775504774 ] } },
{ "type": "Feature", "properties": { "strassenschluessel": "05162000002401611", "bezeichnung": "Berghäuschensweg" }, "geometry": { "type": "Point", "coordinates": [ 6.712672635802135, 51.181979108663285 ] } },
{ "type": "Feature", "properties": { "strassenschluessel": "05162000002401612", "bezeichnung": "Berghäuschensweg" }, "geometry": null },
{ "type": "Feature", "properties": { "strassenschluessel": "05162000002401620", "bezeichnung": "Bergheimer Straße" }, "geometry": { "type": "Point", "coordinates": [ 6.691899792154869, 51.192145104072004 ] } },
{ "type": "Feature", "properties": { "strassenschluessel": "05162000002401621", "bezeichnung": "Bergheimer Straße" }, "geometry": { "type": "Point", "coordinates": [ 6.683943404828296, 51.164604495216352 ] } },
{ "type": "Feature", "properties": { "strassenschluessel": "05162000002401622", "bezeichnung": "Bergheimer Straße" }, "geometry": { "type": "Point", "coordinates": [ 6.689856635036436, 51.185812882254531 ] } },
{ "type": "Feature", "properties": { "strassenschluessel": "05162000002401623", "bezeichnung": "Bergheimer Straße" }, "geometry": null },
{ "type": "Feature", "properties": { "strassenschluessel": "05162000002401624", "bezeichnung": "Bergheimer Straße" }, "geometry": null },
{ "type": "Feature", "properties": { "strassenschluessel": "05162000002401630", "bezeichnung": "Berliner Platz" }, "geometry": { "type": "Point", "coordinates": [ 6.673576301721408, 51.208706065757866 ] } },
{ "type": "Feature", "properties": { "strassenschluessel": "05162000002401631", "bezeichnung": "Berliner Platz" }, "geometry": { "type": "Point", "coordinates": [ 6.67324986611316, 51.208707459912326 ] } },
{ "type": "Feature", "properties": { "strassenschluessel": "05162000002401640", "bezeichnung": "Berliner Straße" }, "geometry": { "type": "Point", "coordinates": [ 6.672234034993402, 51.160442353203386 ] } },
{ "type": "Feature", "properties": { "strassenschluessel": "05162000002401650", "bezeichnung": "Bernhard-Letterhaus-Straße" }, "geometry": { "type": "Point", "coordinates": [ 6.703382981241857, 51.160421645930121 ] } },
{ "type": "Feature", "properties": { "strassenschluessel": "05162000002401660", "bezeichnung": "Bernhard-Lichtenberg-Straße" }, "geometry": { "type": "Point", "coordinates": [ 6.701280469854067, 51.153476878651041 ] } },
{ "type": "Feature", "properties": { "strassenschluessel": "05162000002401665", "bezeichnung": "Besenbinderweg" }, "geometry": null },
{ "type": "Feature", "properties": { "strassenschluessel": "05162000002401670", "bezeichnung": "Bettikumer Dorfstraße" }, "geometry": { "type": "Point", "coordinates": [ 6.714040161485442, 51.145375443558812 ] } },
{ "type": "Feature", "properties": { "strassenschluessel": "05162000002401680", "bezeichnung": "Bettikumer Feldstraße" }, "geometry": { "type": "Point", "coordinates": [ 6.716570845301292, 51.146333354025977 ] } },
{ "type": "Feature", "properties": { "strassenschluessel": "05162000002401690", "bezeichnung": "Bettikumer Flurstraße" }, "geometry": { "type": "Point", "coordinates": [ 6.716782095730146, 51.145027498356768 ] } },
{ "type": "Feature", "properties": { "strassenschluessel": "05162000002401700", "bezeichnung": "Bettikumer Grund" }, "geometry": { "type": "Point", "coordinates": [ 6.713892295051656, 51.144650611187956 ] } },
{ "type": "Feature", "properties": { "strassenschluessel": "05162000002401710", "bezeichnung": "Bettikumer Kampweg" }, "geometry": { "type": "Point", "coordinates": [ 6.711885584743237, 51.143414358929078 ] } },
{ "type": "Feature", "properties": { "strassenschluessel": "05162000002401720", "bezeichnung": "Bettikumer Straße" }, "geometry": { "type": "Point", "coordinates": [ 6.705188531093051, 51.143260712885365 ] } },
{ "type": "Feature", "properties": { "strassenschluessel": "05162000002401725", "bezeichnung": "Bettina-von-Arnim-Straße" }, "geometry": { "type": "Point", "coordinates": [ 6.696678377399166, 51.187360228866744 ] } },
{ "type": "Feature", "properties": { "strassenschluessel": "05162000002401730", "bezeichnung": "Bickenbachstraße" }, "geometry": { "type": "Point", "coordinates": [ 6.66147060737777, 51.223220189150702 ] } },
{ "type": "Feature", "properties": { "strassenschluessel": "05162000002401740", "bezeichnung": "Bickhausener Straße" }, "geometry": { "type": "Point", "coordinates": [ 6.630825492736244, 51.17315747348183 ] } },
{ "type": "Feature", "properties": { "strassenschluessel": "05162000002401750", "bezeichnung": "Birkenstraße" }, "geometry": { "type": "Point", "coordinates": [ 6.687824566208245, 51.165649466425826 ] } },
{ "type": "Feature", "properties": { "strassenschluessel": "05162000002401760", "bezeichnung": "Birkhofstraße" }, "geometry": { "type": "Point", "coordinates": [ 6.630850376225115, 51.171282233475125 ] } },
{ "type": "Feature", "properties": { "strassenschluessel": "05162000002401770", "bezeichnung": "Birkweg" }, "geometry": { "type": "Point", "coordinates": [ 6.726953863555916, 51.155760556609891 ] } },
{ "type": "Feature", "properties": { "strassenschluessel": "05162000002401780", "bezeichnung": "Bismarckstraße" }, "geometry": { "type": "Point", "coordinates": [ 6.677049386567919, 51.198824937826231 ] } },
{ "type": "Feature", "properties": { "strassenschluessel": "05162000002401790", "bezeichnung": "Blankenheimer Straße" }, "geometry": { "type": "Point", "coordinates": [ 6.728290951133671, 51.165227388610077 ] } },
{ "type": "Feature", "properties": { "strassenschluessel": "05162000002401800", "bezeichnung": "Blausteinsweg" }, "geometry": null },
{ "type": "Feature", "properties": { "strassenschluessel": "05162000002401801", "bezeichnung": "Blausteinsweg" }, "geometry": { "type": "Point", "coordinates": [ 6.665729993923117, 51.16814445892323 ] } },
{ "type": "Feature", "properties": { "strassenschluessel": "05162000002401810", "bezeichnung": "Bleichgasse" }, "geometry": { "type": "Point", "coordinates": [ 6.686203137932167, 51.202362809846861 ] } },
{ "type": "Feature", "properties": { "strassenschluessel": "05162000002401820", "bezeichnung": "Bleichstraße" }, "geometry": { "type": "Point", "coordinates": [ 6.687007676372499, 51.203030662910187 ] } },
{ "type": "Feature", "properties": { "strassenschluessel": "05162000002401825", "bezeichnung": "Blindeisenweg" }, "geometry": { "type": "Point", "coordinates": [ 6.757923586228507, 51.160955300269109 ] } },
{ "type": "Feature", "properties": { "strassenschluessel": "05162000002401830", "bezeichnung": "Blücherstraße" }, "geometry": { "type": "Point", "coordinates": [ 6.691851544604447, 51.216504374823685 ] } },
{ "type": "Feature", "properties": { "strassenschluessel": "05162000002401840", "bezeichnung": "Bockholtstraße" }, "geometry": { "type": "Point", "coordinates": [ 6.691141132834595, 51.22246312590439 ] } },
{ "type": "Feature", "properties": { "strassenschluessel": "05162000002401850", "bezeichnung": "Böcklerstraße" }, "geometry": { "type": "Point", "coordinates": [ 6.666693989280429, 51.22449652716557 ] } },
{ "type": "Feature", "properties": { "strassenschluessel": "05162000002401860", "bezeichnung": "Böhmerstraße" }, "geometry": { "type": "Point", "coordinates": [ 6.660852830774862, 51.223856503453455 ] } },
{ "type": "Feature", "properties": { "strassenschluessel": "05162000002401865", "bezeichnung": "Bongarder Hof" }, "geometry": { "type": "Point", "coordinates": [ 6.75288888384531, 51.141799186854357 ] } },
{ "type": "Feature", "properties": { "strassenschluessel": "05162000002401870", "bezeichnung": "Bongartzhof" }, "geometry": { "type": "Point", "coordinates": [ 6.634355060153323, 51.155232598633113 ] } },
{ "type": "Feature", "properties": { "strassenschluessel": "05162000002401880", "bezeichnung": "Bongertweg" }, "geometry": { "type": "Point", "coordinates": [ 6.78236647475578, 51.162000884485266 ] } },
{ "type": "Feature", "properties": { "strassenschluessel": "05162000002401885", "bezeichnung": "Bonifatiusweg" }, "geometry": { "type": "Point", "coordinates": [ 6.659174280504002, 51.166565002751064 ] } },
{ "type": "Feature", "properties": { "strassenschluessel": "05162000002401890", "bezeichnung": "Bonner Straße" }, "geometry": { "type": "Point", "coordinates": [ 6.748337770202143, 51.175280805177607 ] } },
{ "type": "Feature", "properties": { "strassenschluessel": "05162000002401891", "bezeichnung": "Bonner Straße" }, "geometry": { "type": "Point", "coordinates": [ 6.778273849471549, 51.157771019931026 ] } },
{ "type": "Feature", "properties": { "strassenschluessel": "05162000002401900", "bezeichnung": "Bootsgäßchen" }, "geometry": null },
{ "type": "Feature", "properties": { "strassenschluessel": "05162000002401910", "bezeichnung": "Borsigstraße" }, "geometry": { "type": "Point", "coordinates": [ 6.745861770179503, 51.159385324313384 ] } },
{ "type": "Feature", "properties": { "strassenschluessel": "05162000002401920", "bezeichnung": "Boschstraße" }, "geometry": { "type": "Point", "coordinates": [ 6.654585686149188, 51.226240157414601 ] } },
{ "type": "Feature", "properties": { "strassenschluessel": "05162000002401940", "bezeichnung": "Brabanterstraße" }, "geometry": { "type": "Point", "coordinates": [ 6.670547182069698, 51.221563482190938 ] } },
{ "type": "Feature", "properties": { "strassenschluessel": "05162000002401950", "bezeichnung": "Brahmsstraße" }, "geometry": { "type": "Point", "coordinates": [ 6.683373528091521, 51.228913468893552 ] } },
{ "type": "Feature", "properties": { "strassenschluessel": "05162000002401960", "bezeichnung": "Brandenburgstraße" }, "geometry": { "type": "Point", "coordinates": [ 6.662372477648555, 51.213154930875767 ] } },
{ "type": "Feature", "properties": { "strassenschluessel": "05162000002401970", "bezeichnung": "Brandgasse" }, "geometry": { "type": "Point", "coordinates": [ 6.688850212304498, 51.199073760160353 ] } },
{ "type": "Feature", "properties": { "strassenschluessel": "05162000002401980", "bezeichnung": "Breite Straße" }, "geometry": { "type": "Point", "coordinates": [ 6.687334437911067, 51.19643105491032 ] } },
{ "type": "Feature", "properties": { "strassenschluessel": "05162000002401990", "bezeichnung": "Breitgasse" }, "geometry": { "type": "Point", "coordinates": [ 6.686847109075334, 51.196175959370066 ] } },
{ "type": "Feature", "properties": { "strassenschluessel": "05162000002402000", "bezeichnung": "Breslauer Straße" }, "geometry": { "type": "Point", "coordinates": [ 6.721395069094945, 51.200308154907567 ] } },
{ "type": "Feature", "properties": { "strassenschluessel": "05162000002402005", "bezeichnung": "Broichhofweg" }, "geometry": null },
{ "type": "Feature", "properties": { "strassenschluessel": "05162000002402010", "bezeichnung": "Broichstraße" }, "geometry": { "type": "Point", "coordinates": [ 6.662448196511367, 51.211166192999571 ] } },
{ "type": "Feature", "properties": { "strassenschluessel": "05162000002402020", "bezeichnung": "Brombeerweg" }, "geometry": { "type": "Point", "coordinates": [ 6.723262362792749, 51.122773111665374 ] } },
{ "type": "Feature", "properties": { "strassenschluessel": "05162000002402030", "bezeichnung": "Brücke" }, "geometry": { "type": "Point", "coordinates": [ 6.65511562077335, 51.224848598637948 ] } },
{ "type": "Feature", "properties": { "strassenschluessel": "05162000002402040", "bezeichnung": "Brückerfeldstraße" }, "geometry": { "type": "Point", "coordinates": [ 6.658249825539307, 51.221514410618006 ] } },
{ "type": "Feature", "properties": { "strassenschluessel": "05162000002402050", "bezeichnung": "Brucknerstraße" }, "geometry": { "type": "Point", "coordinates": [ 6.680970319280491, 51.227217886003594 ] } },
{ "type": "Feature", "properties": { "strassenschluessel": "05162000002402060", "bezeichnung": "Brückstraße" }, "geometry": { "type": "Point", "coordinates": [ 6.695330632912468, 51.198079823221555 ] } },
{ "type": "Feature", "properties": { "strassenschluessel": "05162000002402070", "bezeichnung": "Brunnenstraße" }, "geometry": { "type": "Point", "coordinates": [ 6.726918346013225, 51.133395468422506 ] } },
{ "type": "Feature", "properties": { "strassenschluessel": "05162000002402075", "bezeichnung": "Brüsseler Straße" }, "geometry": { "type": "Point", "coordinates": [ 6.719836533688023, 51.171718456759699 ] } },
{ "type": "Feature", "properties": { "strassenschluessel": "05162000002402080", "bezeichnung": "Büchel" }, "geometry": { "type": "Point", "coordinates": [ 6.691115185725938, 51.198894965795574 ] } },
{ "type": "Feature", "properties": { "strassenschluessel": "05162000002402085", "bezeichnung": "Bücheleresweg" }, "geometry": { "type": "Point", "coordinates": [ 6.724989064912517, 51.154324646991881 ] } },
{ "type": "Feature", "properties": { "strassenschluessel": "05162000002402090", "bezeichnung": "Buchenstraße" }, "geometry": { "type": "Point", "coordinates": [ 6.732421473968536, 51.1243159180991 ] } },
{ "type": "Feature", "properties": { "strassenschluessel": "05162000002402100", "bezeichnung": "Buchsbaumstraße" }, "geometry": { "type": "Point", "coordinates": [ 6.719192716507537, 51.121938453056082 ] } },
{ "type": "Feature", "properties": { "strassenschluessel": "05162000002402110", "bezeichnung": "Büdericher Straße" }, "geometry": { "type": "Point", "coordinates": [ 6.690637520257133, 51.215710962529776 ] } },
{ "type": "Feature", "properties": { "strassenschluessel": "05162000002402120", "bezeichnung": "Burggraben" }, "geometry": { "type": "Point", "coordinates": [ 6.689590004341149, 51.201436520799575 ] } },
{ "type": "Feature", "properties": { "strassenschluessel": "05162000002402130", "bezeichnung": "Burgstraße" }, "geometry": { "type": "Point", "coordinates": [ 6.72649800361623, 51.156858240858675 ] } },
{ "type": "Feature", "properties": { "strassenschluessel": "05162000002402140", "bezeichnung": "Burgunderstraße" }, "geometry": { "type": "Point", "coordinates": [ 6.674750831915797, 51.206927565483319 ] } },
{ "type": "Feature", "properties": { "strassenschluessel": "05162000002402150", "bezeichnung": "Burgweg" }, "geometry": { "type": "Point", "coordinates": [ 6.688787723255295, 51.16033414784556 ] } },
{ "type": "Feature", "properties": { "strassenschluessel": "05162000002402160", "bezeichnung": "Buscherhof" }, "geometry": { "type": "Point", "coordinates": [ 6.628869120130479, 51.156079710372197 ] } },
{ "type": "Feature", "properties": { "strassenschluessel": "05162000002402170", "bezeichnung": "Buscherhofstraße" }, "geometry": { "type": "Point", "coordinates": [ 6.635429234905469, 51.162042346242018 ] } },
{ "type": "Feature", "properties": { "strassenschluessel": "05162000002402180", "bezeichnung": "Buschhausen" }, "geometry": { "type": "Point", "coordinates": [ 6.65760459146766, 51.215140615913967 ] } },
{ "type": "Feature", "properties": { "strassenschluessel": "05162000002402190", "bezeichnung": "Buschstraße" }, "geometry": { "type": "Point", "coordinates": [ 6.674084131134427, 51.202715881697493 ] } },
{ "type": "Feature", "properties": { "strassenschluessel": "05162000002402195", "bezeichnung": "Bussardweg" }, "geometry": { "type": "Point", "coordinates": [ 6.749486625681837, 51.167844263775457 ] } },
{ "type": "Feature", "properties": { "strassenschluessel": "05162000002402200", "bezeichnung": "Büttger Straße" }, "geometry": { "type": "Point", "coordinates": [ 6.684811199194127, 51.198867431564281 ] } },
{ "type": "Feature", "properties": { "strassenschluessel": "05162000002402210", "bezeichnung": "Calvinstraße" }, "geometry": { "type": "Point", "coordinates": [ 6.686123851804113, 51.16250177932077 ] } },
{ "type": "Feature", "properties": { "strassenschluessel": "05162000002402230", "bezeichnung": "Carl-Schurz-Straße" }, "geometry": { "type": "Point", "coordinates": [ 6.71496455640786, 51.197373659492868 ] } },
{ "type": "Feature", "properties": { "strassenschluessel": "05162000002402240", "bezeichnung": "Carl-Sonnenschein-Straße" }, "geometry": { "type": "Point", "coordinates": [ 6.708214579881144, 51.157146515941477 ] } },
{ "type": "Feature", "properties": { "strassenschluessel": "05162000002402250", "bezeichnung": "Carlo-Mierendorff-Straße" }, "geometry": { "type": "Point", "coordinates": [ 6.705837943828092, 51.159140290492786 ] } },
{ "type": "Feature", "properties": { "strassenschluessel": "05162000002402260", "bezeichnung": "Carossastraße" }, "geometry": { "type": "Point", "coordinates": [ 6.696914214269516, 51.187068358266835 ] } },
{ "type": "Feature", "properties": { "strassenschluessel": "05162000002402266", "bezeichnung": "Chalonsstraße" }, "geometry": { "type": "Point", "coordinates": [ 6.717857849733499, 51.170902956964184 ] } },
{ "type": "Feature", "properties": { "strassenschluessel": "05162000002402268", "bezeichnung": "Christian-Rohlfs-Straße" }, "geometry": { "type": "Point", "coordinates": [ 6.741615486444153, 51.134480615492507 ] } },
{ "type": "Feature", "properties": { "strassenschluessel": "05162000002402270", "bezeichnung": "Christian-Schaurte-Straße" }, "geometry": { "type": "Point", "coordinates": [ 6.654290800067624, 51.221603026427125 ] } },
{ "type": "Feature", "properties": { "strassenschluessel": "05162000002402280", "bezeichnung": "Christian-Walter-Heye-Weg" }, "geometry": { "type": "Point", "coordinates": [ 6.673525600498873, 51.163535989776513 ] } },
{ "type": "Feature", "properties": { "strassenschluessel": "05162000002402290", "bezeichnung": "Christoph-Probst-Straße" }, "geometry": { "type": "Point", "coordinates": [ 6.692479062655615, 51.153142669102998 ] } },
{ "type": "Feature", "properties": { "strassenschluessel": "05162000002402300", "bezeichnung": "Christophorusstraße" }, "geometry": { "type": "Point", "coordinates": [ 6.789189065757784, 51.167135241271687 ] } },
{ "type": "Feature", "properties": { "strassenschluessel": "05162000002402310", "bezeichnung": "Chrysanthemenstraße" }, "geometry": { "type": "Point", "coordinates": [ 6.682857322671266, 51.167883219026514 ] } },
{ "type": "Feature", "properties": { "strassenschluessel": "05162000002402320", "bezeichnung": "Clarenbachplatz" }, "geometry": { "type": "Point", "coordinates": [ 6.664533103628146, 51.222561917618862 ] } },
{ "type": "Feature", "properties": { "strassenschluessel": "05162000002402330", "bezeichnung": "Clarenbachstraße" }, "geometry": { "type": "Point", "coordinates": [ 6.663423544690961, 51.221251258712456 ] } },
{ "type": "Feature", "properties": { "strassenschluessel": "05162000002402340", "bezeichnung": "Claudiusstraße" }, "geometry": { "type": "Point", "coordinates": [ 6.72856286087387, 51.181308386078726 ] } },
{ "type": "Feature", "properties": { "strassenschluessel": "05162000002402350", "bezeichnung": "Collingstraße" }, "geometry": { "type": "Point", "coordinates": [ 6.688551406617208, 51.204842700510333 ] } },
{ "type": "Feature", "properties": { "strassenschluessel": "05162000002402360", "bezeichnung": "Corneliusweg" }, "geometry": { "type": "Point", "coordinates": [ 6.701314171754172, 51.172098093369961 ] } },
{ "type": "Feature", "properties": { "strassenschluessel": "05162000002402370", "bezeichnung": "Cranachstraße" }, "geometry": { "type": "Point", "coordinates": [ 6.703628933801569, 51.174625307812065 ] } },
{ "type": "Feature", "properties": { "strassenschluessel": "05162000002402380", "bezeichnung": "Cyriakusplatz" }, "geometry": { "type": "Point", "coordinates": [ 6.739750903896931, 51.179096664484639 ] } },
{ "type": "Feature", "properties": { "strassenschluessel": "05162000002402390", "bezeichnung": "Cyriakusstraße" }, "geometry": { "type": "Point", "coordinates": [ 6.738538687849231, 51.180774155698941 ] } },
{ "type": "Feature", "properties": { "strassenschluessel": "05162000002402400", "bezeichnung": "Dahlienstraße" }, "geometry": { "type": "Point", "coordinates": [ 6.677059758208583, 51.16999251558083 ] } },
{ "type": "Feature", "properties": { "strassenschluessel": "05162000002402410", "bezeichnung": "Daimlerstraße" }, "geometry": { "type": "Point", "coordinates": [ 6.661920275991294, 51.22551423230351 ] } },
{ "type": "Feature", "properties": { "strassenschluessel": "05162000002402415", "bezeichnung": "Damenstift-Platz" }, "geometry": { "type": "Point", "coordinates": [ 6.693613459211491, 51.199559153228421 ] } },
{ "type": "Feature", "properties": { "strassenschluessel": "05162000002402420", "bezeichnung": "Dammweg" }, "geometry": { "type": "Point", "coordinates": [ 6.74540254240994, 51.172476084164472 ] } },
{ "type": "Feature", "properties": { "strassenschluessel": "05162000002402430", "bezeichnung": "Danziger Straße" }, "geometry": { "type": "Point", "coordinates": [ 6.697441300399613, 51.211000702181728 ] } },
{ "type": "Feature", "properties": { "strassenschluessel": "05162000002402437", "bezeichnung": "Dechant-Annas-Weg" }, "geometry": { "type": "Point", "coordinates": [ 6.727174755523202, 51.134804223105775 ] } },
{ "type": "Feature", "properties": { "strassenschluessel": "05162000002402440", "bezeichnung": "Dechant-Hess-Straße" }, "geometry": { "type": "Point", "coordinates": [ 6.75058206692306, 51.17688560287224 ] } },
{ "type": "Feature", "properties": { "strassenschluessel": "05162000002402450", "bezeichnung": "Deichstraße" }, "geometry": { "type": "Point", "coordinates": [ 6.792979193614767, 51.167715467299629 ] } },
{ "type": "Feature", "properties": { "strassenschluessel": "05162000002402460", "bezeichnung": "Delrather Straße" }, "geometry": { "type": "Point", "coordinates": [ 6.728406390946616, 51.157636222293085 ] } },
{ "type": "Feature", "properties": { "strassenschluessel": "05162000002402470", "bezeichnung": "Derendorfweg" }, "geometry": { "type": "Point", "coordinates": [ 6.708112512091055, 51.200976759034504 ] } },
{ "type": "Feature", "properties": { "strassenschluessel": "05162000002402480", "bezeichnung": "Derikumer Weg" }, "geometry": { "type": "Point", "coordinates": [ 6.744770057009361, 51.173481049986506 ] } },
{ "type": "Feature", "properties": { "strassenschluessel": "05162000002402490", "bezeichnung": "Deutsche Straße" }, "geometry": { "type": "Point", "coordinates": [ 6.681292345067225, 51.192321717559068 ] } },
{ "type": "Feature", "properties": { "strassenschluessel": "05162000002402500", "bezeichnung": "Deutschordensstraße" }, "geometry": { "type": "Point", "coordinates": [ 6.744055628760316, 51.172829803324511 ] } },
{ "type": "Feature", "properties": { "strassenschluessel": "05162000002402510", "bezeichnung": "Deutzer Straße" }, "geometry": { "type": "Point", "coordinates": [ 6.747282681631475, 51.176691383520165 ] } },
{ "type": "Feature", "properties": { "strassenschluessel": "05162000002402520", "bezeichnung": "Dieselstraße" }, "geometry": { "type": "Point", "coordinates": [ 6.744159992727628, 51.154895358813313 ] } },
{ "type": "Feature", "properties": { "strassenschluessel": "05162000002402530", "bezeichnung": "Dietrich-Bonhoeffer-Straße" }, "geometry": { "type": "Point", "coordinates": [ 6.705028753503131, 51.160633747408568 ] } },
{ "type": "Feature", "properties": { "strassenschluessel": "05162000002402540", "bezeichnung": "Dietrichstraße" }, "geometry": { "type": "Point", "coordinates": [ 6.718538853420974, 51.183786676010207 ] } },
{ "type": "Feature", "properties": { "strassenschluessel": "05162000002402550", "bezeichnung": "Donaustraße" }, "geometry": { "type": "Point", "coordinates": [ 6.74349030304884, 51.161706372078918 ] } },
{ "type": "Feature", "properties": { "strassenschluessel": "05162000002402560", "bezeichnung": "Dormagener Straße" }, "geometry": { "type": "Point", "coordinates": [ 6.783330938457373, 51.161129751440363 ] } },
{ "type": "Feature", "properties": { "strassenschluessel": "05162000002402565", "bezeichnung": "Dr.-Dorothea-Erxleben-Straße" }, "geometry": { "type": "Point", "coordinates": [ 6.676317021823461, 51.187159230041551 ] } },
{ "type": "Feature", "properties": { "strassenschluessel": "05162000002402570", "bezeichnung": "Dreikönigenstraße" }, "geometry": { "type": "Point", "coordinates": [ 6.68999103214828, 51.188951962386071 ] } },
{ "type": "Feature", "properties": { "strassenschluessel": "05162000002402580", "bezeichnung": "Drosselstraße" }, "geometry": { "type": "Point", "coordinates": [ 6.680741920219866, 51.163774645002526 ] } },
{ "type": "Feature", "properties": { "strassenschluessel": "05162000002402590", "bezeichnung": "Droste-Hülshoff-Straße" }, "geometry": { "type": "Point", "coordinates": [ 6.698381697966177, 51.184407205993757 ] } },
{ "type": "Feature", "properties": { "strassenschluessel": "05162000002402600", "bezeichnung": "Drususallee" }, "geometry": { "type": "Point", "coordinates": [ 6.684849231569935, 51.196513913264965 ] } },
{ "type": "Feature", "properties": { "strassenschluessel": "05162000002402610", "bezeichnung": "Duisburger Straße" }, "geometry": { "type": "Point", "coordinates": [ 6.707853501560047, 51.207127511375617 ] } },
{ "type": "Feature", "properties": { "strassenschluessel": "05162000002402620", "bezeichnung": "Dunantstraße" }, "geometry": { "type": "Point", "coordinates": [ 6.72032829110103, 51.185162143233114 ] } },
{ "type": "Feature", "properties": { "strassenschluessel": "05162000002402625", "bezeichnung": "Düllgenstraße" }, "geometry": { "type": "Point", "coordinates": [ 6.743624889455776, 51.177462951772071 ] } },
{ "type": "Feature", "properties": { "strassenschluessel": "05162000002402630", "bezeichnung": "Dürerstraße" }, "geometry": { "type": "Point", "coordinates": [ 6.698264839260119, 51.174403678996711 ] } },
{ "type": "Feature", "properties": { "strassenschluessel": "05162000002402640", "bezeichnung": "Düsseldorfer Straße" }, "geometry": { "type": "Point", "coordinates": [ 6.699228389358529, 51.219081600280497 ] } },
{ "type": "Feature", "properties": { "strassenschluessel": "05162000002402650", "bezeichnung": "Düsselstraße" }, "geometry": { "type": "Point", "coordinates": [ 6.733314031399222, 51.16257391043851 ] } },
{ "type": "Feature", "properties": { "strassenschluessel": "05162000002402660", "bezeichnung": "Dycker Straße" }, "geometry": { "type": "Point", "coordinates": [ 6.62983575919742, 51.17324861566302 ] } },
{ "type": "Feature", "properties": { "strassenschluessel": "05162000002402670", "bezeichnung": "Dyckhofstraße" }, "geometry": { "type": "Point", "coordinates": [ 6.691005169652333, 51.213321767660148 ] } },
{ "type": "Feature", "properties": { "strassenschluessel": "05162000002402680", "bezeichnung": "Eckenerstraße" }, "geometry": { "type": "Point", "coordinates": [ 6.695540440289273, 51.223661832566634 ] } },
{ "type": "Feature", "properties": { "strassenschluessel": "05162000002402690", "bezeichnung": "Edelweißweg" }, "geometry": { "type": "Point", "coordinates": [ 6.720553558296002, 51.122223391638457 ] } },
{ "type": "Feature", "properties": { "strassenschluessel": "05162000002402695", "bezeichnung": "Edith-Stein-Straße" }, "geometry": { "type": "Point", "coordinates": [ 6.695959624593476, 51.152100838734462 ] } },
{ "type": "Feature", "properties": { "strassenschluessel": "05162000002402700", "bezeichnung": "Eggenhofstraße" }, "geometry": { "type": "Point", "coordinates": [ 6.649388946637505, 51.228160516363971 ] } },
{ "type": "Feature", "properties": { "strassenschluessel": "05162000002402710", "bezeichnung": "Ehrlichstraße" }, "geometry": { "type": "Point", "coordinates": [ 6.672706204121572, 51.188754903026059 ] } },
{ "type": "Feature", "properties": { "strassenschluessel": "05162000002402720", "bezeichnung": "Eibenweg" }, "geometry": { "type": "Point", "coordinates": [ 6.727006924096573, 51.12456875191603 ] } },
{ "type": "Feature", "properties": { "strassenschluessel": "05162000002402730", "bezeichnung": "Eibischstraße" }, "geometry": { "type": "Point", "coordinates": [ 6.68801308420001, 51.169171218427607 ] } },
{ "type": "Feature", "properties": { "strassenschluessel": "05162000002402740", "bezeichnung": "Eichenallee" }, "geometry": { "type": "Point", "coordinates": [ 6.729679334369024, 51.151104395526453 ] } },
{ "type": "Feature", "properties": { "strassenschluessel": "05162000002402750", "bezeichnung": "Eichendorffstraße" }, "geometry": { "type": "Point", "coordinates": [ 6.691180740205092, 51.186155774523492 ] } },
{ "type": "Feature", "properties": { "strassenschluessel": "05162000002402760", "bezeichnung": "Eichenstraße" }, "geometry": { "type": "Point", "coordinates": [ 6.73033732088327, 51.123455413389351 ] } },
{ "type": "Feature", "properties": { "strassenschluessel": "05162000002402770", "bezeichnung": "Einsteinstraße" }, "geometry": { "type": "Point", "coordinates": [ 6.674126917331926, 51.183284262182077 ] } },
{ "type": "Feature", "properties": { "strassenschluessel": "05162000002402780", "bezeichnung": "Eintrachtstraße" }, "geometry": { "type": "Point", "coordinates": [ 6.670827751187031, 51.201683022394228 ] } },
{ "type": "Feature", "properties": { "strassenschluessel": "05162000002402790", "bezeichnung": "Eisenstraße" }, "geometry": { "type": "Point", "coordinates": [ 6.66879341910134, 51.166286644402739 ] } },
{ "type": "Feature", "properties": { "strassenschluessel": "05162000002402800", "bezeichnung": "Elbestraße" }, "geometry": { "type": "Point", "coordinates": [ 6.740416445949043, 51.161241733286886 ] } },
{ "type": "Feature", "properties": { "strassenschluessel": "05162000002402810", "bezeichnung": "Elbinger Straße" }, "geometry": { "type": "Point", "coordinates": [ 6.726126632242938, 51.153486145254462 ] } },
{ "type": "Feature", "properties": { "strassenschluessel": "05162000002402815", "bezeichnung": "Elisabeth-Kadow-Straße" }, "geometry": { "type": "Point", "coordinates": [ 6.75608610489067, 51.140321921694678 ] } },
{ "type": "Feature", "properties": { "strassenschluessel": "05162000002402818", "bezeichnung": "Elisabeth-Selbert-Straße" }, "geometry": null },
{ "type": "Feature", "properties": { "strassenschluessel": "05162000002402820", "bezeichnung": "Elisabethstraße" }, "geometry": { "type": "Point", "coordinates": [ 6.700709431408741, 51.143282958480206 ] } },
{ "type": "Feature", "properties": { "strassenschluessel": "05162000002402825", "bezeichnung": "Elise-Stoffels-Straße" }, "geometry": { "type": "Point", "coordinates": [ 6.73666561899891, 51.15372919784749 ] } },
{ "type": "Feature", "properties": { "strassenschluessel": "05162000002402830", "bezeichnung": "Elisenstraße" }, "geometry": { "type": "Point", "coordinates": [ 6.688237255252215, 51.203834191784168 ] } },
{ "type": "Feature", "properties": { "strassenschluessel": "05162000002402840", "bezeichnung": "Elvekumer Feldstraße" }, "geometry": { "type": "Point", "coordinates": [ 6.750710142200533, 51.146322163518747 ] } },
{ "type": "Feature", "properties": { "strassenschluessel": "05162000002402850", "bezeichnung": "Elvekumer Flurstraße" }, "geometry": { "type": "Point", "coordinates": [ 6.750152725545007, 51.148964862065547 ] } },
{ "type": "Feature", "properties": { "strassenschluessel": "05162000002402860", "bezeichnung": "Elvekumer Weg" }, "geometry": { "type": "Point", "coordinates": [ 6.738613249725652, 51.168430704152257 ] } },
{ "type": "Feature", "properties": { "strassenschluessel": "05162000002402870", "bezeichnung": "Emsstraße" }, "geometry": { "type": "Point", "coordinates": [ 6.741648294843303, 51.162205252367706 ] } },
{ "type": "Feature", "properties": { "strassenschluessel": "05162000002402880", "bezeichnung": "Engelbertstraße" }, "geometry": { "type": "Point", "coordinates": [ 6.671724747198208, 51.206749304686738 ] } },
{ "type": "Feature", "properties": { "strassenschluessel": "05162000002402881", "bezeichnung": "Engelbertstraße" }, "geometry": { "type": "Point", "coordinates": [ 6.671018042565704, 51.206863000062853 ] } },
{ "type": "Feature", "properties": { "strassenschluessel": "05162000002402890", "bezeichnung": "Enzianstraße" }, "geometry": { "type": "Point", "coordinates": [ 6.68832985328085, 51.16971238756809 ] } },
{ "type": "Feature", "properties": { "strassenschluessel": "05162000002402900", "bezeichnung": "Eppinghoven" }, "geometry": { "type": "Point", "coordinates": [ 6.679635189304242, 51.154901811665624 ] } },
{ "type": "Feature", "properties": { "strassenschluessel": "05162000002402910", "bezeichnung": "Eppinghovener Straße" }, "geometry": { "type": "Point", "coordinates": [ 6.676305444780867, 51.155173110037964 ] } },
{ "type": "Feature", "properties": { "strassenschluessel": "05162000002402920", "bezeichnung": "Erasmusstraße" }, "geometry": { "type": "Point", "coordinates": [ 6.685057459320196, 51.16356419981021 ] } },
{ "type": "Feature", "properties": { "strassenschluessel": "05162000002402930", "bezeichnung": "Erftstraße" }, "geometry": { "type": "Point", "coordinates": [ 6.686984633652537, 51.199691526210948 ] } },
{ "type": "Feature", "properties": { "strassenschluessel": "05162000002402940", "bezeichnung": "Erich-Hoepner-Straße" }, "geometry": { "type": "Point", "coordinates": [ 6.702446195481911, 51.157596242632337 ] } },
{ "type": "Feature", "properties": { "strassenschluessel": "05162000002402950", "bezeichnung": "Erich-Klausener-Straße" }, "geometry": { "type": "Point", "coordinates": [ 6.705778953289174, 51.154909551121598 ] } },
{ "type": "Feature", "properties": { "strassenschluessel": "05162000002402960", "bezeichnung": "Erikaweg" }, "geometry": { "type": "Point", "coordinates": [ 6.719579928272789, 51.121577351490991 ] } },
{ "type": "Feature", "properties": { "strassenschluessel": "05162000002402970", "bezeichnung": "Erlenstraße" }, "geometry": { "type": "Point", "coordinates": [ 6.721691562848637, 51.120062311867798 ] } },
{ "type": "Feature", "properties": { "strassenschluessel": "05162000002402980", "bezeichnung": "Erlenweg" }, "geometry": { "type": "Point", "coordinates": [ 6.689482441468987, 51.165608364104926 ] } },
{ "type": "Feature", "properties": { "strassenschluessel": "05162000002402985", "bezeichnung": "Ernst-Mollenhauer-Straße" }, "geometry": { "type": "Point", "coordinates": [ 6.649361773922948, 51.217572858489021 ] } },
{ "type": "Feature", "properties": { "strassenschluessel": "05162000002402990", "bezeichnung": "Erprather Mühle" }, "geometry": { "type": "Point", "coordinates": [ 6.68813139413805, 51.160722691595602 ] } },
{ "type": "Feature", "properties": { "strassenschluessel": "05162000002403000", "bezeichnung": "Erprather Straße" }, "geometry": { "type": "Point", "coordinates": [ 6.69307352616001, 51.161107849411749 ] } },
{ "type": "Feature", "properties": { "strassenschluessel": "05162000002403001", "bezeichnung": "Erprather Straße" }, "geometry": { "type": "Point", "coordinates": [ 6.688586026017978, 51.162916069201948 ] } },
{ "type": "Feature", "properties": { "strassenschluessel": "05162000002403010", "bezeichnung": "Erpratherhöfgen" }, "geometry": { "type": "Point", "coordinates": [ 6.685807392863617, 51.157423958581511 ] } },
{ "type": "Feature", "properties": { "strassenschluessel": "05162000002403020", "bezeichnung": "Eschenweg" }, "geometry": { "type": "Point", "coordinates": [ 6.730604836567503, 51.122482747421913 ] } },
{ "type": "Feature", "properties": { "strassenschluessel": "05162000002403030", "bezeichnung": "Eselspfad" }, "geometry": { "type": "Point", "coordinates": [ 6.660036464536324, 51.197223559225115 ] } },
{ "type": "Feature", "properties": { "strassenschluessel": "05162000002403031", "bezeichnung": "Eselspfad" }, "geometry": { "type": "Point", "coordinates": [ 6.653615332166371, 51.204243166639657 ] } },
{ "type": "Feature", "properties": { "strassenschluessel": "05162000002403032", "bezeichnung": "Eselspfad" }, "geometry": null },
{ "type": "Feature", "properties": { "strassenschluessel": "05162000002403040", "bezeichnung": "Espenstraße" }, "geometry": { "type": "Point", "coordinates": [ 6.722487393028214, 51.119174689292393 ] } },
{ "type": "Feature", "properties": { "strassenschluessel": "05162000002403045", "bezeichnung": "Europadamm" }, "geometry": null },
{ "type": "Feature", "properties": { "strassenschluessel": "05162000002403046", "bezeichnung": "Europadamm" }, "geometry": { "type": "Point", "coordinates": [ 6.711964599293493, 51.192424980656789 ] } },
{ "type": "Feature", "properties": { "strassenschluessel": "05162000002403050", "bezeichnung": "Euskirchener Straße" }, "geometry": { "type": "Point", "coordinates": [ 6.725468549915736, 51.168868312325536 ] } },
{ "type": "Feature", "properties": { "strassenschluessel": "05162000002403052", "bezeichnung": "Ewald-Malzburg-Straße" }, "geometry": { "type": "Point", "coordinates": [ 6.747936945891973, 51.136310116372158 ] } },
{ "type": "Feature", "properties": { "strassenschluessel": "05162000002403053", "bezeichnung": "Ewald-Mataré-Straße" }, "geometry": { "type": "Point", "coordinates": [ 6.746653810245251, 51.135760990654148 ] } },
{ "type": "Feature", "properties": { "strassenschluessel": "05162000002403054", "bezeichnung": "Fabianusstraße" }, "geometry": { "type": "Point", "coordinates": [ 6.785570430556468, 51.167143501671411 ] } },
{ "type": "Feature", "properties": { "strassenschluessel": "05162000002403055", "bezeichnung": "Falkenweg" }, "geometry": { "type": "Point", "coordinates": [ 6.752214834528348, 51.165024732631622 ] } },
{ "type": "Feature", "properties": { "strassenschluessel": "05162000002403060", "bezeichnung": "Farnweg" }, "geometry": { "type": "Point", "coordinates": [ 6.726580527006629, 51.121599608286466 ] } },
{ "type": "Feature", "properties": { "strassenschluessel": "05162000002403070", "bezeichnung": "Fasanenstraße" }, "geometry": { "type": "Point", "coordinates": [ 6.636794406399736, 51.174409726293852 ] } },
{ "type": "Feature", "properties": { "strassenschluessel": "05162000002403080", "bezeichnung": "Feldstraße" }, "geometry": { "type": "Point", "coordinates": [ 6.652537052104928, 51.221271391651655 ] } },
{ "type": "Feature", "properties": { "strassenschluessel": "05162000002403090", "bezeichnung": "Felkestraße" }, "geometry": { "type": "Point", "coordinates": [ 6.669986088657156, 51.186517970449401 ] } },
{ "type": "Feature", "properties": { "strassenschluessel": "05162000002403100", "bezeichnung": "Feltenstraße" }, "geometry": { "type": "Point", "coordinates": [ 6.713194836768024, 51.183571546618552 ] } },
{ "type": "Feature", "properties": { "strassenschluessel": "05162000002403105", "bezeichnung": "Ferdinand-von-Lüninck-Weg" }, "geometry": { "type": "Point", "coordinates": [ 6.696159683821169, 51.152811056080715 ] } },
{ "type": "Feature", "properties": { "strassenschluessel": "05162000002403110", "bezeichnung": "Fesserstraße" }, "geometry": { "type": "Point", "coordinates": [ 6.677188124568112, 51.21064384893797 ] } },
{ "type": "Feature", "properties": { "strassenschluessel": "05162000002403112", "bezeichnung": "Fesserstraße" }, "geometry": { "type": "Point", "coordinates": [ 6.678120398980796, 51.212015425261121 ] } },
{ "type": "Feature", "properties": { "strassenschluessel": "05162000002403120", "bezeichnung": "Feuerbachweg" }, "geometry": { "type": "Point", "coordinates": [ 6.732362859771197, 51.152057048115026 ] } },
{ "type": "Feature", "properties": { "strassenschluessel": "05162000002403130", "bezeichnung": "Feuerdornweg" }, "geometry": { "type": "Point", "coordinates": [ 6.72986245643066, 51.122035001115506 ] } },
{ "type": "Feature", "properties": { "strassenschluessel": "05162000002403140", "bezeichnung": "Fichtestraße" }, "geometry": { "type": "Point", "coordinates": [ 6.676979442371718, 51.191642860641139 ] } },
{ "type": "Feature", "properties": { "strassenschluessel": "05162000002403150", "bezeichnung": "Finkenstraße" }, "geometry": { "type": "Point", "coordinates": [ 6.683045643128403, 51.165388245943788 ] } },
{ "type": "Feature", "properties": { "strassenschluessel": "05162000002403160", "bezeichnung": "Fischerstraße" }, "geometry": { "type": "Point", "coordinates": [ 6.664587052003651, 51.211422602063593 ] } },
{ "type": "Feature", "properties": { "strassenschluessel": "05162000002403170", "bezeichnung": "Fliederstraße" }, "geometry": { "type": "Point", "coordinates": [ 6.723330742642109, 51.123615904536166 ] } },
{ "type": "Feature", "properties": { "strassenschluessel": "05162000002403180", "bezeichnung": "Fliederweg" }, "geometry": { "type": "Point", "coordinates": [ 6.721530429487869, 51.180267859346166 ] } },
{ "type": "Feature", "properties": { "strassenschluessel": "05162000002403190", "bezeichnung": "Florastraße" }, "geometry": { "type": "Point", "coordinates": [ 6.689897042399725, 51.19414623679117 ] } },
{ "type": "Feature", "properties": { "strassenschluessel": "05162000002403200", "bezeichnung": "Floßhafenstraße" }, "geometry": { "type": "Point", "coordinates": [ 6.713772497843928, 51.212150398197501 ] } },
{ "type": "Feature", "properties": { "strassenschluessel": "05162000002403210", "bezeichnung": "Flurstraße" }, "geometry": { "type": "Point", "coordinates": [ 6.651231375038406, 51.220559468457978 ] } },
{ "type": "Feature", "properties": { "strassenschluessel": "05162000002403220", "bezeichnung": "Föhrenplatz" }, "geometry": { "type": "Point", "coordinates": [ 6.727499728429512, 51.122255359772346 ] } },
{ "type": "Feature", "properties": { "strassenschluessel": "05162000002403230", "bezeichnung": "Föhrenstraße" }, "geometry": { "type": "Point", "coordinates": [ 6.724845856954387, 51.12301645006653 ] } },
{ "type": "Feature", "properties": { "strassenschluessel": "05162000002403240", "bezeichnung": "Föhrenweg" }, "geometry": { "type": "Point", "coordinates": [ 6.722813250335607, 51.123123063173843 ] } },
{ "type": "Feature", "properties": { "strassenschluessel": "05162000002403250", "bezeichnung": "Fontanestraße" }, "geometry": { "type": "Point", "coordinates": [ 6.695994340034016, 51.188289075727134 ] } },
{ "type": "Feature", "properties": { "strassenschluessel": "05162000002403255", "bezeichnung": "Forumstraße" }, "geometry": { "type": "Point", "coordinates": [ 6.757321185066401, 51.169016898863056 ] } },
{ "type": "Feature", "properties": { "strassenschluessel": "05162000002403260", "bezeichnung": "Fr.-von-der-Schulenburg-Straße" }, "geometry": { "type": "Point", "coordinates": [ 6.705767119493155, 51.156191446989169 ] } },
{ "type": "Feature", "properties": { "strassenschluessel": "05162000002403270", "bezeichnung": "Frankenstraße" }, "geometry": { "type": "Point", "coordinates": [ 6.676944823348232, 51.209225080773024 ] } },
{ "type": "Feature", "properties": { "strassenschluessel": "05162000002403271", "bezeichnung": "Frankenstraße" }, "geometry": { "type": "Point", "coordinates": [ 6.670708119028338, 51.211430862153662 ] } },
{ "type": "Feature", "properties": { "strassenschluessel": "05162000002403275", "bezeichnung": "Franz-Bender-Straße" }, "geometry": { "type": "Point", "coordinates": [ 6.683766188399349, 51.137153287060627 ] } },
{ "type": "Feature", "properties": { "strassenschluessel": "05162000002403277", "bezeichnung": "Franz-Heinz-Hohenschutz-Straße" }, "geometry": { "type": "Point", "coordinates": [ 6.637904193832168, 51.17575561491315 ] } },
{ "type": "Feature", "properties": { "strassenschluessel": "05162000002403280", "bezeichnung": "Franz-Kellermann-Weg" }, "geometry": null },
{ "type": "Feature", "properties": { "strassenschluessel": "05162000002403290", "bezeichnung": "Franz-Leuninger-Straße" }, "geometry": { "type": "Point", "coordinates": [ 6.705268610604186, 51.158333823980428 ] } },
{ "type": "Feature", "properties": { "strassenschluessel": "05162000002403295", "bezeichnung": "Franz-Pascher-Straße" }, "geometry": { "type": "Point", "coordinates": [ 6.734379007341937, 51.136092208388369 ] } },
{ "type": "Feature", "properties": { "strassenschluessel": "05162000002403300", "bezeichnung": "Franz-Werfel-Weg" }, "geometry": { "type": "Point", "coordinates": [ 6.734384746713718, 51.150586715965169 ] } },
{ "type": "Feature", "properties": { "strassenschluessel": "05162000002403305", "bezeichnung": "Franziskusstraße" }, "geometry": { "type": "Point", "coordinates": [ 6.791328014407166, 51.167647551371971 ] } },
{ "type": "Feature", "properties": { "strassenschluessel": "05162000002403310", "bezeichnung": "Freiheitstraße" }, "geometry": { "type": "Point", "coordinates": [ 6.667335712455206, 51.209112242299746 ] } },
{ "type": "Feature", "properties": { "strassenschluessel": "05162000002403320", "bezeichnung": "Freithof" }, "geometry": { "type": "Point", "coordinates": [ 6.693254032989968, 51.198403481488043 ] } },
{ "type": "Feature", "properties": { "strassenschluessel": "05162000002403330", "bezeichnung": "Friedenstraße" }, "geometry": { "type": "Point", "coordinates": [ 6.672148769456367, 51.208248687070274 ] } },
{ "type": "Feature", "properties": { "strassenschluessel": "05162000002403335", "bezeichnung": "Friederike-Nadig-Straße" }, "geometry": null },
{ "type": "Feature", "properties": { "strassenschluessel": "05162000002403340", "bezeichnung": "Friedhofstraße" }, "geometry": { "type": "Point", "coordinates": [ 6.662352006669601, 51.160843407110121 ] } },
{ "type": "Feature", "properties": { "strassenschluessel": "05162000002403350", "bezeichnung": "Friedhofsweg" }, "geometry": { "type": "Point", "coordinates": [ 6.726190975526348, 51.130203589241837 ] } },
{ "type": "Feature", "properties": { "strassenschluessel": "05162000002403360", "bezeichnung": "Friedrich-Ebert-Platz" }, "geometry": null },
{ "type": "Feature", "properties": { "strassenschluessel": "05162000002403370", "bezeichnung": "Friedrichstraße" }, "geometry": { "type": "Point", "coordinates": [ 6.692306536166984, 51.19361057006148 ] } },
{ "type": "Feature", "properties": { "strassenschluessel": "05162000002403380", "bezeichnung": "Fringsstraße" }, "geometry": { "type": "Point", "coordinates": [ 6.688906749340767, 51.190772292979432 ] } },
{ "type": "Feature", "properties": { "strassenschluessel": "05162000002403390", "bezeichnung": "Fritz-Gerlich-Straße" }, "geometry": { "type": "Point", "coordinates": [ 6.697665340970537, 51.161202793160157 ] } },
{ "type": "Feature", "properties": { "strassenschluessel": "05162000002403400", "bezeichnung": "Fröbelstraße" }, "geometry": { "type": "Point", "coordinates": [ 6.735326330106261, 51.181304936077666 ] } },
{ "type": "Feature", "properties": { "strassenschluessel": "05162000002403410", "bezeichnung": "Fuggerstraße" }, "geometry": { "type": "Point", "coordinates": [ 6.774207466525911, 51.155891046044552 ] } },
{ "type": "Feature", "properties": { "strassenschluessel": "05162000002403420", "bezeichnung": "Further Straße" }, "geometry": { "type": "Point", "coordinates": [ 6.680895396569539, 51.204299781887897 ] } },
{ "type": "Feature", "properties": { "strassenschluessel": "05162000002403421", "bezeichnung": "Further Straße" }, "geometry": { "type": "Point", "coordinates": [ 6.670230765148212, 51.210656713687186 ] } },
{ "type": "Feature", "properties": { "strassenschluessel": "05162000002403430", "bezeichnung": "Furtherhofstraße" }, "geometry": { "type": "Point", "coordinates": [ 6.67121375248336, 51.224634989957877 ] } },
{ "type": "Feature", "properties": { "strassenschluessel": "05162000002403440", "bezeichnung": "Gagelweg" }, "geometry": { "type": "Point", "coordinates": [ 6.716906114210716, 51.18281332811388 ] } },
{ "type": "Feature", "properties": { "strassenschluessel": "05162000002403450", "bezeichnung": "Galgenberger Weg" }, "geometry": null },
{ "type": "Feature", "properties": { "strassenschluessel": "05162000002403460", "bezeichnung": "Gartenkolonie Römerlager" }, "geometry": { "type": "Point", "coordinates": [ 6.703120151644922, 51.181230122777158 ] } },
{ "type": "Feature", "properties": { "strassenschluessel": "05162000002403470", "bezeichnung": "Gartenstraße" }, "geometry": { "type": "Point", "coordinates": [ 6.685246581304762, 51.199666682213198 ] } },
{ "type": "Feature", "properties": { "strassenschluessel": "05162000002403480", "bezeichnung": "Gaußstraße" }, "geometry": { "type": "Point", "coordinates": [ 6.67505455061939, 51.18559807852219 ] } },
{ "type": "Feature", "properties": { "strassenschluessel": "05162000002403490", "bezeichnung": "Geibelstraße" }, "geometry": { "type": "Point", "coordinates": [ 6.732508278718529, 51.155395186186865 ] } },
{ "type": "Feature", "properties": { "strassenschluessel": "05162000002403500", "bezeichnung": "Gell'sche Straße" }, "geometry": { "type": "Point", "coordinates": [ 6.664241269693997, 51.155757785681914 ] } },
{ "type": "Feature", "properties": { "strassenschluessel": "05162000002403510", "bezeichnung": "Georg-Bauer-Straße" }, "geometry": { "type": "Point", "coordinates": [ 6.656533969186214, 51.222114369220535 ] } },
{ "type": "Feature", "properties": { "strassenschluessel": "05162000002403515", "bezeichnung": "Georg-Becker-Straße" }, "geometry": { "type": "Point", "coordinates": [ 6.638923808436187, 51.174931225623602 ] } },
{ "type": "Feature", "properties": { "strassenschluessel": "05162000002403520", "bezeichnung": "Gepaplatz" }, "geometry": { "type": "Point", "coordinates": [ 6.71753618953791, 51.18387741863738 ] } },
{ "type": "Feature", "properties": { "strassenschluessel": "05162000002403530", "bezeichnung": "Geranienstraße" }, "geometry": { "type": "Point", "coordinates": [ 6.677470186050589, 51.172940610241213 ] } },
{ "type": "Feature", "properties": { "strassenschluessel": "05162000002403540", "bezeichnung": "Gereonstraße" }, "geometry": { "type": "Point", "coordinates": [ 6.701417328608289, 51.144724422360511 ] } },
{ "type": "Feature", "properties": { "strassenschluessel": "05162000002403545", "bezeichnung": "Gerhard-Hoehme-Allee" }, "geometry": { "type": "Point", "coordinates": [ 6.702682618335734, 51.169748282611017 ] } },
{ "type": "Feature", "properties": { "strassenschluessel": "05162000002403547", "bezeichnung": "Gerhardus-von-Wassenburg-Straße" }, "geometry": { "type": "Point", "coordinates": [ 6.784771828659448, 51.163908360421267 ] } },
{ "type": "Feature", "properties": { "strassenschluessel": "05162000002403550", "bezeichnung": "Gerhart-Hauptmann-Weg" }, "geometry": { "type": "Point", "coordinates": [ 6.734924556023706, 51.14831280499574 ] } },
{ "type": "Feature", "properties": { "strassenschluessel": "05162000002403555", "bezeichnung": "Germanicusweg" }, "geometry": { "type": "Point", "coordinates": [ 6.705106881349506, 51.185448833420175 ] } },
{ "type": "Feature", "properties": { "strassenschluessel": "05162000002403560", "bezeichnung": "Geulenstraße" }, "geometry": { "type": "Point", "coordinates": [ 6.659016983665306, 51.210390981322178 ] } },
{ "type": "Feature", "properties": { "strassenschluessel": "05162000002403570", "bezeichnung": "Gielenstraße" }, "geometry": { "type": "Point", "coordinates": [ 6.682055406551015, 51.201946031534312 ] } },
{ "type": "Feature", "properties": { "strassenschluessel": "05162000002403580", "bezeichnung": "Gierer Straße" }, "geometry": { "type": "Point", "coordinates": [ 6.731477247235254, 51.135196300950376 ] } },
{ "type": "Feature", "properties": { "strassenschluessel": "05162000002403590", "bezeichnung": "Gillbachstraße" }, "geometry": { "type": "Point", "coordinates": [ 6.691773253368928, 51.157328657564683 ] } },
{ "type": "Feature", "properties": { "strassenschluessel": "05162000002403600", "bezeichnung": "Ginsterweg" }, "geometry": { "type": "Point", "coordinates": [ 6.715251198664052, 51.181242383753172 ] } },
{ "type": "Feature", "properties": { "strassenschluessel": "05162000002403610", "bezeichnung": "Gladbacher Straße" }, "geometry": { "type": "Point", "coordinates": [ 6.663222622991421, 51.217437583984058 ] } },
{ "type": "Feature", "properties": { "strassenschluessel": "05162000002403611", "bezeichnung": "Gladbacher Straße" }, "geometry": { "type": "Point", "coordinates": [ 6.676617688040206, 51.222860101537762 ] } },
{ "type": "Feature", "properties": { "strassenschluessel": "05162000002403612", "bezeichnung": "Gladbacher Straße" }, "geometry": { "type": "Point", "coordinates": [ 6.684737552730954, 51.225748815061863 ] } },
{ "type": "Feature", "properties": { "strassenschluessel": "05162000002403620", "bezeichnung": "Glehner Weg" }, "geometry": { "type": "Point", "coordinates": [ 6.671087774478485, 51.195131983786659 ] } },
{ "type": "Feature", "properties": { "strassenschluessel": "05162000002403621", "bezeichnung": "Glehner Weg" }, "geometry": null },
{ "type": "Feature", "properties": { "strassenschluessel": "05162000002403622", "bezeichnung": "Glehner Weg" }, "geometry": null },
{ "type": "Feature", "properties": { "strassenschluessel": "05162000002403627", "bezeichnung": "Glockenhütte" }, "geometry": { "type": "Point", "coordinates": [ 6.671256469045664, 51.15748610261204 ] } },
{ "type": "Feature", "properties": { "strassenschluessel": "05162000002403630", "bezeichnung": "Glockhammer" }, "geometry": { "type": "Point", "coordinates": [ 6.693522289452197, 51.200269651420868 ] } },
{ "type": "Feature", "properties": { "strassenschluessel": "05162000002403640", "bezeichnung": "Gnadentaler Allee" }, "geometry": { "type": "Point", "coordinates": [ 6.715402222680688, 51.177333800112073 ] } },
{ "type": "Feature", "properties": { "strassenschluessel": "05162000002403650", "bezeichnung": "Gnadentaler Weg" }, "geometry": { "type": "Point", "coordinates": [ 6.70763073810114, 51.184568830194316 ] } },
{ "type": "Feature", "properties": { "strassenschluessel": "05162000002403652", "bezeichnung": "Gnadentaler Weg" }, "geometry": { "type": "Point", "coordinates": [ 6.716367120764104, 51.172330346796031 ] } },
{ "type": "Feature", "properties": { "strassenschluessel": "05162000002403660", "bezeichnung": "Gneisenaustraße" }, "geometry": { "type": "Point", "coordinates": [ 6.693828243667294, 51.21614120917156 ] } },
{ "type": "Feature", "properties": { "strassenschluessel": "05162000002403670", "bezeichnung": "Goethestraße" }, "geometry": { "type": "Point", "coordinates": [ 6.692508868076033, 51.187259828772461 ] } },
{ "type": "Feature", "properties": { "strassenschluessel": "05162000002403680", "bezeichnung": "Goetheweg" }, "geometry": { "type": "Point", "coordinates": [ 6.705573835419425, 51.140796731625343 ] } },
{ "type": "Feature", "properties": { "strassenschluessel": "05162000002403690", "bezeichnung": "Gohrer Straße" }, "geometry": { "type": "Point", "coordinates": [ 6.698574487395708, 51.157041840931292 ] } },
{ "type": "Feature", "properties": { "strassenschluessel": "05162000002403700", "bezeichnung": "Gohrerberg" }, "geometry": { "type": "Point", "coordinates": [ 6.70725598546776, 51.13817493254362 ] } },
{ "type": "Feature", "properties": { "strassenschluessel": "05162000002403710", "bezeichnung": "Goldlackweg" }, "geometry": { "type": "Point", "coordinates": [ 6.723696351438897, 51.122211509351615 ] } },
{ "type": "Feature", "properties": { "strassenschluessel": "05162000002403720", "bezeichnung": "Goldregenweg" }, "geometry": { "type": "Point", "coordinates": [ 6.717855722062866, 51.178772016100019 ] } },
{ "type": "Feature", "properties": { "strassenschluessel": "05162000002403730", "bezeichnung": "Görlitzer Straße" }, "geometry": { "type": "Point", "coordinates": [ 6.721944105475035, 51.201313311857348 ] } },
{ "type": "Feature", "properties": { "strassenschluessel": "05162000002403740", "bezeichnung": "Görresstraße" }, "geometry": { "type": "Point", "coordinates": [ 6.668220703945726, 51.192416900503403 ] } },
{ "type": "Feature", "properties": { "strassenschluessel": "05162000002403750", "bezeichnung": "Gotenstraße" }, "geometry": { "type": "Point", "coordinates": [ 6.677888638657731, 51.20991618702314 ] } },
{ "type": "Feature", "properties": { "strassenschluessel": "05162000002403760", "bezeichnung": "Gottfried-Benn-Weg" }, "geometry": { "type": "Point", "coordinates": [ 6.734923710482107, 51.149788754932509 ] } },
{ "type": "Feature", "properties": { "strassenschluessel": "05162000002403765", "bezeichnung": "Gottfried-Schmitz-Weg" }, "geometry": { "type": "Point", "coordinates": [ 6.667795204355492, 51.205874535052651 ] } },
{ "type": "Feature", "properties": { "strassenschluessel": "05162000002403770", "bezeichnung": "Grabenstraße" }, "geometry": { "type": "Point", "coordinates": [ 6.742499226431568, 51.140310698927216 ] } },
{ "type": "Feature", "properties": { "strassenschluessel": "05162000002403780", "bezeichnung": "Graf-Landsberg-Straße" }, "geometry": { "type": "Point", "coordinates": [ 6.689807387117076, 51.225218615194748 ] } },
{ "type": "Feature", "properties": { "strassenschluessel": "05162000002403790", "bezeichnung": "Graf-Schaesberg-Straße" }, "geometry": { "type": "Point", "coordinates": [ 6.738056644626545, 51.134439930996422 ] } },
{ "type": "Feature", "properties": { "strassenschluessel": "05162000002403795", "bezeichnung": "Graf-von-Pfeil-Straße" }, "geometry": { "type": "Point", "coordinates": [ 6.723490439330953, 51.154471385454784 ] } },
{ "type": "Feature", "properties": { "strassenschluessel": "05162000002403800", "bezeichnung": "Grafenstraße" }, "geometry": { "type": "Point", "coordinates": [ 6.665024955147286, 51.144516263847116 ] } },
{ "type": "Feature", "properties": { "strassenschluessel": "05162000002403810", "bezeichnung": "Grefrather Weg" }, "geometry": { "type": "Point", "coordinates": [ 6.666174032243041, 51.184962671363628 ] } },
{ "type": "Feature", "properties": { "strassenschluessel": "05162000002403811", "bezeichnung": "Grefrather Weg" }, "geometry": { "type": "Point", "coordinates": [ 6.677088564466747, 51.186098657997853 ] } },
{ "type": "Feature", "properties": { "strassenschluessel": "05162000002403812", "bezeichnung": "Grefrather Weg" }, "geometry": { "type": "Point", "coordinates": [ 6.662634358868475, 51.183988375536956 ] } },
{ "type": "Feature", "properties": { "strassenschluessel": "05162000002403820", "bezeichnung": "Grevenbroicher Straße" }, "geometry": { "type": "Point", "coordinates": [ 6.692454022998737, 51.158209998096467 ] } },
{ "type": "Feature", "properties": { "strassenschluessel": "05162000002403830", "bezeichnung": "Grillparzerweg" }, "geometry": { "type": "Point", "coordinates": [ 6.735068094744358, 51.149341999005919 ] } },
{ "type": "Feature", "properties": { "strassenschluessel": "05162000002403840", "bezeichnung": "Grimlinghauserbrücke" }, "geometry": { "type": "Point", "coordinates": [ 6.729524319970121, 51.182943814581535 ] } },
{ "type": "Feature", "properties": { "strassenschluessel": "05162000002403850", "bezeichnung": "Gruissem" }, "geometry": { "type": "Point", "coordinates": [ 6.650410783231103, 51.136736986251506 ] } },
{ "type": "Feature", "properties": { "strassenschluessel": "05162000002403860", "bezeichnung": "Grüner Weg" }, "geometry": { "type": "Point", "coordinates": [ 6.717198156407798, 51.180194358280886 ] } },