{
"type": "FeatureCollection",
"features": [
{ "type": "Feature", "properties": { "strassenschluessel": "05358000004405400", "bezeichnung": "Am Juch" }, "geometry": { "type": "Point", "coordinates": [ 6.477434881797507, 50.668593451823234 ] } },
{ "type": "Feature", "properties": { "strassenschluessel": "05358000004405401", "bezeichnung": "Am Roßberg" }, "geometry": { "type": "Point", "coordinates": [ 6.466415819030664, 50.672160607025141 ] } },
{ "type": "Feature", "properties": { "strassenschluessel": "05358000004405402", "bezeichnung": "Auf dem Bühl" }, "geometry": { "type": "Point", "coordinates": [ 6.473983651066652, 50.663492232831857 ] } },
{ "type": "Feature", "properties": { "strassenschluessel": "05358000004405403", "bezeichnung": "Auf dem Hilkenrath" }, "geometry": { "type": "Point", "coordinates": [ 6.467034046782123, 50.667999352906747 ] } },
{ "type": "Feature", "properties": { "strassenschluessel": "05358000004405404", "bezeichnung": "Auf dem Schildchen" }, "geometry": { "type": "Point", "coordinates": [ 6.479426549714195, 50.663737411524991 ] } },
{ "type": "Feature", "properties": { "strassenschluessel": "05358000004405405", "bezeichnung": "Berger Weg" }, "geometry": { "type": "Point", "coordinates": [ 6.484988451423152, 50.673669367394304 ] } },
{ "type": "Feature", "properties": { "strassenschluessel": "05358000004405406", "bezeichnung": "Berrefeldweg" }, "geometry": { "type": "Point", "coordinates": [ 6.478959318427718, 50.672379205055478 ] } },
{ "type": "Feature", "properties": { "strassenschluessel": "05358000004405407", "bezeichnung": "Blenser Straße" }, "geometry": { "type": "Point", "coordinates": [ 6.478571864687519, 50.66912994985487 ] } },
{ "type": "Feature", "properties": { "strassenschluessel": "05358000004405408", "bezeichnung": "Commweg" }, "geometry": { "type": "Point", "coordinates": [ 6.476134245595566, 50.67187482248606 ] } },
{ "type": "Feature", "properties": { "strassenschluessel": "05358000004405409", "bezeichnung": "Conzenstraße" }, "geometry": { "type": "Point", "coordinates": [ 6.475222513647678, 50.670439106092573 ] } },
{ "type": "Feature", "properties": { "strassenschluessel": "05358000004405410", "bezeichnung": "Dohmengarten" }, "geometry": { "type": "Point", "coordinates": [ 6.478597643342882, 50.668319930613158 ] } },
{ "type": "Feature", "properties": { "strassenschluessel": "05358000004405411", "bezeichnung": "Gut Lüppenau" }, "geometry": null },
{ "type": "Feature", "properties": { "strassenschluessel": "05358000004405412", "bezeichnung": "Hausener Gasse" }, "geometry": { "type": "Point", "coordinates": [ 6.487116530533751, 50.660897669548852 ] } },
{ "type": "Feature", "properties": { "strassenschluessel": "05358000004405413", "bezeichnung": "Hochstraße" }, "geometry": { "type": "Point", "coordinates": [ 6.475501415959532, 50.672664022893692 ] } },
{ "type": "Feature", "properties": { "strassenschluessel": "05358000004405414", "bezeichnung": "Hollicher Weg" }, "geometry": { "type": "Point", "coordinates": [ 6.471105717715027, 50.671254508630177 ] } },
{ "type": "Feature", "properties": { "strassenschluessel": "05358000004405415", "bezeichnung": "Hundsleyweg" }, "geometry": { "type": "Point", "coordinates": [ 6.481076292883984, 50.6704785558616 ] } },
{ "type": "Feature", "properties": { "strassenschluessel": "05358000004405416", "bezeichnung": "Im Düstal" }, "geometry": { "type": "Point", "coordinates": [ 6.485123835918021, 50.667059586494659 ] } },
{ "type": "Feature", "properties": { "strassenschluessel": "05358000004405417", "bezeichnung": "Im Hag" }, "geometry": { "type": "Point", "coordinates": [ 6.480457163767746, 50.671999052396089 ] } },
{ "type": "Feature", "properties": { "strassenschluessel": "05358000004405418", "bezeichnung": "Im Höfgen" }, "geometry": { "type": "Point", "coordinates": [ 6.478905574815835, 50.669716271102978 ] } },
{ "type": "Feature", "properties": { "strassenschluessel": "05358000004405419", "bezeichnung": "Im Kirchbusch" }, "geometry": { "type": "Point", "coordinates": [ 6.481211495873104, 50.665546680300771 ] } },
{ "type": "Feature", "properties": { "strassenschluessel": "05358000004405420", "bezeichnung": "Im Tiergarten" }, "geometry": { "type": "Point", "coordinates": [ 6.469554793630227, 50.670120969327904 ] } },
{ "type": "Feature", "properties": { "strassenschluessel": "05358000004405421", "bezeichnung": "In der Au" }, "geometry": { "type": "Point", "coordinates": [ 6.476723490140795, 50.667628506366263 ] } },
{ "type": "Feature", "properties": { "strassenschluessel": "05358000004405423", "bezeichnung": "Martinsweg" }, "geometry": { "type": "Point", "coordinates": [ 6.479381099777878, 50.669147185397669 ] } },
{ "type": "Feature", "properties": { "strassenschluessel": "05358000004405424", "bezeichnung": "Mühlbachstraße" }, "geometry": { "type": "Point", "coordinates": [ 6.485175518723685, 50.669621820780613 ] } },
{ "type": "Feature", "properties": { "strassenschluessel": "05358000004405425", "bezeichnung": "Palander Straße" }, "geometry": { "type": "Point", "coordinates": [ 6.479178589848598, 50.671974475051954 ] } },
{ "type": "Feature", "properties": { "strassenschluessel": "05358000004405426", "bezeichnung": "Paffenbend" }, "geometry": null },
{ "type": "Feature", "properties": { "strassenschluessel": "05358000004405427", "bezeichnung": "Rurweg" }, "geometry": { "type": "Point", "coordinates": [ 6.476032713948845, 50.67385067821607 ] } },
{ "type": "Feature", "properties": { "strassenschluessel": "05358000004405428", "bezeichnung": "Weißdornweg" }, "geometry": { "type": "Point", "coordinates": [ 6.472424767448337, 50.669124736555865 ] } },
{ "type": "Feature", "properties": { "strassenschluessel": "05358000004405429", "bezeichnung": "Lüppenauer Auel" }, "geometry": { "type": "Point", "coordinates": [ 6.47520663533795, 50.665902226814666 ] } },
{ "type": "Feature", "properties": { "strassenschluessel": "05358000004405455", "bezeichnung": "Auf der Komm" }, "geometry": { "type": "Point", "coordinates": [ 6.524345292146028, 50.679078342270039 ] } },
{ "type": "Feature", "properties": { "strassenschluessel": "05358000004405456", "bezeichnung": "Clemensweg" }, "geometry": { "type": "Point", "coordinates": [ 6.517128663715957, 50.67693063766027 ] } },
{ "type": "Feature", "properties": { "strassenschluessel": "05358000004405457", "bezeichnung": "Dürener Straße" }, "geometry": { "type": "Point", "coordinates": [ 6.521610087184674, 50.681392422104587 ] } },
{ "type": "Feature", "properties": { "strassenschluessel": "05358000004405458", "bezeichnung": "Frankenstraße" }, "geometry": { "type": "Point", "coordinates": [ 6.525035352484156, 50.679803393190234 ] } },
{ "type": "Feature", "properties": { "strassenschluessel": "05358000004405459", "bezeichnung": "Gartenweg" }, "geometry": { "type": "Point", "coordinates": [ 6.518197646187158, 50.680335641167574 ] } },
{ "type": "Feature", "properties": { "strassenschluessel": "05358000004405460", "bezeichnung": "Im Brühl" }, "geometry": { "type": "Point", "coordinates": [ 6.524598806493649, 50.682391662749076 ] } },
{ "type": "Feature", "properties": { "strassenschluessel": "05358000004405461", "bezeichnung": "Im Pesch" }, "geometry": { "type": "Point", "coordinates": [ 6.521145093674388, 50.679600625660399 ] } },
{ "type": "Feature", "properties": { "strassenschluessel": "05358000004405462", "bezeichnung": "Kirchstraße" }, "geometry": { "type": "Point", "coordinates": [ 6.519088190704245, 50.677579957487303 ] } },
{ "type": "Feature", "properties": { "strassenschluessel": "05358000004405463", "bezeichnung": "Lagerstraße" }, "geometry": { "type": "Point", "coordinates": [ 6.523295088766135, 50.6799169956005 ] } },
{ "type": "Feature", "properties": { "strassenschluessel": "05358000004405464", "bezeichnung": "Thuir" }, "geometry": { "type": "Point", "coordinates": [ 6.531083119815183, 50.693509411516551 ] } },
{ "type": "Feature", "properties": { "strassenschluessel": "05358000004405465", "bezeichnung": "Zum Breidel" }, "geometry": { "type": "Point", "coordinates": [ 6.524632235651539, 50.683229333429729 ] } },
{ "type": "Feature", "properties": { "strassenschluessel": "05358000004405466", "bezeichnung": "Am Dorfplatz" }, "geometry": { "type": "Point", "coordinates": [ 6.520767973569867, 50.678893931790661 ] } },
{ "type": "Feature", "properties": { "strassenschluessel": "05358000004405467", "bezeichnung": "Im Bruch" }, "geometry": { "type": "Point", "coordinates": [ 6.525354070371288, 50.67832137048417 ] } },
{ "type": "Feature", "properties": { "strassenschluessel": "05358000004405468", "bezeichnung": "Utenwinkler Hof" }, "geometry": { "type": "Point", "coordinates": [ 6.52610346733211, 50.67601745136777 ] } },
{ "type": "Feature", "properties": { "strassenschluessel": "05358000004405515", "bezeichnung": "Burgstraße" }, "geometry": { "type": "Point", "coordinates": [ 6.469592106207046, 50.689822103488005 ] } },
{ "type": "Feature", "properties": { "strassenschluessel": "05358000004405516", "bezeichnung": "Eichenbirk" }, "geometry": { "type": "Point", "coordinates": [ 6.467696243592342, 50.689033844148319 ] } },
{ "type": "Feature", "properties": { "strassenschluessel": "05358000004405517", "bezeichnung": "Forsthaus Hetzingen" }, "geometry": null },
{ "type": "Feature", "properties": { "strassenschluessel": "05358000004405518", "bezeichnung": "Hetzinger Weg" }, "geometry": { "type": "Point", "coordinates": [ 6.469646181841574, 50.68497109088851 ] } },
{ "type": "Feature", "properties": { "strassenschluessel": "05358000004405519", "bezeichnung": "Höhenweg" }, "geometry": { "type": "Point", "coordinates": [ 6.468028611346297, 50.686660339167688 ] } },
{ "type": "Feature", "properties": { "strassenschluessel": "05358000004405520", "bezeichnung": "Rurstraße" }, "geometry": { "type": "Point", "coordinates": [ 6.467680917400232, 50.685848276493182 ] } },
{ "type": "Feature", "properties": { "strassenschluessel": "05358000004405521", "bezeichnung": "Talstraße" }, "geometry": { "type": "Point", "coordinates": [ 6.469802386486082, 50.689413912615919 ] } },
{ "type": "Feature", "properties": { "strassenschluessel": "05358000004405522", "bezeichnung": "Wingertsweg" }, "geometry": { "type": "Point", "coordinates": [ 6.474117931849721, 50.691876306345968 ] } },
{ "type": "Feature", "properties": { "strassenschluessel": "05358000004405523", "bezeichnung": "Zerkaller Straße" }, "geometry": { "type": "Point", "coordinates": [ 6.466931540505205, 50.689674085024365 ] } },
{ "type": "Feature", "properties": { "strassenschluessel": "05358000004405524", "bezeichnung": "Gut Schüdderfeld" }, "geometry": { "type": "Point", "coordinates": [ 6.472979959147038, 50.687403990514547 ] } },
{ "type": "Feature", "properties": { "strassenschluessel": "05358000004405525", "bezeichnung": "Gut Kallerbend" }, "geometry": { "type": "Point", "coordinates": [ 6.458516261467668, 50.697054101292025 ] } },
{ "type": "Feature", "properties": { "strassenschluessel": "05358000004405526", "bezeichnung": "Gut Neuenhof" }, "geometry": { "type": "Point", "coordinates": [ 6.458570686094474, 50.695816932348052 ] } },
{ "type": "Feature", "properties": { "strassenschluessel": "05358000004405527", "bezeichnung": "Gut Laach" }, "geometry": { "type": "Point", "coordinates": [ 6.454956666341293, 50.692247978633993 ] } },
{ "type": "Feature", "properties": { "strassenschluessel": "05358000004405528", "bezeichnung": "Hof Fischer" }, "geometry": { "type": "Point", "coordinates": [ 6.462353304807662, 50.686995077634258 ] } },
{ "type": "Feature", "properties": { "strassenschluessel": "05358000004405529", "bezeichnung": "Campingweg" }, "geometry": { "type": "Point", "coordinates": [ 6.469918100986916, 50.684987484729376 ] } },
{ "type": "Feature", "properties": { "strassenschluessel": "05358000004405530", "bezeichnung": "Hetzinger Hof" }, "geometry": { "type": "Point", "coordinates": [ 6.468994641235243, 50.682331298687593 ] } },
{ "type": "Feature", "properties": { "strassenschluessel": "05358000004405550", "bezeichnung": "Alte Schulstraße" }, "geometry": { "type": "Point", "coordinates": [ 6.578438355354622, 50.683913069644944 ] } },
{ "type": "Feature", "properties": { "strassenschluessel": "05358000004405551", "bezeichnung": "Amselweg" }, "geometry": { "type": "Point", "coordinates": [ 6.569852310162126, 50.681934575340236 ] } },
{ "type": "Feature", "properties": { "strassenschluessel": "05358000004405552", "bezeichnung": "Gerberweg" }, "geometry": { "type": "Point", "coordinates": [ 6.577330115681452, 50.683084348814596 ] } },
{ "type": "Feature", "properties": { "strassenschluessel": "05358000004405553", "bezeichnung": "Kleine Königstraße" }, "geometry": { "type": "Point", "coordinates": [ 6.569920268670638, 50.685204641373709 ] } },
{ "type": "Feature", "properties": { "strassenschluessel": "05358000004405554", "bezeichnung": "Königstraße" }, "geometry": { "type": "Point", "coordinates": [ 6.573100784322114, 50.685867739293023 ] } },
{ "type": "Feature", "properties": { "strassenschluessel": "05358000004405555", "bezeichnung": "Liebergstraße" }, "geometry": { "type": "Point", "coordinates": [ 6.5782476455181, 50.685320883783731 ] } },
{ "type": "Feature", "properties": { "strassenschluessel": "05358000004405556", "bezeichnung": "Mühlenstraße" }, "geometry": { "type": "Point", "coordinates": [ 6.579118372560724, 50.684095778689446 ] } },
{ "type": "Feature", "properties": { "strassenschluessel": "05358000004405557", "bezeichnung": "Muldenauer Straße" }, "geometry": { "type": "Point", "coordinates": [ 6.568497626682698, 50.684574227712396 ] } },
{ "type": "Feature", "properties": { "strassenschluessel": "05358000004405558", "bezeichnung": "Neffeltalstraße" }, "geometry": { "type": "Point", "coordinates": [ 6.57507836589775, 50.682809631851747 ] } },
{ "type": "Feature", "properties": { "strassenschluessel": "05358000004405559", "bezeichnung": "Ringstraße" }, "geometry": { "type": "Point", "coordinates": [ 6.575897137154073, 50.685772133039457 ] } },
{ "type": "Feature", "properties": { "strassenschluessel": "05358000004405560", "bezeichnung": "St.Antoniusstraße" }, "geometry": { "type": "Point", "coordinates": [ 6.569388061270188, 50.68297334362564 ] } },
{ "type": "Feature", "properties": { "strassenschluessel": "05358000004405561", "bezeichnung": "Frohnhof" }, "geometry": null },
{ "type": "Feature", "properties": { "strassenschluessel": "05358000004405562", "bezeichnung": "Frohnhofstraße" }, "geometry": { "type": "Point", "coordinates": [ 6.575496155877966, 50.683188723963227 ] } },
{ "type": "Feature", "properties": { "strassenschluessel": "05358000004405563", "bezeichnung": "Auf der Gries" }, "geometry": { "type": "Point", "coordinates": [ 6.578540581055264, 50.686471891093824 ] } },
{ "type": "Feature", "properties": { "strassenschluessel": "05358000004405564", "bezeichnung": "Auf dem Sand" }, "geometry": { "type": "Point", "coordinates": [ 6.568623352535012, 50.685141747330547 ] } },
{ "type": "Feature", "properties": { "strassenschluessel": "05358000004405585", "bezeichnung": "Am Breidel" }, "geometry": { "type": "Point", "coordinates": [ 6.555734000019739, 50.687765060712422 ] } },
{ "type": "Feature", "properties": { "strassenschluessel": "05358000004405586", "bezeichnung": "Barbarastraße" }, "geometry": { "type": "Point", "coordinates": [ 6.557827153694102, 50.688617157323776 ] } },
{ "type": "Feature", "properties": { "strassenschluessel": "05358000004405587", "bezeichnung": "Brückenstraße" }, "geometry": { "type": "Point", "coordinates": [ 6.558970649866183, 50.687911373215073 ] } },
{ "type": "Feature", "properties": { "strassenschluessel": "05358000004405588", "bezeichnung": "Pützgasse" }, "geometry": { "type": "Point", "coordinates": [ 6.557936413863752, 50.688285811315197 ] } },
{ "type": "Feature", "properties": { "strassenschluessel": "05358000004405589", "bezeichnung": "Ulmenstraße" }, "geometry": { "type": "Point", "coordinates": [ 6.557125951099573, 50.687960674230418 ] } },
{ "type": "Feature", "properties": { "strassenschluessel": "05358000004405605", "bezeichnung": "Abendener Straße" }, "geometry": { "type": "Point", "coordinates": [ 6.485420312899221, 50.688756742452838 ] } },
{ "type": "Feature", "properties": { "strassenschluessel": "05358000004405606", "bezeichnung": "Alveradisstraße" }, "geometry": { "type": "Point", "coordinates": [ 6.484035275215446, 50.689756487448037 ] } },
{ "type": "Feature", "properties": { "strassenschluessel": "05358000004405607", "bezeichnung": "Am Eisernen Kreuz" }, "geometry": { "type": "Point", "coordinates": [ 6.487948544091985, 50.693620498646524 ] } },
{ "type": "Feature", "properties": { "strassenschluessel": "05358000004405608", "bezeichnung": "Am Scheid" }, "geometry": { "type": "Point", "coordinates": [ 6.487330599573925, 50.690476754341503 ] } },
{ "type": "Feature", "properties": { "strassenschluessel": "05358000004405609", "bezeichnung": "An der Stadtmauer" }, "geometry": { "type": "Point", "coordinates": [ 6.48279473255715, 50.689949519683005 ] } },
{ "type": "Feature", "properties": { "strassenschluessel": "05358000004405610", "bezeichnung": "Bahnhofstraße" }, "geometry": { "type": "Point", "coordinates": [ 6.48051762311796, 50.692015729905073 ] } },
{ "type": "Feature", "properties": { "strassenschluessel": "05358000004405611", "bezeichnung": "Beethovenweg" }, "geometry": { "type": "Point", "coordinates": [ 6.480948781844198, 50.695853020985609 ] } },
{ "type": "Feature", "properties": { "strassenschluessel": "05358000004405612", "bezeichnung": "Bewersgasse" }, "geometry": { "type": "Point", "coordinates": [ 6.481963991150065, 50.690776473935273 ] } },
{ "type": "Feature", "properties": { "strassenschluessel": "05358000004405613", "bezeichnung": "Bewersgraben" }, "geometry": { "type": "Point", "coordinates": [ 6.480905509632827, 50.69161319547225 ] } },
{ "type": "Feature", "properties": { "strassenschluessel": "05358000004405614", "bezeichnung": "Breslauer Straße" }, "geometry": { "type": "Point", "coordinates": [ 6.487495913493238, 50.688422777039165 ] } },
{ "type": "Feature", "properties": { "strassenschluessel": "05358000004405615", "bezeichnung": "Eifelstraße" }, "geometry": { "type": "Point", "coordinates": [ 6.485441210192884, 50.693148595974165 ] } },
{ "type": "Feature", "properties": { "strassenschluessel": "05358000004405616", "bezeichnung": "Graf-Gerhard-Straße" }, "geometry": { "type": "Point", "coordinates": [ 6.482653526190502, 50.689979766874714 ] } },
{ "type": "Feature", "properties": { "strassenschluessel": "05358000004405617", "bezeichnung": "Graf-Wilhelm-Straße" }, "geometry": { "type": "Point", "coordinates": [ 6.484522899175843, 50.69127100974638 ] } },
{ "type": "Feature", "properties": { "strassenschluessel": "05358000004405618", "bezeichnung": "Göddertchen" }, "geometry": { "type": "Point", "coordinates": [ 6.486437659960437, 50.693941869387999 ] } },
{ "type": "Feature", "properties": { "strassenschluessel": "05358000004405619", "bezeichnung": "Heimersteinerstraße" }, "geometry": { "type": "Point", "coordinates": [ 6.479910601893717, 50.690724050355364 ] } },
{ "type": "Feature", "properties": { "strassenschluessel": "05358000004405620", "bezeichnung": "Herzogstraße" }, "geometry": { "type": "Point", "coordinates": [ 6.487398001750658, 50.693344686590443 ] } },
{ "type": "Feature", "properties": { "strassenschluessel": "05358000004405621", "bezeichnung": "Hindenburgstraße" }, "geometry": { "type": "Point", "coordinates": [ 6.48180909375106, 50.690975803183335 ] } },
{ "type": "Feature", "properties": { "strassenschluessel": "05358000004405622", "bezeichnung": "Hirtzleyweg" }, "geometry": { "type": "Point", "coordinates": [ 6.477587076429966, 50.694860110759116 ] } },
{ "type": "Feature", "properties": { "strassenschluessel": "05358000004405623", "bezeichnung": "Im Altwerk" }, "geometry": { "type": "Point", "coordinates": [ 6.482860068410458, 50.690565880217193 ] } },
{ "type": "Feature", "properties": { "strassenschluessel": "05358000004405624", "bezeichnung": "Im Effels" }, "geometry": { "type": "Point", "coordinates": [ 6.482675768763069, 50.685704216201401 ] } },
{ "type": "Feature", "properties": { "strassenschluessel": "05358000004405625", "bezeichnung": "Im Jungholz" }, "geometry": { "type": "Point", "coordinates": [ 6.46779254498307, 50.693692245507627 ] } },
{ "type": "Feature", "properties": { "strassenschluessel": "05358000004405626", "bezeichnung": "Im Kühlenbusch" }, "geometry": { "type": "Point", "coordinates": [ 6.483611297439147, 50.682239568443791 ] } },
{ "type": "Feature", "properties": { "strassenschluessel": "05358000004405627", "bezeichnung": "Im Vogelsang" }, "geometry": { "type": "Point", "coordinates": [ 6.482735598453744, 50.689594975546747 ] } },
{ "type": "Feature", "properties": { "strassenschluessel": "05358000004405628", "bezeichnung": "Jülicher Straße" }, "geometry": { "type": "Point", "coordinates": [ 6.484431737365403, 50.692892194968152 ] } },
{ "type": "Feature", "properties": { "strassenschluessel": "05358000004405629", "bezeichnung": "Kermeterstraße" }, "geometry": { "type": "Point", "coordinates": [ 6.488251707975402, 50.686392424282083 ] } },
{ "type": "Feature", "properties": { "strassenschluessel": "05358000004405630", "bezeichnung": "Kesselbergweg" }, "geometry": { "type": "Point", "coordinates": [ 6.475112876869246, 50.695217167992602 ] } },
{ "type": "Feature", "properties": { "strassenschluessel": "05358000004405631", "bezeichnung": "Kirchgasse" }, "geometry": { "type": "Point", "coordinates": [ 6.479699608129322, 50.689389953493482 ] } },
{ "type": "Feature", "properties": { "strassenschluessel": "05358000004405632", "bezeichnung": "Konrad-Adenauer-Straße" }, "geometry": { "type": "Point", "coordinates": [ 6.481787839561063, 50.696568194002509 ] } },
{ "type": "Feature", "properties": { "strassenschluessel": "05358000004405633", "bezeichnung": "Maarweg" }, "geometry": { "type": "Point", "coordinates": [ 6.483117546556175, 50.69467807438069 ] } },
{ "type": "Feature", "properties": { "strassenschluessel": "05358000004405634", "bezeichnung": "Markt" }, "geometry": { "type": "Point", "coordinates": [ 6.481630600074309, 50.690017527328813 ] } },
{ "type": "Feature", "properties": { "strassenschluessel": "05358000004405635", "bezeichnung": "Martin-Aschenbroich-Weg" }, "geometry": { "type": "Point", "coordinates": [ 6.483438387360672, 50.690235523707393 ] } },
{ "type": "Feature", "properties": { "strassenschluessel": "05358000004405636", "bezeichnung": "Mozartweg" }, "geometry": { "type": "Point", "coordinates": [ 6.480299606316207, 50.695509840165272 ] } },
{ "type": "Feature", "properties": { "strassenschluessel": "05358000004405637", "bezeichnung": "Neuweg" }, "geometry": { "type": "Point", "coordinates": [ 6.48676222486165, 50.691057252774584 ] } },
{ "type": "Feature", "properties": { "strassenschluessel": "05358000004405638", "bezeichnung": "Nelkenweg" }, "geometry": { "type": "Point", "coordinates": [ 6.473924604673601, 50.695007854594351 ] } },
{ "type": "Feature", "properties": { "strassenschluessel": "05358000004405639", "bezeichnung": "Paul-Schaaff-Straße" }, "geometry": { "type": "Point", "coordinates": [ 6.488632464449296, 50.690322125781421 ] } },
{ "type": "Feature", "properties": { "strassenschluessel": "05358000004405640", "bezeichnung": "Professor-Lennartz-Weg" }, "geometry": { "type": "Point", "coordinates": [ 6.480394983248239, 50.691175060332178 ] } },
{ "type": "Feature", "properties": { "strassenschluessel": "05358000004405641", "bezeichnung": "Raiffeisenstraße" }, "geometry": { "type": "Point", "coordinates": [ 6.487344036406974, 50.689735009852015 ] } },
{ "type": "Feature", "properties": { "strassenschluessel": "05358000004405642", "bezeichnung": "Rather Straße" }, "geometry": { "type": "Point", "coordinates": [ 6.475689007475323, 50.698032496950759 ] } },
{ "type": "Feature", "properties": { "strassenschluessel": "05358000004405643", "bezeichnung": "Richard-Wagner-Weg" }, "geometry": { "type": "Point", "coordinates": [ 6.482153093204603, 50.6950263675282 ] } },
{ "type": "Feature", "properties": { "strassenschluessel": "05358000004405644", "bezeichnung": "St.Florianweg" }, "geometry": { "type": "Point", "coordinates": [ 6.481805193208717, 50.695327159012741 ] } },
{ "type": "Feature", "properties": { "strassenschluessel": "05358000004405645", "bezeichnung": "Thumer Weg" }, "geometry": { "type": "Point", "coordinates": [ 6.489901189183648, 50.696547761755447 ] } },
{ "type": "Feature", "properties": { "strassenschluessel": "05358000004405646", "bezeichnung": "Unraspfad" }, "geometry": { "type": "Point", "coordinates": [ 6.47575666420588, 50.696284549779996 ] } },
{ "type": "Feature", "properties": { "strassenschluessel": "05358000004405647", "bezeichnung": "Von-Hochstaden-Straße" }, "geometry": { "type": "Point", "coordinates": [ 6.486323367495948, 50.690788377906756 ] } },
{ "type": "Feature", "properties": { "strassenschluessel": "05358000004405648", "bezeichnung": "Von-Siebold-Straße" }, "geometry": { "type": "Point", "coordinates": [ 6.487418729658434, 50.69246550803318 ] } },
{ "type": "Feature", "properties": { "strassenschluessel": "05358000004405649", "bezeichnung": "Zülpicher Straße" }, "geometry": { "type": "Point", "coordinates": [ 6.485558011798116, 50.688132784901939 ] } },
{ "type": "Feature", "properties": { "strassenschluessel": "05358000004405650", "bezeichnung": "Gut Kirschbaum" }, "geometry": { "type": "Point", "coordinates": [ 6.488093133941371, 50.700431602873671 ] } },
{ "type": "Feature", "properties": { "strassenschluessel": "05358000004405651", "bezeichnung": "Mausauelhof" }, "geometry": { "type": "Point", "coordinates": [ 6.441765122693933, 50.702877280630155 ] } },
{ "type": "Feature", "properties": { "strassenschluessel": "05358000004405652", "bezeichnung": "Wildemannweg" }, "geometry": { "type": "Point", "coordinates": [ 6.486519264945395, 50.686645703960565 ] } },
{ "type": "Feature", "properties": { "strassenschluessel": "05358000004405653", "bezeichnung": "Auf der Erdmaar" }, "geometry": { "type": "Point", "coordinates": [ 6.490418265614053, 50.688540912871751 ] } },
{ "type": "Feature", "properties": { "strassenschluessel": "05358000004405654", "bezeichnung": "Auf der Hürt" }, "geometry": { "type": "Point", "coordinates": [ 6.503046729179204, 50.689385406914163 ] } },
{ "type": "Feature", "properties": { "strassenschluessel": "05358000004405655", "bezeichnung": "Willy-Brandt-Straße" }, "geometry": { "type": "Point", "coordinates": [ 6.475539657554241, 50.697123360810465 ] } },
{ "type": "Feature", "properties": { "strassenschluessel": "05358000004405656", "bezeichnung": "Berger Acker" }, "geometry": { "type": "Point", "coordinates": [ 6.492872192034053, 50.690359439734472 ] } },
{ "type": "Feature", "properties": { "strassenschluessel": "05358000004405657", "bezeichnung": "Lerchenweg" }, "geometry": { "type": "Point", "coordinates": [ 6.489162768208753, 50.691694756946269 ] } },
{ "type": "Feature", "properties": { "strassenschluessel": "05358000004405658", "bezeichnung": "Schützenstraße" }, "geometry": { "type": "Point", "coordinates": [ 6.490023473098777, 50.691719896857506 ] } },
{ "type": "Feature", "properties": { "strassenschluessel": "05358000004405659", "bezeichnung": "Sperberweg" }, "geometry": { "type": "Point", "coordinates": [ 6.488898313695645, 50.694977033925689 ] } },
{ "type": "Feature", "properties": { "strassenschluessel": "05358000004405660", "bezeichnung": "Thumer Linde" }, "geometry": { "type": "Point", "coordinates": [ 6.488791558650006, 50.695942478807396 ] } },
{ "type": "Feature", "properties": { "strassenschluessel": "05358000004405661", "bezeichnung": "Tischlergasse" }, "geometry": null },
{ "type": "Feature", "properties": { "strassenschluessel": "05358000004405662", "bezeichnung": "Heinrich-Düster-Straße" }, "geometry": { "type": "Point", "coordinates": [ 6.478568938685588, 50.697715042006521 ] } },
{ "type": "Feature", "properties": { "strassenschluessel": "05358000004405663", "bezeichnung": "Am Grünen Weg" }, "geometry": { "type": "Point", "coordinates": [ 6.486370059531963, 50.69715609773116 ] } },
{ "type": "Feature", "properties": { "strassenschluessel": "05358000004405664", "bezeichnung": "Am Kloster" }, "geometry": { "type": "Point", "coordinates": [ 6.482286832345854, 50.691619165834311 ] } },
{ "type": "Feature", "properties": { "strassenschluessel": "05358000004405665", "bezeichnung": "Am Kallweg" }, "geometry": { "type": "Point", "coordinates": [ 6.472762281843892, 50.6967893840174 ] } },
{ "type": "Feature", "properties": { "strassenschluessel": "05358000004405666", "bezeichnung": "Sonnenkamp" }, "geometry": { "type": "Point", "coordinates": [ 6.484157019294995, 50.694359249900813 ] } },
{ "type": "Feature", "properties": { "strassenschluessel": "05358000004405725", "bezeichnung": "Am Mausauel" }, "geometry": { "type": "Point", "coordinates": [ 6.465263536304649, 50.704494941418716 ] } },
{ "type": "Feature", "properties": { "strassenschluessel": "05358000004405726", "bezeichnung": "An den Eichen" }, "geometry": { "type": "Point", "coordinates": [ 6.46898844639606, 50.701538016207238 ] } },
{ "type": "Feature", "properties": { "strassenschluessel": "05358000004405727", "bezeichnung": "Boicher Weg" }, "geometry": { "type": "Point", "coordinates": [ 6.470833442430576, 50.707267293538017 ] } },
{ "type": "Feature", "properties": { "strassenschluessel": "05358000004405728", "bezeichnung": "Im Niederbusch" }, "geometry": { "type": "Point", "coordinates": [ 6.470967546138026, 50.703419327798322 ] } },
{ "type": "Feature", "properties": { "strassenschluessel": "05358000004405729", "bezeichnung": "Im Stillen Winkel" }, "geometry": { "type": "Point", "coordinates": [ 6.469039329059791, 50.699859146615296 ] } },
{ "type": "Feature", "properties": { "strassenschluessel": "05358000004405730", "bezeichnung": "Im Waldwinkel" }, "geometry": { "type": "Point", "coordinates": [ 6.466380419867916, 50.705520955309645 ] } },
{ "type": "Feature", "properties": { "strassenschluessel": "05358000004405731", "bezeichnung": "Kapellenweg" }, "geometry": { "type": "Point", "coordinates": [ 6.468907068865383, 50.703337732210819 ] } },
{ "type": "Feature", "properties": { "strassenschluessel": "05358000004405732", "bezeichnung": "Kickleyweg" }, "geometry": { "type": "Point", "coordinates": [ 6.469925165412134, 50.700951876591773 ] } },
{ "type": "Feature", "properties": { "strassenschluessel": "05358000004405733", "bezeichnung": "Kölnstraße" }, "geometry": { "type": "Point", "coordinates": [ 6.471017686484177, 50.701487754332206 ] } },
{ "type": "Feature", "properties": { "strassenschluessel": "05358000004405734", "bezeichnung": "Paffenkaul" }, "geometry": { "type": "Point", "coordinates": [ 6.468476737600033, 50.706341028047284 ] } },
{ "type": "Feature", "properties": { "strassenschluessel": "05358000004405735", "bezeichnung": "Panoramaweg" }, "geometry": { "type": "Point", "coordinates": [ 6.468999846385038, 50.705572886188264 ] } },
{ "type": "Feature", "properties": { "strassenschluessel": "05358000004405736", "bezeichnung": "Rather Straße" }, "geometry": { "type": "Point", "coordinates": [ 6.467600503998372, 50.708457037258412 ] } },
{ "type": "Feature", "properties": { "strassenschluessel": "05358000004405737", "bezeichnung": "Schneppenrather Weg" }, "geometry": { "type": "Point", "coordinates": [ 6.467248388099095, 50.705266379115507 ] } },
{ "type": "Feature", "properties": { "strassenschluessel": "05358000004405738", "bezeichnung": "Walter-Ott-Straße" }, "geometry": { "type": "Point", "coordinates": [ 6.467971677646535, 50.708913039388186 ] } },
{ "type": "Feature", "properties": { "strassenschluessel": "05358000004405739", "bezeichnung": "Zum Horstet" }, "geometry": { "type": "Point", "coordinates": [ 6.47005536888352, 50.704495445727815 ] } },
{ "type": "Feature", "properties": { "strassenschluessel": "05358000004405765", "bezeichnung": "Am Feldpütz" }, "geometry": { "type": "Point", "coordinates": [ 6.400245887644235, 50.669103738164445 ] } },
{ "type": "Feature", "properties": { "strassenschluessel": "05358000004405766", "bezeichnung": "Am Scheidbaum" }, "geometry": { "type": "Point", "coordinates": [ 6.432835534312818, 50.655985854083845 ] } },
{ "type": "Feature", "properties": { "strassenschluessel": "05358000004405767", "bezeichnung": "Am Tierpütz" }, "geometry": { "type": "Point", "coordinates": [ 6.415681881536626, 50.660355908825196 ] } },
{ "type": "Feature", "properties": { "strassenschluessel": "05358000004405768", "bezeichnung": "Am Weiher" }, "geometry": { "type": "Point", "coordinates": [ 6.399839854852761, 50.663140032599088 ] } },
{ "type": "Feature", "properties": { "strassenschluessel": "05358000004405769", "bezeichnung": "Am Zäunchen" }, "geometry": { "type": "Point", "coordinates": [ 6.414540269954619, 50.657478602478704 ] } },
{ "type": "Feature", "properties": { "strassenschluessel": "05358000004405770", "bezeichnung": "Bergstraße" }, "geometry": { "type": "Point", "coordinates": [ 6.406437574291811, 50.657890794983018 ] } },
{ "type": "Feature", "properties": { "strassenschluessel": "05358000004405771", "bezeichnung": "Eschaueler Weg" }, "geometry": { "type": "Point", "coordinates": [ 6.413421028697014, 50.65158276390008 ] } },
{ "type": "Feature", "properties": { "strassenschluessel": "05358000004405772", "bezeichnung": "Eichheckstraße" }, "geometry": { "type": "Point", "coordinates": [ 6.404392331824924, 50.663090974328277 ] } },
{ "type": "Feature", "properties": { "strassenschluessel": "05358000004405773", "bezeichnung": "Froitscheidter Straße" }, "geometry": { "type": "Point", "coordinates": [ 6.4084993358083, 50.671313681057995 ] } },
{ "type": "Feature", "properties": { "strassenschluessel": "05358000004405774", "bezeichnung": "Forsthaus Schmidt" }, "geometry": null },
{ "type": "Feature", "properties": { "strassenschluessel": "05358000004405775", "bezeichnung": "Gartenstraße" }, "geometry": { "type": "Point", "coordinates": [ 6.414921071868263, 50.66097434702418 ] } },
{ "type": "Feature", "properties": { "strassenschluessel": "05358000004405776", "bezeichnung": "Grünstr." }, "geometry": { "type": "Point", "coordinates": [ 6.408715620036433, 50.660037917158149 ] } },
{ "type": "Feature", "properties": { "strassenschluessel": "05358000004405777", "bezeichnung": "Häere Rott" }, "geometry": { "type": "Point", "coordinates": [ 6.406227038430881, 50.66198791150827 ] } },
{ "type": "Feature", "properties": { "strassenschluessel": "05358000004405778", "bezeichnung": "Harscheidter Straße" }, "geometry": { "type": "Point", "coordinates": [ 6.424892524268856, 50.673257816263842 ] } },
{ "type": "Feature", "properties": { "strassenschluessel": "05358000004405779", "bezeichnung": "Heimbacher Straße" }, "geometry": { "type": "Point", "coordinates": [ 6.416197195811937, 50.656137482901734 ] } },
{ "type": "Feature", "properties": { "strassenschluessel": "05358000004405780", "bezeichnung": "Hölchert" }, "geometry": { "type": "Point", "coordinates": [ 6.412777632500938, 50.665711403040603 ] } },
{ "type": "Feature", "properties": { "strassenschluessel": "05358000004405781", "bezeichnung": "Hubertushöhe" }, "geometry": { "type": "Point", "coordinates": [ 6.414086615572345, 50.655268792570077 ] } },
{ "type": "Feature", "properties": { "strassenschluessel": "05358000004405782", "bezeichnung": "Im Erzenreich" }, "geometry": { "type": "Point", "coordinates": [ 6.413582739483655, 50.651966000139154 ] } },
{ "type": "Feature", "properties": { "strassenschluessel": "05358000004405783", "bezeichnung": "Im Nachtigällchen" }, "geometry": { "type": "Point", "coordinates": [ 6.411114403736488, 50.659520693214091 ] } },
{ "type": "Feature", "properties": { "strassenschluessel": "05358000004405784", "bezeichnung": "Im Sief" }, "geometry": { "type": "Point", "coordinates": [ 6.412608781424819, 50.659445189256424 ] } },
{ "type": "Feature", "properties": { "strassenschluessel": "05358000004405785", "bezeichnung": "Im Wiesental" }, "geometry": { "type": "Point", "coordinates": [ 6.415243629074332, 50.658277276317392 ] } },
{ "type": "Feature", "properties": { "strassenschluessel": "05358000004405786", "bezeichnung": "In der Höhlt" }, "geometry": { "type": "Point", "coordinates": [ 6.410080898447042, 50.661298003164461 ] } },
{ "type": "Feature", "properties": { "strassenschluessel": "05358000004405787", "bezeichnung": "In der Trift" }, "geometry": { "type": "Point", "coordinates": [ 6.41596970796565, 50.653118836900234 ] } },
{ "type": "Feature", "properties": { "strassenschluessel": "05358000004405788", "bezeichnung": "Jörresfeld" }, "geometry": { "type": "Point", "coordinates": [ 6.414410629125104, 50.66204411276793 ] } },
{ "type": "Feature", "properties": { "strassenschluessel": "05358000004405789", "bezeichnung": "Kirchweg" }, "geometry": { "type": "Point", "coordinates": [ 6.40950853370824, 50.658521298908248 ] } },
{ "type": "Feature", "properties": { "strassenschluessel": "05358000004405790", "bezeichnung": "Klaus" }, "geometry": { "type": "Point", "coordinates": [ 6.385989147588491, 50.643581862755795 ] } },
{ "type": "Feature", "properties": { "strassenschluessel": "05358000004405791", "bezeichnung": "Klein Frankreich" }, "geometry": { "type": "Point", "coordinates": [ 6.41562714137053, 50.655169467719354 ] } },
{ "type": "Feature", "properties": { "strassenschluessel": "05358000004405792", "bezeichnung": "Kommerscheidter Straße" }, "geometry": { "type": "Point", "coordinates": [ 6.39866658646675, 50.663387493119544 ] } },
{ "type": "Feature", "properties": { "strassenschluessel": "05358000004405793", "bezeichnung": "Meerheck" }, "geometry": { "type": "Point", "coordinates": [ 6.412256404192706, 50.663713147693045 ] } },
{ "type": "Feature", "properties": { "strassenschluessel": "05358000004405794", "bezeichnung": "Mittelstraße" }, "geometry": { "type": "Point", "coordinates": [ 6.415129292449494, 50.664725884596194 ] } },
{ "type": "Feature", "properties": { "strassenschluessel": "05358000004405795", "bezeichnung": "Monschauer Straße" }, "geometry": { "type": "Point", "coordinates": [ 6.40299131351981, 50.658299479246587 ] } },
{ "type": "Feature", "properties": { "strassenschluessel": "05358000004405796", "bezeichnung": "Neustraße" }, "geometry": { "type": "Point", "coordinates": [ 6.395784441829128, 50.663426760844821 ] } },
{ "type": "Feature", "properties": { "strassenschluessel": "05358000004405797", "bezeichnung": "Nideggener Straße" }, "geometry": { "type": "Point", "coordinates": [ 6.409831442037293, 50.659158460332016 ] } },
{ "type": "Feature", "properties": { "strassenschluessel": "05358000004405798", "bezeichnung": "Römerstraße" }, "geometry": { "type": "Point", "coordinates": [ 6.406461321923214, 50.660206710543136 ] } },
{ "type": "Feature", "properties": { "strassenschluessel": "05358000004405799", "bezeichnung": "Röttgenstraße" }, "geometry": { "type": "Point", "coordinates": [ 6.396590762330287, 50.663649788152313 ] } },
{ "type": "Feature", "properties": { "strassenschluessel": "05358000004405800", "bezeichnung": "Schefferstraße" }, "geometry": { "type": "Point", "coordinates": [ 6.423254151389903, 50.667755492790562 ] } },
{ "type": "Feature", "properties": { "strassenschluessel": "05358000004405801", "bezeichnung": "Schlehbachweg" }, "geometry": { "type": "Point", "coordinates": [ 6.426410737254387, 50.667607939891063 ] } },
{ "type": "Feature", "properties": { "strassenschluessel": "05358000004405802", "bezeichnung": "Steinsrott" }, "geometry": { "type": "Point", "coordinates": [ 6.405997539626046, 50.656946917617084 ] } },
{ "type": "Feature", "properties": { "strassenschluessel": "05358000004405803", "bezeichnung": "Umkehr" }, "geometry": { "type": "Point", "coordinates": [ 6.417845314922143, 50.666058507349 ] } },
{ "type": "Feature", "properties": { "strassenschluessel": "05358000004405804", "bezeichnung": "Vogtstraße" }, "geometry": { "type": "Point", "coordinates": [ 6.411064115380309, 50.661594789205708 ] } },
{ "type": "Feature", "properties": { "strassenschluessel": "05358000004405805", "bezeichnung": "Waldstraße" }, "geometry": { "type": "Point", "coordinates": [ 6.39587243351036, 50.668102410450437 ] } },
{ "type": "Feature", "properties": { "strassenschluessel": "05358000004405806", "bezeichnung": "Wildparkstraße" }, "geometry": { "type": "Point", "coordinates": [ 6.419850780113281, 50.656012417507377 ] } },
{ "type": "Feature", "properties": { "strassenschluessel": "05358000004405807", "bezeichnung": "Zur Schanze" }, "geometry": { "type": "Point", "coordinates": [ 6.399515438429549, 50.658689581847206 ] } },
{ "type": "Feature", "properties": { "strassenschluessel": "05358000004405808", "bezeichnung": "Zur Schönen Aussicht" }, "geometry": { "type": "Point", "coordinates": [ 6.42005884583683, 50.655510447581797 ] } },
{ "type": "Feature", "properties": { "strassenschluessel": "05358000004405809", "bezeichnung": "Zweifallshammer" }, "geometry": { "type": "Point", "coordinates": [ 6.410236342857121, 50.68506131175419 ] } },
{ "type": "Feature", "properties": { "strassenschluessel": "05358000004405810", "bezeichnung": "Zum Bendchen" }, "geometry": { "type": "Point", "coordinates": [ 6.416147773765648, 50.657942582544109 ] } },
{ "type": "Feature", "properties": { "strassenschluessel": "05358000004405811", "bezeichnung": "Brunnenstraße" }, "geometry": { "type": "Point", "coordinates": [ 6.405359272054568, 50.660906896543509 ] } },
{ "type": "Feature", "properties": { "strassenschluessel": "05358000004405812", "bezeichnung": "Zum Windpark" }, "geometry": null },
{ "type": "Feature", "properties": { "strassenschluessel": "05358000004405813", "bezeichnung": "Am Grünland" }, "geometry": { "type": "Point", "coordinates": [ 6.397043683275868, 50.657690600219084 ] } },
{ "type": "Feature", "properties": { "strassenschluessel": "05358000004405814", "bezeichnung": "Am Kleinen Wald" }, "geometry": { "type": "Point", "coordinates": [ 6.396043556645508, 50.666659830562722 ] } },
{ "type": "Feature", "properties": { "strassenschluessel": "05358000004405815", "bezeichnung": "Zum Kalltal" }, "geometry": { "type": "Point", "coordinates": [ 6.395828538133741, 50.66587629519465 ] } },
{ "type": "Feature", "properties": { "strassenschluessel": "05358000004405816", "bezeichnung": "Mersbend" }, "geometry": null },
{ "type": "Feature", "properties": { "strassenschluessel": "05358000004405855", "bezeichnung": "Auf der Heide" }, "geometry": { "type": "Point", "coordinates": [ 6.575095821348695, 50.674761069782392 ] } },
{ "type": "Feature", "properties": { "strassenschluessel": "05358000004405856", "bezeichnung": "Bachstraße" }, "geometry": { "type": "Point", "coordinates": [ 6.565285693239432, 50.670950746191423 ] } },
{ "type": "Feature", "properties": { "strassenschluessel": "05358000004405857", "bezeichnung": "Bonner Straße" }, "geometry": { "type": "Point", "coordinates": [ 6.570126625584697, 50.672948947584501 ] } },
{ "type": "Feature", "properties": { "strassenschluessel": "05358000004405858", "bezeichnung": "Bürvenicher Straße" }, "geometry": { "type": "Point", "coordinates": [ 6.568049940408444, 50.669908890046777 ] } },
{ "type": "Feature", "properties": { "strassenschluessel": "05358000004405859", "bezeichnung": "Chlodwigspfad" }, "geometry": { "type": "Point", "coordinates": [ 6.565920544755285, 50.671982382184424 ] } },
{ "type": "Feature", "properties": { "strassenschluessel": "05358000004405860", "bezeichnung": "Em Trengel" }, "geometry": { "type": "Point", "coordinates": [ 6.565771768145781, 50.672781402770674 ] } },
{ "type": "Feature", "properties": { "strassenschluessel": "05358000004405861", "bezeichnung": "Eisenstraße" }, "geometry": { "type": "Point", "coordinates": [ 6.560188878142148, 50.670103435966524 ] } },
{ "type": "Feature", "properties": { "strassenschluessel": "05358000004405862", "bezeichnung": "Forsthaus Bade" }, "geometry": null },
{ "type": "Feature", "properties": { "strassenschluessel": "05358000004405863", "bezeichnung": "Gödersheimer Weg" }, "geometry": { "type": "Point", "coordinates": [ 6.560696892725055, 50.671660698100339 ] } },
{ "type": "Feature", "properties": { "strassenschluessel": "05358000004405864", "bezeichnung": "Goldberg" }, "geometry": { "type": "Point", "coordinates": [ 6.563455617880957, 50.672394405375073 ] } },
{ "type": "Feature", "properties": { "strassenschluessel": "05358000004405865", "bezeichnung": "Hardenberg" }, "geometry": { "type": "Point", "coordinates": [ 6.562418575057482, 50.672617875378251 ] } },
{ "type": "Feature", "properties": { "strassenschluessel": "05358000004405866", "bezeichnung": "In den Weingartsfeldern" }, "geometry": { "type": "Point", "coordinates": [ 6.566906759233023, 50.673522028991776 ] } },
{ "type": "Feature", "properties": { "strassenschluessel": "05358000004405867", "bezeichnung": "In der Hostert" }, "geometry": { "type": "Point", "coordinates": [ 6.568205745040572, 50.672966420352658 ] } },
{ "type": "Feature", "properties": { "strassenschluessel": "05358000004405868", "bezeichnung": "Pützweg" }, "geometry": { "type": "Point", "coordinates": [ 6.560683211867473, 50.669210181174222 ] } },
{ "type": "Feature", "properties": { "strassenschluessel": "05358000004405869", "bezeichnung": "Rentmühle" }, "geometry": { "type": "Point", "coordinates": [ 6.556236002682207, 50.677939790932754 ] } },
{ "type": "Feature", "properties": { "strassenschluessel": "05358000004405870", "bezeichnung": "Schulstraße" }, "geometry": { "type": "Point", "coordinates": [ 6.570460067070092, 50.671983613799284 ] } },
{ "type": "Feature", "properties": { "strassenschluessel": "05358000004405871", "bezeichnung": "Trierer Weg" }, "geometry": { "type": "Point", "coordinates": [ 6.562196642749494, 50.669439295429527 ] } },
{ "type": "Feature", "properties": { "strassenschluessel": "05358000004405872", "bezeichnung": "Uferweg" }, "geometry": { "type": "Point", "coordinates": [ 6.570021600121708, 50.671406828243597 ] } },
{ "type": "Feature", "properties": { "strassenschluessel": "05358000004405873", "bezeichnung": "Zehnthofstraße" }, "geometry": { "type": "Point", "coordinates": [ 6.56576887418504, 50.670665227556476 ] } },
{ "type": "Feature", "properties": { "strassenschluessel": "05358000004405874", "bezeichnung": "Zuckerstraße" }, "geometry": { "type": "Point", "coordinates": [ 6.563564397829652, 50.671675592273473 ] } },
{ "type": "Feature", "properties": { "strassenschluessel": "05358000004405875", "bezeichnung": "Burg Gödersheim" }, "geometry": { "type": "Point", "coordinates": [ 6.545635492213758, 50.674940635531016 ] } },
{ "type": "Feature", "properties": { "strassenschluessel": "05358000004405876", "bezeichnung": "Gödersheimer Mühle" }, "geometry": { "type": "Point", "coordinates": [ 6.547035623895581, 50.673808570371008 ] } },
{ "type": "Feature", "properties": { "strassenschluessel": "05358000004405877", "bezeichnung": "Im Äckerchen" }, "geometry": { "type": "Point", "coordinates": [ 6.560723494904763, 50.672230514842013 ] } },
{ "type": "Feature", "properties": { "strassenschluessel": "05358000004405878", "bezeichnung": "Sieben Morgen" }, "geometry": { "type": "Point", "coordinates": [ 6.561597711983574, 50.671284173135987 ] } },
{ "type": "Feature", "properties": { "strassenschluessel": "05358000004405879", "bezeichnung": "An der Lehmgasse" }, "geometry": { "type": "Point", "coordinates": [ 6.563924588928611, 50.669037182433584 ] } },
{ "type": "Feature", "properties": { "strassenschluessel": "05358000004405880", "bezeichnung": "Am Eppenicher Weg" }, "geometry": { "type": "Point", "coordinates": [ 6.564454560151285, 50.670248801419511 ] } },
{ "type": "Feature", "properties": { "strassenschluessel": "05358000004409999", "bezeichnung": "Pseudostraße" }, "geometry": { "type": "Point", "coordinates": [ 6.382230078532499, 50.6540255155506 ] } }
]
}
