{
"type": "FeatureCollection",
"features": [
{ "type": "Feature", "properties": { "strassenschluessel": "05378000002406301", "bezeichnung": "Abts-Höhe" }, "geometry": { "type": "Point", "coordinates": [ 7.275820207460615, 50.930745660664002 ] } },
{ "type": "Feature", "properties": { "strassenschluessel": "05378000002406302", "bezeichnung": "Alte Mucher Straße" }, "geometry": { "type": "Point", "coordinates": [ 7.295995982322103, 50.935258940160551 ] } },
{ "type": "Feature", "properties": { "strassenschluessel": "05378000002406303", "bezeichnung": "Am Aggersteg" }, "geometry": { "type": "Point", "coordinates": [ 7.293656388315834, 50.933463668860711 ] } },
{ "type": "Feature", "properties": { "strassenschluessel": "05378000002406304", "bezeichnung": "Am Katzenbach" }, "geometry": { "type": "Point", "coordinates": [ 7.278395781471422, 50.934979432170039 ] } },
{ "type": "Feature", "properties": { "strassenschluessel": "05378000002406305", "bezeichnung": "Am Lölsberger Steg" }, "geometry": { "type": "Point", "coordinates": [ 7.288310843610023, 50.928719779319259 ] } },
{ "type": "Feature", "properties": { "strassenschluessel": "05378000002406306", "bezeichnung": "Starenweg" }, "geometry": { "type": "Point", "coordinates": [ 7.282223706841164, 50.942204520528392 ] } },
{ "type": "Feature", "properties": { "strassenschluessel": "05378000002406307", "bezeichnung": "Pappelweg" }, "geometry": { "type": "Point", "coordinates": [ 7.28630530564155, 50.929131133881562 ] } },
{ "type": "Feature", "properties": { "strassenschluessel": "05378000002406308", "bezeichnung": "An den Gärten" }, "geometry": { "type": "Point", "coordinates": [ 7.285935168891156, 50.931968721573043 ] } },
{ "type": "Feature", "properties": { "strassenschluessel": "05378000002406309", "bezeichnung": "An der Brücke" }, "geometry": { "type": "Point", "coordinates": [ 7.295456465185241, 50.933459090048281 ] } },
{ "type": "Feature", "properties": { "strassenschluessel": "05378000002406310", "bezeichnung": "An der Mühle" }, "geometry": { "type": "Point", "coordinates": [ 7.281644254303078, 50.933500106725219 ] } },
{ "type": "Feature", "properties": { "strassenschluessel": "05378000002406311", "bezeichnung": "An der Ringmauer" }, "geometry": { "type": "Point", "coordinates": [ 7.296890438692129, 50.93687626382718 ] } },
{ "type": "Feature", "properties": { "strassenschluessel": "05378000002406312", "bezeichnung": "Auf dem Klarenberg" }, "geometry": { "type": "Point", "coordinates": [ 7.280198753840928, 50.931651688777521 ] } },
{ "type": "Feature", "properties": { "strassenschluessel": "05378000002406313", "bezeichnung": "Aulhof" }, "geometry": { "type": "Point", "coordinates": [ 7.297424372033022, 50.93102265563811 ] } },
{ "type": "Feature", "properties": { "strassenschluessel": "05378000002406314", "bezeichnung": "Colne-Valley-Platz" }, "geometry": null },
{ "type": "Feature", "properties": { "strassenschluessel": "05378000002406315", "bezeichnung": "Bahnhofplatz" }, "geometry": { "type": "Point", "coordinates": [ 7.287964399642926, 50.933125769375565 ] } },
{ "type": "Feature", "properties": { "strassenschluessel": "05378000002406316", "bezeichnung": "Bellinghausenstraße" }, "geometry": { "type": "Point", "coordinates": [ 7.290126367894906, 50.93162697959761 ] } },
{ "type": "Feature", "properties": { "strassenschluessel": "05378000002406317", "bezeichnung": "Bennauerstraße" }, "geometry": { "type": "Point", "coordinates": [ 7.282218708929102, 50.93458537992101 ] } },
{ "type": "Feature", "properties": { "strassenschluessel": "05378000002406318", "bezeichnung": "Bernsau" }, "geometry": { "type": "Point", "coordinates": [ 7.320655315591784, 50.951292421733541 ] } },
{ "type": "Feature", "properties": { "strassenschluessel": "05378000002406319", "bezeichnung": "Bettenachen" }, "geometry": { "type": "Point", "coordinates": [ 7.307749318175151, 50.93985381077173 ] } },
{ "type": "Feature", "properties": { "strassenschluessel": "05378000002406320", "bezeichnung": "Brambach" }, "geometry": { "type": "Point", "coordinates": [ 7.27173660120588, 50.925966470254039 ] } },
{ "type": "Feature", "properties": { "strassenschluessel": "05378000002406321", "bezeichnung": "Broich" }, "geometry": { "type": "Point", "coordinates": [ 7.280715965423365, 50.917545416827089 ] } },
{ "type": "Feature", "properties": { "strassenschluessel": "05378000002406322", "bezeichnung": "Broicher Berg" }, "geometry": { "type": "Point", "coordinates": [ 7.285603855217956, 50.915883889422773 ] } },
{ "type": "Feature", "properties": { "strassenschluessel": "05378000002406323", "bezeichnung": "Brückenaue" }, "geometry": { "type": "Point", "coordinates": [ 7.294868669212167, 50.93399201827458 ] } },
{ "type": "Feature", "properties": { "strassenschluessel": "05378000002406324", "bezeichnung": "Burg" }, "geometry": { "type": "Point", "coordinates": [ 7.304351569248463, 50.937682124355717 ] } },
{ "type": "Feature", "properties": { "strassenschluessel": "05378000002406325", "bezeichnung": "Burghof" }, "geometry": { "type": "Point", "coordinates": [ 7.297408256887972, 50.943386094740397 ] } },
{ "type": "Feature", "properties": { "strassenschluessel": "05378000002406326", "bezeichnung": "Burgholz" }, "geometry": { "type": "Point", "coordinates": [ 7.267611855704327, 50.938578646437897 ] } },
{ "type": "Feature", "properties": { "strassenschluessel": "05378000002406327", "bezeichnung": "Burgholzweg" }, "geometry": { "type": "Point", "coordinates": [ 7.280914540095578, 50.932681969563333 ] } },
{ "type": "Feature", "properties": { "strassenschluessel": "05378000002406328", "bezeichnung": "Buschhoven" }, "geometry": { "type": "Point", "coordinates": [ 7.297539124081331, 50.911538400374219 ] } },
{ "type": "Feature", "properties": { "strassenschluessel": "05378000002406329", "bezeichnung": "Cäcilienstraße" }, "geometry": { "type": "Point", "coordinates": [ 7.29059774324451, 50.929995289138347 ] } },
{ "type": "Feature", "properties": { "strassenschluessel": "05378000002406330", "bezeichnung": "Cyriax" }, "geometry": { "type": "Point", "coordinates": [ 7.276114185077174, 50.92610106592155 ] } },
{ "type": "Feature", "properties": { "strassenschluessel": "05378000002406331", "bezeichnung": "Diepenbroich" }, "geometry": { "type": "Point", "coordinates": [ 7.292230940164104, 50.944530113399345 ] } },
{ "type": "Feature", "properties": { "strassenschluessel": "05378000002406332", "bezeichnung": "Eichen" }, "geometry": { "type": "Point", "coordinates": [ 7.275922191867564, 50.930989962742245 ] } },
{ "type": "Feature", "properties": { "strassenschluessel": "05378000002406333", "bezeichnung": "Eichenweg" }, "geometry": { "type": "Point", "coordinates": [ 7.279952057915088, 50.930984500646403 ] } },
{ "type": "Feature", "properties": { "strassenschluessel": "05378000002406334", "bezeichnung": "Eichthal" }, "geometry": { "type": "Point", "coordinates": [ 7.277197597641535, 50.920640812826043 ] } },
{ "type": "Feature", "properties": { "strassenschluessel": "05378000002406335", "bezeichnung": "Eulenthaler Straße" }, "geometry": { "type": "Point", "coordinates": [ 7.296150285780379, 50.916922387085982 ] } },
{ "type": "Feature", "properties": { "strassenschluessel": "05378000002406336", "bezeichnung": "Fasanenweg" }, "geometry": { "type": "Point", "coordinates": [ 7.280969816997835, 50.940451342544478 ] } },
{ "type": "Feature", "properties": { "strassenschluessel": "05378000002406337", "bezeichnung": "Ferrenberg" }, "geometry": { "type": "Point", "coordinates": [ 7.283490460036313, 50.934883978571037 ] } },
{ "type": "Feature", "properties": { "strassenschluessel": "05378000002406338", "bezeichnung": "Fischerstraße" }, "geometry": { "type": "Point", "coordinates": [ 7.28821851403961, 50.92913765435928 ] } },
{ "type": "Feature", "properties": { "strassenschluessel": "05378000002406339", "bezeichnung": "Glockengießerstraße" }, "geometry": { "type": "Point", "coordinates": [ 7.284471195721168, 50.933517704899714 ] } },
{ "type": "Feature", "properties": { "strassenschluessel": "05378000002406340", "bezeichnung": "Granderathstraße" }, "geometry": { "type": "Point", "coordinates": [ 7.28666786907685, 50.929992666202864 ] } },
{ "type": "Feature", "properties": { "strassenschluessel": "05378000002406341", "bezeichnung": "Griesenbalken" }, "geometry": { "type": "Point", "coordinates": [ 7.27650620407602, 50.952420798484134 ] } },
{ "type": "Feature", "properties": { "strassenschluessel": "05378000002406342", "bezeichnung": "Großbernsau" }, "geometry": { "type": "Point", "coordinates": [ 7.292223003619941, 50.939906161913264 ] } },
{ "type": "Feature", "properties": { "strassenschluessel": "05378000002406343", "bezeichnung": "Hagenbitze" }, "geometry": { "type": "Point", "coordinates": [ 7.295655009322524, 50.918494764775737 ] } },
{ "type": "Feature", "properties": { "strassenschluessel": "05378000002406344", "bezeichnung": "Halfensbüchel" }, "geometry": { "type": "Point", "coordinates": [ 7.267368807170514, 50.925978035169884 ] } },
{ "type": "Feature", "properties": { "strassenschluessel": "05378000002406345", "bezeichnung": "Halzemich" }, "geometry": { "type": "Point", "coordinates": [ 7.308142408026521, 50.917285752709574 ] } },
{ "type": "Feature", "properties": { "strassenschluessel": "05378000002406346", "bezeichnung": "Hammermühle" }, "geometry": { "type": "Point", "coordinates": [ 7.295124697352555, 50.9399999222464 ] } },
{ "type": "Feature", "properties": { "strassenschluessel": "05378000002406347", "bezeichnung": "Hasenberg" }, "geometry": { "type": "Point", "coordinates": [ 7.279060302634536, 50.910624114036537 ] } },
{ "type": "Feature", "properties": { "strassenschluessel": "05378000002406348", "bezeichnung": "Hasenweide" }, "geometry": { "type": "Point", "coordinates": [ 7.279328251947843, 50.941688830406264 ] } },
{ "type": "Feature", "properties": { "strassenschluessel": "05378000002406349", "bezeichnung": "Hauptstraße" }, "geometry": { "type": "Point", "coordinates": [ 7.282260928235623, 50.933019381476342 ] } },
{ "type": "Feature", "properties": { "strassenschluessel": "05378000002406350", "bezeichnung": "Höderath" }, "geometry": { "type": "Point", "coordinates": [ 7.286925526923775, 50.943151665567079 ] } },
{ "type": "Feature", "properties": { "strassenschluessel": "05378000002406351", "bezeichnung": "Hubertstraße" }, "geometry": { "type": "Point", "coordinates": [ 7.280233071725037, 50.934744451497401 ] } },
{ "type": "Feature", "properties": { "strassenschluessel": "05378000002406352", "bezeichnung": "Hubertushang" }, "geometry": { "type": "Point", "coordinates": [ 7.285225422941649, 50.934963767669693 ] } },
{ "type": "Feature", "properties": { "strassenschluessel": "05378000002406353", "bezeichnung": "Gut Ennenbach" }, "geometry": { "type": "Point", "coordinates": [ 7.301106607183534, 50.951125370699728 ] } },
{ "type": "Feature", "properties": { "strassenschluessel": "05378000002406354", "bezeichnung": "Im Auel" }, "geometry": { "type": "Point", "coordinates": [ 7.284929209617332, 50.931085308096478 ] } },
{ "type": "Feature", "properties": { "strassenschluessel": "05378000002406355", "bezeichnung": "Im Eulenthal" }, "geometry": { "type": "Point", "coordinates": [ 7.304270672552652, 50.91932021411025 ] } },
{ "type": "Feature", "properties": { "strassenschluessel": "05378000002406356", "bezeichnung": "Im Komp" }, "geometry": { "type": "Point", "coordinates": [ 7.282796846072946, 50.933252829699612 ] } },
{ "type": "Feature", "properties": { "strassenschluessel": "05378000002406357", "bezeichnung": "Jahnstraße" }, "geometry": { "type": "Point", "coordinates": [ 7.285040611224924, 50.930740643530811 ] } },
{ "type": "Feature", "properties": { "strassenschluessel": "05378000002406358", "bezeichnung": "Jan-Wellem-Straße" }, "geometry": { "type": "Point", "coordinates": [ 7.285914039079676, 50.934656825699086 ] } },
{ "type": "Feature", "properties": { "strassenschluessel": "05378000002406359", "bezeichnung": "Josefshöhe" }, "geometry": { "type": "Point", "coordinates": [ 7.290166922143477, 50.934885864005437 ] } },
{ "type": "Feature", "properties": { "strassenschluessel": "05378000002406360", "bezeichnung": "Kapellenstraße" }, "geometry": { "type": "Point", "coordinates": [ 7.279685986167112, 50.931281131846085 ] } },
{ "type": "Feature", "properties": { "strassenschluessel": "05378000002406361", "bezeichnung": "Kastanienweg" }, "geometry": { "type": "Point", "coordinates": [ 7.281285491546025, 50.935198568158327 ] } },
{ "type": "Feature", "properties": { "strassenschluessel": "05378000002406362", "bezeichnung": "Katharinenstraße" }, "geometry": { "type": "Point", "coordinates": [ 7.289708493752096, 50.929331671381519 ] } },
{ "type": "Feature", "properties": { "strassenschluessel": "05378000002406363", "bezeichnung": "Kemenat" }, "geometry": { "type": "Point", "coordinates": [ 7.284198056255154, 50.933355181749242 ] } },
{ "type": "Feature", "properties": { "strassenschluessel": "05378000002406364", "bezeichnung": "Kemenaterberg" }, "geometry": { "type": "Point", "coordinates": [ 7.284233674596202, 50.933873474912986 ] } },
{ "type": "Feature", "properties": { "strassenschluessel": "05378000002406365", "bezeichnung": "Kirchberg" }, "geometry": { "type": "Point", "coordinates": [ 7.281359282263018, 50.934777943534897 ] } },
{ "type": "Feature", "properties": { "strassenschluessel": "05378000002406366", "bezeichnung": "Klef" }, "geometry": { "type": "Point", "coordinates": [ 7.308084110144928, 50.948900977817011 ] } },
{ "type": "Feature", "properties": { "strassenschluessel": "05378000002406367", "bezeichnung": "Kleinbalken" }, "geometry": { "type": "Point", "coordinates": [ 7.288154973653643, 50.954173460481776 ] } },
{ "type": "Feature", "properties": { "strassenschluessel": "05378000002406368", "bezeichnung": "Köhlerstraße" }, "geometry": { "type": "Point", "coordinates": [ 7.284098875743055, 50.936570897811478 ] } },
{ "type": "Feature", "properties": { "strassenschluessel": "05378000002406369", "bezeichnung": "Kombach" }, "geometry": { "type": "Point", "coordinates": [ 7.272321939385364, 50.919121896026411 ] } },
{ "type": "Feature", "properties": { "strassenschluessel": "05378000002406370", "bezeichnung": "Kotten" }, "geometry": { "type": "Point", "coordinates": [ 7.272225709077625, 50.947642881819348 ] } },
{ "type": "Feature", "properties": { "strassenschluessel": "05378000002406371", "bezeichnung": "Kram" }, "geometry": { "type": "Point", "coordinates": [ 7.296444895235446, 50.934403301656495 ] } },
{ "type": "Feature", "properties": { "strassenschluessel": "05378000002406372", "bezeichnung": "Kreutzhäuschen" }, "geometry": { "type": "Point", "coordinates": [ 7.2719434128511, 50.955835212894456 ] } },
{ "type": "Feature", "properties": { "strassenschluessel": "05378000002406373", "bezeichnung": "Kreuzfahrerstraße" }, "geometry": { "type": "Point", "coordinates": [ 7.288809068114902, 50.931003005592309 ] } },
{ "type": "Feature", "properties": { "strassenschluessel": "05378000002406374", "bezeichnung": "Kulhoven" }, "geometry": { "type": "Point", "coordinates": [ 7.284716891591017, 50.910015408067878 ] } },
{ "type": "Feature", "properties": { "strassenschluessel": "05378000002406375", "bezeichnung": "Leyenhaus" }, "geometry": { "type": "Point", "coordinates": [ 7.293991215896217, 50.918293874892356 ] } },
{ "type": "Feature", "properties": { "strassenschluessel": "05378000002406376", "bezeichnung": "Lichtinghagenstraße" }, "geometry": { "type": "Point", "coordinates": [ 7.288192213801535, 50.93030052400816 ] } },
{ "type": "Feature", "properties": { "strassenschluessel": "05378000002406377", "bezeichnung": "Lölsberg" }, "geometry": { "type": "Point", "coordinates": [ 7.290204253081933, 50.923236870562604 ] } },
{ "type": "Feature", "properties": { "strassenschluessel": "05378000002406378", "bezeichnung": "Lokenbach" }, "geometry": { "type": "Point", "coordinates": [ 7.261818621975384, 50.951092711366357 ] } },
{ "type": "Feature", "properties": { "strassenschluessel": "05378000002406379", "bezeichnung": "Marialindener Straße" }, "geometry": { "type": "Point", "coordinates": [ 7.297938959526359, 50.936117572579789 ] } },
{ "type": "Feature", "properties": { "strassenschluessel": "05378000002406380", "bezeichnung": "Meesbalken" }, "geometry": { "type": "Point", "coordinates": [ 7.291393917983103, 50.952980747476332 ] } },
{ "type": "Feature", "properties": { "strassenschluessel": "05378000002406381", "bezeichnung": "Mönchsheide" }, "geometry": { "type": "Point", "coordinates": [ 7.293970270331175, 50.916396842746309 ] } },
{ "type": "Feature", "properties": { "strassenschluessel": "05378000002406382", "bezeichnung": "Mucher Straße" }, "geometry": { "type": "Point", "coordinates": [ 7.305307688392337, 50.93176219266374 ] } },
{ "type": "Feature", "properties": { "strassenschluessel": "05378000002406383", "bezeichnung": "Neuenhaus" }, "geometry": { "type": "Point", "coordinates": [ 7.321424806084739, 50.948367528595206 ] } },
{ "type": "Feature", "properties": { "strassenschluessel": "05378000002406384", "bezeichnung": "Növerstraße" }, "geometry": { "type": "Point", "coordinates": [ 7.286036496188492, 50.930227165426217 ] } },
{ "type": "Feature", "properties": { "strassenschluessel": "05378000002406385", "bezeichnung": "Dr.-Ringens-Straße" }, "geometry": { "type": "Point", "coordinates": [ 7.291702119894855, 50.933634860265073 ] } },
{ "type": "Feature", "properties": { "strassenschluessel": "05378000002406386", "bezeichnung": "Oberbech" }, "geometry": { "type": "Point", "coordinates": [ 7.259635773125731, 50.950259591563267 ] } },
{ "type": "Feature", "properties": { "strassenschluessel": "05378000002406387", "bezeichnung": "Parkweg" }, "geometry": { "type": "Point", "coordinates": [ 7.286609290035835, 50.933663014214176 ] } },
{ "type": "Feature", "properties": { "strassenschluessel": "05378000002406388", "bezeichnung": "Propstbalken" }, "geometry": { "type": "Point", "coordinates": [ 7.289809073150283, 50.953464818154323 ] } },
{ "type": "Feature", "properties": { "strassenschluessel": "05378000002406389", "bezeichnung": "Propsteistraße" }, "geometry": { "type": "Point", "coordinates": [ 7.281532299682723, 50.930408009174613 ] } },
{ "type": "Feature", "properties": { "strassenschluessel": "05378000002406390", "bezeichnung": "Rappenhohn" }, "geometry": { "type": "Point", "coordinates": [ 7.283301914147788, 50.943174328707883 ] } },
{ "type": "Feature", "properties": { "strassenschluessel": "05378000002406391", "bezeichnung": "Rappenhohner Straße" }, "geometry": { "type": "Point", "coordinates": [ 7.277293574656325, 50.942202973412186 ] } },
{ "type": "Feature", "properties": { "strassenschluessel": "05378000002406392", "bezeichnung": "Rittberg" }, "geometry": { "type": "Point", "coordinates": [ 7.302346550856728, 50.932965855924792 ] } },
{ "type": "Feature", "properties": { "strassenschluessel": "05378000002406393", "bezeichnung": "Rottfeld" }, "geometry": { "type": "Point", "coordinates": [ 7.313697773736386, 50.936868147994232 ] } },
{ "type": "Feature", "properties": { "strassenschluessel": "05378000002406394", "bezeichnung": "Schiefenthal" }, "geometry": { "type": "Point", "coordinates": [ 7.307232031114133, 50.924863301973318 ] } },
{ "type": "Feature", "properties": { "strassenschluessel": "05378000002406395", "bezeichnung": "Schlehenweg" }, "geometry": { "type": "Point", "coordinates": [ 7.270319200920782, 50.927194173704748 ] } },
{ "type": "Feature", "properties": { "strassenschluessel": "05378000002406396", "bezeichnung": "Schlenkertstraße" }, "geometry": { "type": "Point", "coordinates": [ 7.286975027198682, 50.929416081048679 ] } },
{ "type": "Feature", "properties": { "strassenschluessel": "05378000002406397", "bezeichnung": "Franz-Becher-Straße" }, "geometry": { "type": "Point", "coordinates": [ 7.278857399717066, 50.932008962023104 ] } },
{ "type": "Feature", "properties": { "strassenschluessel": "05378000002406398", "bezeichnung": "Siegburger Straße" }, "geometry": { "type": "Point", "coordinates": [ 7.277673140885645, 50.930308419678255 ] } },
{ "type": "Feature", "properties": { "strassenschluessel": "05378000002406399", "bezeichnung": "Spich" }, "geometry": { "type": "Point", "coordinates": [ 7.272762800352663, 50.926355317936348 ] } },
{ "type": "Feature", "properties": { "strassenschluessel": "05378000002406400", "bezeichnung": "St.Anno-Höhe" }, "geometry": { "type": "Point", "coordinates": [ 7.274871640788753, 50.93366954354132 ] } },
{ "type": "Feature", "properties": { "strassenschluessel": "05378000002406401", "bezeichnung": "Stich" }, "geometry": { "type": "Point", "coordinates": [ 7.254611696255592, 50.946225290368261 ] } },
{ "type": "Feature", "properties": { "strassenschluessel": "05378000002406402", "bezeichnung": "Tannenweg" }, "geometry": { "type": "Point", "coordinates": [ 7.280377936714584, 50.936082289610312 ] } },
{ "type": "Feature", "properties": { "strassenschluessel": "05378000002406403", "bezeichnung": "Steinhofplatz" }, "geometry": { "type": "Point", "coordinates": [ 7.283563826191529, 50.931986924456716 ] } },
{ "type": "Feature", "properties": { "strassenschluessel": "05378000002406404", "bezeichnung": "Viersbrücken" }, "geometry": { "type": "Point", "coordinates": [ 7.29905343219361, 50.912608383744896 ] } },
{ "type": "Feature", "properties": { "strassenschluessel": "05378000002406405", "bezeichnung": "Von-Wylich-Straße" }, "geometry": { "type": "Point", "coordinates": [ 7.273064502245099, 50.929016508937949 ] } },
{ "type": "Feature", "properties": { "strassenschluessel": "05378000002406406", "bezeichnung": "Voßwinkeler Straße" }, "geometry": { "type": "Point", "coordinates": [ 7.266948105471489, 50.928449316307152 ] } },
{ "type": "Feature", "properties": { "strassenschluessel": "05378000002406407", "bezeichnung": "Walburgaplatz" }, "geometry": { "type": "Point", "coordinates": [ 7.284349150312987, 50.933053379373135 ] } },
{ "type": "Feature", "properties": { "strassenschluessel": "05378000002406408", "bezeichnung": "Warth" }, "geometry": { "type": "Point", "coordinates": [ 7.303962154487655, 50.922044653002764 ] } },
{ "type": "Feature", "properties": { "strassenschluessel": "05378000002406409", "bezeichnung": "Wasser" }, "geometry": { "type": "Point", "coordinates": [ 7.295302542028309, 50.929558446297385 ] } },
{ "type": "Feature", "properties": { "strassenschluessel": "05378000002406410", "bezeichnung": "Weberhöhe" }, "geometry": { "type": "Point", "coordinates": [ 7.271722353707963, 50.943746936393794 ] } },
{ "type": "Feature", "properties": { "strassenschluessel": "05378000002406411", "bezeichnung": "Weberstraße" }, "geometry": { "type": "Point", "coordinates": [ 7.280039519598523, 50.929350125702229 ] } },
{ "type": "Feature", "properties": { "strassenschluessel": "05378000002406412", "bezeichnung": "Weyerhof" }, "geometry": { "type": "Point", "coordinates": [ 7.285532285790445, 50.91241113075246 ] } },
{ "type": "Feature", "properties": { "strassenschluessel": "05378000002406413", "bezeichnung": "Wiesenauel" }, "geometry": { "type": "Point", "coordinates": [ 7.280262166350348, 50.92979177289736 ] } },
{ "type": "Feature", "properties": { "strassenschluessel": "05378000002406414", "bezeichnung": "Windhausen" }, "geometry": { "type": "Point", "coordinates": [ 7.291910562700648, 50.911466002661278 ] } },
{ "type": "Feature", "properties": { "strassenschluessel": "05378000002406415", "bezeichnung": "Wüsterhöhe" }, "geometry": { "type": "Point", "coordinates": [ 7.270616308553253, 50.95171375894239 ] } },
{ "type": "Feature", "properties": { "strassenschluessel": "05378000002406416", "bezeichnung": "Pérenchiesstraße" }, "geometry": { "type": "Point", "coordinates": [ 7.278791367385299, 50.925871044364911 ] } },
{ "type": "Feature", "properties": { "strassenschluessel": "05378000002406417", "bezeichnung": "Zum Aggerdamm" }, "geometry": { "type": "Point", "coordinates": [ 7.291626482758359, 50.930697787294747 ] } },
{ "type": "Feature", "properties": { "strassenschluessel": "05378000002406418", "bezeichnung": "Zum Eschenthal" }, "geometry": { "type": "Point", "coordinates": [ 7.280133715618887, 50.942709202492317 ] } },
{ "type": "Feature", "properties": { "strassenschluessel": "05378000002406419", "bezeichnung": "Meegen" }, "geometry": { "type": "Point", "coordinates": [ 7.28268012106782, 50.965447757196564 ] } },
{ "type": "Feature", "properties": { "strassenschluessel": "05378000002406421", "bezeichnung": "Landsberger Straße" }, "geometry": { "type": "Point", "coordinates": [ 7.283436201183124, 50.936839781695667 ] } },
{ "type": "Feature", "properties": { "strassenschluessel": "05378000002406422", "bezeichnung": "Küstriner Straße" }, "geometry": { "type": "Point", "coordinates": [ 7.283537384285497, 50.937362753077053 ] } },
{ "type": "Feature", "properties": { "strassenschluessel": "05378000002406423", "bezeichnung": "Soldiner Weg" }, "geometry": { "type": "Point", "coordinates": [ 7.282741929172401, 50.938235378973637 ] } },
{ "type": "Feature", "properties": { "strassenschluessel": "05378000002406424", "bezeichnung": "Danziger Straße" }, "geometry": { "type": "Point", "coordinates": [ 7.284186248360895, 50.938295906461839 ] } },
{ "type": "Feature", "properties": { "strassenschluessel": "05378000002406425", "bezeichnung": "Marienburger Straße" }, "geometry": { "type": "Point", "coordinates": [ 7.284800451971154, 50.938951675330316 ] } },
{ "type": "Feature", "properties": { "strassenschluessel": "05378000002406426", "bezeichnung": "Zoppoter Straße" }, "geometry": { "type": "Point", "coordinates": [ 7.283261998666877, 50.938986576620799 ] } },
{ "type": "Feature", "properties": { "strassenschluessel": "05378000002406427", "bezeichnung": "Am Weidenbach" }, "geometry": { "type": "Point", "coordinates": [ 7.296724076382861, 50.94245162971805 ] } },
{ "type": "Feature", "properties": { "strassenschluessel": "05378000002406428", "bezeichnung": "Balkener Straße" }, "geometry": { "type": "Point", "coordinates": [ 7.30176808312479, 50.944789723639779 ] } },
{ "type": "Feature", "properties": { "strassenschluessel": "05378000002406429", "bezeichnung": "Breslauer Straße" }, "geometry": { "type": "Point", "coordinates": [ 7.288896103061592, 50.938420194874034 ] } },
{ "type": "Feature", "properties": { "strassenschluessel": "05378000002406430", "bezeichnung": "Königsberger Straße" }, "geometry": { "type": "Point", "coordinates": [ 7.283562743162928, 50.940814423500456 ] } },
{ "type": "Feature", "properties": { "strassenschluessel": "05378000002406431", "bezeichnung": "Allensteiner Straße" }, "geometry": { "type": "Point", "coordinates": [ 7.283774397833641, 50.940181933996946 ] } },
{ "type": "Feature", "properties": { "strassenschluessel": "05378000002406432", "bezeichnung": "Tilsiter Straße" }, "geometry": { "type": "Point", "coordinates": [ 7.281935741221186, 50.940529350881768 ] } },
{ "type": "Feature", "properties": { "strassenschluessel": "05378000002406433", "bezeichnung": "Auenbogen" }, "geometry": { "type": "Point", "coordinates": [ 7.29172431840863, 50.931771451043765 ] } },
{ "type": "Feature", "properties": { "strassenschluessel": "05378000002406434", "bezeichnung": "Aggerwiese" }, "geometry": { "type": "Point", "coordinates": [ 7.292028314693381, 50.931090222198037 ] } },
{ "type": "Feature", "properties": { "strassenschluessel": "05378000002406435", "bezeichnung": "Waldenburger Straße" }, "geometry": { "type": "Point", "coordinates": [ 7.287444527447129, 50.939590458516001 ] } },
{ "type": "Feature", "properties": { "strassenschluessel": "05378000002406436", "bezeichnung": "Glatzer Straße" }, "geometry": { "type": "Point", "coordinates": [ 7.287078857822893, 50.939074897570073 ] } },
{ "type": "Feature", "properties": { "strassenschluessel": "05378000002406438", "bezeichnung": "Oppelner Straße" }, "geometry": { "type": "Point", "coordinates": [ 7.286087598418338, 50.940069276768646 ] } },
{ "type": "Feature", "properties": { "strassenschluessel": "05378000002406439", "bezeichnung": "Liegnitzer Straße" }, "geometry": { "type": "Point", "coordinates": [ 7.288021014233236, 50.937592931236914 ] } },
{ "type": "Feature", "properties": { "strassenschluessel": "05378000002406440", "bezeichnung": "Hirschberger Weg" }, "geometry": { "type": "Point", "coordinates": [ 7.287419117289843, 50.938876970697699 ] } },
{ "type": "Feature", "properties": { "strassenschluessel": "05378000002406441", "bezeichnung": "Grünberger Straße" }, "geometry": { "type": "Point", "coordinates": [ 7.288576580505506, 50.938029981655291 ] } },
{ "type": "Feature", "properties": { "strassenschluessel": "05378000002406442", "bezeichnung": "Kösliner Straße" }, "geometry": { "type": "Point", "coordinates": [ 7.289049273622251, 50.936190902556632 ] } },
{ "type": "Feature", "properties": { "strassenschluessel": "05378000002406443", "bezeichnung": "Kolberger Straße" }, "geometry": { "type": "Point", "coordinates": [ 7.290363161214934, 50.936578214776418 ] } },
{ "type": "Feature", "properties": { "strassenschluessel": "05378000002406444", "bezeichnung": "Stettiner Straße" }, "geometry": { "type": "Point", "coordinates": [ 7.285588821218359, 50.935863203987758 ] } },
{ "type": "Feature", "properties": { "strassenschluessel": "05378000002406445", "bezeichnung": "Stargarder Straße" }, "geometry": { "type": "Point", "coordinates": [ 7.286354936829526, 50.936552663635595 ] } },
{ "type": "Feature", "properties": { "strassenschluessel": "05378000002406446", "bezeichnung": "Schneidemühler Straße" }, "geometry": null },
{ "type": "Feature", "properties": { "strassenschluessel": "05378000002406447", "bezeichnung": "Charlotte-Peters-Weg" }, "geometry": null },
{ "type": "Feature", "properties": { "strassenschluessel": "05378000002406448", "bezeichnung": "Ahornweg" }, "geometry": { "type": "Point", "coordinates": [ 7.261369677376187, 50.936718031829571 ] } },
{ "type": "Feature", "properties": { "strassenschluessel": "05378000002406449", "bezeichnung": "Akazienweg" }, "geometry": { "type": "Point", "coordinates": [ 7.254528555021517, 50.935526044706329 ] } },
{ "type": "Feature", "properties": { "strassenschluessel": "05378000002406450", "bezeichnung": "Alte Kölner Straße" }, "geometry": { "type": "Point", "coordinates": [ 7.259131560180323, 50.938025738071374 ] } },
{ "type": "Feature", "properties": { "strassenschluessel": "05378000002406451", "bezeichnung": "Am Friedhof" }, "geometry": { "type": "Point", "coordinates": [ 7.253372466941556, 50.938402515274142 ] } },
{ "type": "Feature", "properties": { "strassenschluessel": "05378000002406452", "bezeichnung": "Am Griemmerich" }, "geometry": { "type": "Point", "coordinates": [ 7.253430562747639, 50.950189733327264 ] } },
{ "type": "Feature", "properties": { "strassenschluessel": "05378000002406453", "bezeichnung": "Am Kneppen" }, "geometry": { "type": "Point", "coordinates": [ 7.256857812863177, 50.941448416087994 ] } },
{ "type": "Feature", "properties": { "strassenschluessel": "05378000002406454", "bezeichnung": "Auf dem Bruch" }, "geometry": { "type": "Point", "coordinates": [ 7.251360257610614, 50.934236393301305 ] } },
{ "type": "Feature", "properties": { "strassenschluessel": "05378000002406455", "bezeichnung": "Auf dem Hagel" }, "geometry": { "type": "Point", "coordinates": [ 7.251933883785552, 50.939940215376502 ] } },
{ "type": "Feature", "properties": { "strassenschluessel": "05378000002406456", "bezeichnung": "Auf den Klinkenbirken" }, "geometry": { "type": "Point", "coordinates": [ 7.249121879374772, 50.93900810407537 ] } },
{ "type": "Feature", "properties": { "strassenschluessel": "05378000002406457", "bezeichnung": "Auf der Linde" }, "geometry": { "type": "Point", "coordinates": [ 7.258000550029479, 50.931704115829241 ] } },
{ "type": "Feature", "properties": { "strassenschluessel": "05378000002406458", "bezeichnung": "Bensberger Straße" }, "geometry": { "type": "Point", "coordinates": [ 7.251082809560429, 50.93872746400038 ] } },
{ "type": "Feature", "properties": { "strassenschluessel": "05378000002406459", "bezeichnung": "Birken" }, "geometry": { "type": "Point", "coordinates": [ 7.260014421635789, 50.942870662360328 ] } },
{ "type": "Feature", "properties": { "strassenschluessel": "05378000002406460", "bezeichnung": "Buchenhain" }, "geometry": { "type": "Point", "coordinates": [ 7.24762201725483, 50.939370233414643 ] } },
{ "type": "Feature", "properties": { "strassenschluessel": "05378000002406461", "bezeichnung": "Durbuscher Straße" }, "geometry": { "type": "Point", "coordinates": [ 7.25586996174605, 50.937579206014398 ] } },
{ "type": "Feature", "properties": { "strassenschluessel": "05378000002406462", "bezeichnung": "Eibenweg" }, "geometry": { "type": "Point", "coordinates": [ 7.254734132198198, 50.935816899643832 ] } },
{ "type": "Feature", "properties": { "strassenschluessel": "05378000002406463", "bezeichnung": "Erlenkamp" }, "geometry": { "type": "Point", "coordinates": [ 7.261864421728276, 50.94425080422215 ] } },
{ "type": "Feature", "properties": { "strassenschluessel": "05378000002406464", "bezeichnung": "Florastraße" }, "geometry": { "type": "Point", "coordinates": [ 7.252234615788811, 50.940812297929028 ] } },
{ "type": "Feature", "properties": { "strassenschluessel": "05378000002406465", "bezeichnung": "Föhrenweg" }, "geometry": { "type": "Point", "coordinates": [ 7.244616076577281, 50.938745187273604 ] } },
{ "type": "Feature", "properties": { "strassenschluessel": "05378000002406466", "bezeichnung": "Gärtnerstraße" }, "geometry": { "type": "Point", "coordinates": [ 7.255469496277732, 50.940381715072803 ] } },
{ "type": "Feature", "properties": { "strassenschluessel": "05378000002406467", "bezeichnung": "Grabenstraße" }, "geometry": { "type": "Point", "coordinates": [ 7.247013357278483, 50.949535691841234 ] } },
{ "type": "Feature", "properties": { "strassenschluessel": "05378000002406468", "bezeichnung": "Großdorbusch" }, "geometry": { "type": "Point", "coordinates": [ 7.251466581552347, 50.928914736629167 ] } },
{ "type": "Feature", "properties": { "strassenschluessel": "05378000002406469", "bezeichnung": "Großschwamborn" }, "geometry": { "type": "Point", "coordinates": [ 7.257892786737155, 50.93646160076311 ] } },
{ "type": "Feature", "properties": { "strassenschluessel": "05378000002406470", "bezeichnung": "Grüner Weg" }, "geometry": { "type": "Point", "coordinates": [ 7.252561566312862, 50.940794465457259 ] } },
{ "type": "Feature", "properties": { "strassenschluessel": "05378000002406471", "bezeichnung": "Heckenweg" }, "geometry": { "type": "Point", "coordinates": [ 7.249263991184091, 50.948572519571492 ] } },
{ "type": "Feature", "properties": { "strassenschluessel": "05378000002406472", "bezeichnung": "Heidermühle" }, "geometry": { "type": "Point", "coordinates": [ 7.24886792165789, 50.949546433479497 ] } },
{ "type": "Feature", "properties": { "strassenschluessel": "05378000002406473", "bezeichnung": "Heideweg" }, "geometry": { "type": "Point", "coordinates": [ 7.250003934793684, 50.943196736614617 ] } },
{ "type": "Feature", "properties": { "strassenschluessel": "05378000002406474", "bezeichnung": "Hohkeppeler Straße" }, "geometry": { "type": "Point", "coordinates": [ 7.260424352755279, 50.942902204308254 ] } },
{ "type": "Feature", "properties": { "strassenschluessel": "05378000002406475", "bezeichnung": "Im Neuenhausen" }, "geometry": { "type": "Point", "coordinates": [ 7.243301211393984, 50.942202146691372 ] } },
{ "type": "Feature", "properties": { "strassenschluessel": "05378000002406476", "bezeichnung": "Forellenweg" }, "geometry": { "type": "Point", "coordinates": [ 7.244039266403222, 50.949967438524673 ] } },
{ "type": "Feature", "properties": { "strassenschluessel": "05378000002406477", "bezeichnung": "Klefberg" }, "geometry": { "type": "Point", "coordinates": [ 7.245361017747245, 50.937650981235294 ] } },
{ "type": "Feature", "properties": { "strassenschluessel": "05378000002406478", "bezeichnung": "Kleinschwamborn" }, "geometry": { "type": "Point", "coordinates": [ 7.25199130464784, 50.9349793050743 ] } },
{ "type": "Feature", "properties": { "strassenschluessel": "05378000002406479", "bezeichnung": "Linder Weg" }, "geometry": { "type": "Point", "coordinates": [ 7.262943088722591, 50.934614565447433 ] } },
{ "type": "Feature", "properties": { "strassenschluessel": "05378000002406480", "bezeichnung": "Mittelbech" }, "geometry": { "type": "Point", "coordinates": [ 7.247981707276876, 50.948710005003598 ] } },
{ "type": "Feature", "properties": { "strassenschluessel": "05378000002406481", "bezeichnung": "Neuenhauser Straße" }, "geometry": { "type": "Point", "coordinates": [ 7.24685927523927, 50.940047924050305 ] } },
{ "type": "Feature", "properties": { "strassenschluessel": "05378000002406482", "bezeichnung": "Platanenweg" }, "geometry": { "type": "Point", "coordinates": [ 7.246806124488079, 50.938393930563912 ] } },
{ "type": "Feature", "properties": { "strassenschluessel": "05378000002406483", "bezeichnung": "Rotdornweg" }, "geometry": { "type": "Point", "coordinates": [ 7.246410877457872, 50.940021970982023 ] } },
{ "type": "Feature", "properties": { "strassenschluessel": "05378000002406484", "bezeichnung": "Sanddornweg" }, "geometry": { "type": "Point", "coordinates": [ 7.247758666553326, 50.939850610347236 ] } },
{ "type": "Feature", "properties": { "strassenschluessel": "05378000002406485", "bezeichnung": "Siebenbürgenstraße" }, "geometry": { "type": "Point", "coordinates": [ 7.252360846327787, 50.949327678283439 ] } },
{ "type": "Feature", "properties": { "strassenschluessel": "05378000002406486", "bezeichnung": "St. Rochusplatz" }, "geometry": { "type": "Point", "coordinates": [ 7.25597475717597, 50.939356186396545 ] } },
{ "type": "Feature", "properties": { "strassenschluessel": "05378000002406487", "bezeichnung": "Ulmenweg" }, "geometry": { "type": "Point", "coordinates": [ 7.244869076286657, 50.940189635202024 ] } },
{ "type": "Feature", "properties": { "strassenschluessel": "05378000002406488", "bezeichnung": "Unterbech" }, "geometry": { "type": "Point", "coordinates": [ 7.244891705300303, 50.947965948363404 ] } },
{ "type": "Feature", "properties": { "strassenschluessel": "05378000002406489", "bezeichnung": "Wiedenhof" }, "geometry": { "type": "Point", "coordinates": [ 7.264685148750456, 50.942821958221025 ] } },
{ "type": "Feature", "properties": { "strassenschluessel": "05378000002406490", "bezeichnung": "Birkenhang" }, "geometry": { "type": "Point", "coordinates": [ 7.256022538050844, 50.941921264497601 ] } },
{ "type": "Feature", "properties": { "strassenschluessel": "05378000002406491", "bezeichnung": "Schmidtengarten" }, "geometry": { "type": "Point", "coordinates": [ 7.257358240420763, 50.942857064956918 ] } },
{ "type": "Feature", "properties": { "strassenschluessel": "05378000002406492", "bezeichnung": "Obstgarten" }, "geometry": { "type": "Point", "coordinates": [ 7.256001505547414, 50.942460853770079 ] } },
{ "type": "Feature", "properties": { "strassenschluessel": "05378000002406493", "bezeichnung": "Ferrenbruch" }, "geometry": { "type": "Point", "coordinates": [ 7.278561529674961, 50.940511899522228 ] } },
{ "type": "Feature", "properties": { "strassenschluessel": "05378000002406494", "bezeichnung": "Im Hochsiefen" }, "geometry": null },
{ "type": "Feature", "properties": { "strassenschluessel": "05378000002406495", "bezeichnung": "Am Aggerpark" }, "geometry": null },
{ "type": "Feature", "properties": { "strassenschluessel": "05378000002406510", "bezeichnung": "Abelsnaaf" }, "geometry": { "type": "Point", "coordinates": [ 7.387150950038104, 50.940179548229189 ] } },
{ "type": "Feature", "properties": { "strassenschluessel": "05378000002406511", "bezeichnung": "Alte Römerstraße" }, "geometry": { "type": "Point", "coordinates": [ 7.317532069724499, 50.932294520335525 ] } },
{ "type": "Feature", "properties": { "strassenschluessel": "05378000002406512", "bezeichnung": "Am Linderhof" }, "geometry": { "type": "Point", "coordinates": [ 7.324830595937043, 50.933570835155138 ] } },
{ "type": "Feature", "properties": { "strassenschluessel": "05378000002406514", "bezeichnung": "Am Wasserturm" }, "geometry": { "type": "Point", "coordinates": [ 7.323887142968395, 50.93261066769562 ] } },
{ "type": "Feature", "properties": { "strassenschluessel": "05378000002406515", "bezeichnung": "An den Sieben Linden" }, "geometry": { "type": "Point", "coordinates": [ 7.323307196759182, 50.932280223738331 ] } },
{ "type": "Feature", "properties": { "strassenschluessel": "05378000002406516", "bezeichnung": "An der Alten Schmiede" }, "geometry": { "type": "Point", "coordinates": [ 7.323354293072936, 50.932532202506493 ] } },
{ "type": "Feature", "properties": { "strassenschluessel": "05378000002406517", "bezeichnung": "An der Sonne" }, "geometry": { "type": "Point", "coordinates": [ 7.31494182731573, 50.923106792961029 ] } },
{ "type": "Feature", "properties": { "strassenschluessel": "05378000002406518", "bezeichnung": "Auf dem Heidgen" }, "geometry": { "type": "Point", "coordinates": [ 7.350759725348875, 50.940419446274028 ] } },
{ "type": "Feature", "properties": { "strassenschluessel": "05378000002406519", "bezeichnung": "Auf'm Steinacker" }, "geometry": { "type": "Point", "coordinates": [ 7.330815857857164, 50.933581898457071 ] } },
{ "type": "Feature", "properties": { "strassenschluessel": "05378000002406520", "bezeichnung": "Bernsauer Jagdweg" }, "geometry": { "type": "Point", "coordinates": [ 7.322062180072823, 50.93497130828878 ] } },
{ "type": "Feature", "properties": { "strassenschluessel": "05378000002406521", "bezeichnung": "Birkenhof" }, "geometry": { "type": "Point", "coordinates": [ 7.338070008363407, 50.925320236550753 ] } },
{ "type": "Feature", "properties": { "strassenschluessel": "05378000002406522", "bezeichnung": "Bixnaaf" }, "geometry": { "type": "Point", "coordinates": [ 7.366154960457435, 50.937474152823363 ] } },
{ "type": "Feature", "properties": { "strassenschluessel": "05378000002406523", "bezeichnung": "Bixnaafermühle" }, "geometry": { "type": "Point", "coordinates": [ 7.369249885483957, 50.936039096180821 ] } },
{ "type": "Feature", "properties": { "strassenschluessel": "05378000002406524", "bezeichnung": "Blindenaaf" }, "geometry": { "type": "Point", "coordinates": [ 7.316548430672038, 50.920184709830899 ] } },
{ "type": "Feature", "properties": { "strassenschluessel": "05378000002406525", "bezeichnung": "Blindenaafermühle" }, "geometry": { "type": "Point", "coordinates": [ 7.326869788376844, 50.919952766115706 ] } },
{ "type": "Feature", "properties": { "strassenschluessel": "05378000002406526", "bezeichnung": "Breidenassel" }, "geometry": { "type": "Point", "coordinates": [ 7.32546088768008, 50.945076575607025 ] } },
{ "type": "Feature", "properties": { "strassenschluessel": "05378000002406527", "bezeichnung": "Breitenstein" }, "geometry": { "type": "Point", "coordinates": [ 7.356270768224465, 50.924306457108798 ] } },
{ "type": "Feature", "properties": { "strassenschluessel": "05378000002406528", "bezeichnung": "Büchel" }, "geometry": { "type": "Point", "coordinates": [ 7.315100999456726, 50.917445728022351 ] } },
{ "type": "Feature", "properties": { "strassenschluessel": "05378000002406529", "bezeichnung": "Büscherhöfchen" }, "geometry": { "type": "Point", "coordinates": [ 7.311196774785496, 50.932305645540382 ] } },
{ "type": "Feature", "properties": { "strassenschluessel": "05378000002406530", "bezeichnung": "Dahler Straße" }, "geometry": { "type": "Point", "coordinates": [ 7.343092540609001, 50.94087471149102 ] } },
{ "type": "Feature", "properties": { "strassenschluessel": "05378000002406531", "bezeichnung": "Fahn" }, "geometry": { "type": "Point", "coordinates": [ 7.345150536761644, 50.936459630221997 ] } },
{ "type": "Feature", "properties": { "strassenschluessel": "05378000002406532", "bezeichnung": "Falkemich" }, "geometry": { "type": "Point", "coordinates": [ 7.336531516196461, 50.918241881030944 ] } },
{ "type": "Feature", "properties": { "strassenschluessel": "05378000002406533", "bezeichnung": "Federath" }, "geometry": { "type": "Point", "coordinates": [ 7.374625912931974, 50.943503760391394 ] } },
{ "type": "Feature", "properties": { "strassenschluessel": "05378000002406534", "bezeichnung": "Fischermühle" }, "geometry": { "type": "Point", "coordinates": [ 7.351210992610591, 50.915356691426553 ] } },
{ "type": "Feature", "properties": { "strassenschluessel": "05378000002406535", "bezeichnung": "Florianstraße" }, "geometry": { "type": "Point", "coordinates": [ 7.345526188172165, 50.941391824385917 ] } },
{ "type": "Feature", "properties": { "strassenschluessel": "05378000002406536", "bezeichnung": "Großoderscheid" }, "geometry": { "type": "Point", "coordinates": [ 7.338033989575014, 50.93377340552977 ] } },
{ "type": "Feature", "properties": { "strassenschluessel": "05378000002406537", "bezeichnung": "Grube Nikolaus" }, "geometry": { "type": "Point", "coordinates": [ 7.34903872965729, 50.915132811207307 ] } },
{ "type": "Feature", "properties": { "strassenschluessel": "05378000002406538", "bezeichnung": "Hagen" }, "geometry": { "type": "Point", "coordinates": [ 7.357496410219739, 50.942117620002996 ] } },
{ "type": "Feature", "properties": { "strassenschluessel": "05378000002406539", "bezeichnung": "Hardt" }, "geometry": { "type": "Point", "coordinates": [ 7.332321880357578, 50.924012383916867 ] } },
{ "type": "Feature", "properties": { "strassenschluessel": "05378000002406540", "bezeichnung": "Pilgerstraße" }, "geometry": { "type": "Point", "coordinates": [ 7.32573449292469, 50.933186815066414 ] } },
{ "type": "Feature", "properties": { "strassenschluessel": "05378000002406541", "bezeichnung": "Hentgesnaaf" }, "geometry": { "type": "Point", "coordinates": [ 7.363725301337351, 50.93826398950403 ] } },
{ "type": "Feature", "properties": { "strassenschluessel": "05378000002406542", "bezeichnung": "Höhe" }, "geometry": { "type": "Point", "coordinates": [ 7.321114039375462, 50.935540665233667 ] } },
{ "type": "Feature", "properties": { "strassenschluessel": "05378000002406543", "bezeichnung": "Holunderweg" }, "geometry": { "type": "Point", "coordinates": [ 7.344309975174466, 50.937947195043847 ] } },
{ "type": "Feature", "properties": { "strassenschluessel": "05378000002406544", "bezeichnung": "Kaldauer Höhe" }, "geometry": { "type": "Point", "coordinates": [ 7.374222641823626, 50.945848921041332 ] } },
{ "type": "Feature", "properties": { "strassenschluessel": "05378000002406545", "bezeichnung": "Kaltenborn" }, "geometry": { "type": "Point", "coordinates": [ 7.364649774097207, 50.945441244805536 ] } },
{ "type": "Feature", "properties": { "strassenschluessel": "05378000002406546", "bezeichnung": "Kirschbaum" }, "geometry": { "type": "Point", "coordinates": [ 7.315872582624181, 50.926022928698359 ] } },
{ "type": "Feature", "properties": { "strassenschluessel": "05378000002406547", "bezeichnung": "Kleinoderscheid" }, "geometry": { "type": "Point", "coordinates": [ 7.342736780755278, 50.947045599638734 ] } },
{ "type": "Feature", "properties": { "strassenschluessel": "05378000002406548", "bezeichnung": "Krahwinkel" }, "geometry": { "type": "Point", "coordinates": [ 7.350337427844045, 50.945780299672805 ] } },
{ "type": "Feature", "properties": { "strassenschluessel": "05378000002406549", "bezeichnung": "Krampenhöhe" }, "geometry": { "type": "Point", "coordinates": [ 7.350102306192404, 50.934180222649601 ] } },
{ "type": "Feature", "properties": { "strassenschluessel": "05378000002406550", "bezeichnung": "Landwehr" }, "geometry": { "type": "Point", "coordinates": [ 7.351804203934656, 50.939084607485263 ] } },
{ "type": "Feature", "properties": { "strassenschluessel": "05378000002406551", "bezeichnung": "Lorkenhöhe" }, "geometry": { "type": "Point", "coordinates": [ 7.355662854625154, 50.938407424153837 ] } },
{ "type": "Feature", "properties": { "strassenschluessel": "05378000002406552", "bezeichnung": "Marien-Kirchplatz" }, "geometry": { "type": "Point", "coordinates": [ 7.323058464667272, 50.933235841592804 ] } },
{ "type": "Feature", "properties": { "strassenschluessel": "05378000002406553", "bezeichnung": "Meegener Straße" }, "geometry": { "type": "Point", "coordinates": [ 7.32435465772464, 50.926869429419 ] } },
{ "type": "Feature", "properties": { "strassenschluessel": "05378000002406554", "bezeichnung": "Niedergrützenbach" }, "geometry": { "type": "Point", "coordinates": [ 7.347226229114349, 50.92348940677352 ] } },
{ "type": "Feature", "properties": { "strassenschluessel": "05378000002406555", "bezeichnung": "Obergrützenbach" }, "geometry": { "type": "Point", "coordinates": [ 7.349949977897973, 50.930002736418587 ] } },
{ "type": "Feature", "properties": { "strassenschluessel": "05378000002406556", "bezeichnung": "Oderscheiderberg" }, "geometry": { "type": "Point", "coordinates": [ 7.343132046680804, 50.928376086234387 ] } },
{ "type": "Feature", "properties": { "strassenschluessel": "05378000002406557", "bezeichnung": "Oderscheiderfeld" }, "geometry": { "type": "Point", "coordinates": [ 7.332336864433891, 50.93776897283243 ] } },
{ "type": "Feature", "properties": { "strassenschluessel": "05378000002406558", "bezeichnung": "Schalken" }, "geometry": { "type": "Point", "coordinates": [ 7.391157052619945, 50.95364679410357 ] } },
{ "type": "Feature", "properties": { "strassenschluessel": "05378000002406558", "bezeichnung": "Schalken" }, "geometry": { "type": "Point", "coordinates": [ 7.391157052619945, 50.95364679410357 ] } },
{ "type": "Feature", "properties": { "strassenschluessel": "05378000002406559", "bezeichnung": "Schlingenthal" }, "geometry": { "type": "Point", "coordinates": [ 7.365946925669038, 50.951147013057138 ] } },
{ "type": "Feature", "properties": { "strassenschluessel": "05378000002406560", "bezeichnung": "Schöne Aussicht" }, "geometry": { "type": "Point", "coordinates": [ 7.310067200537972, 50.934280062242742 ] } },
{ "type": "Feature", "properties": { "strassenschluessel": "05378000002406561", "bezeichnung": "Schommelsnaaf" }, "geometry": { "type": "Point", "coordinates": [ 7.376124395345609, 50.935802700285535 ] } },
{ "type": "Feature", "properties": { "strassenschluessel": "05378000002406562", "bezeichnung": "Schwellenbachermühle" }, "geometry": { "type": "Point", "coordinates": [ 7.334928130183764, 50.912065103275303 ] } },
{ "type": "Feature", "properties": { "strassenschluessel": "05378000002406563", "bezeichnung": "Siebelsnaaf" }, "geometry": { "type": "Point", "coordinates": [ 7.392275310017656, 50.941969475044182 ] } },
{ "type": "Feature", "properties": { "strassenschluessel": "05378000002406564", "bezeichnung": "Siefen" }, "geometry": { "type": "Point", "coordinates": [ 7.335416949850205, 50.941588461824651 ] } },
{ "type": "Feature", "properties": { "strassenschluessel": "05378000002406565", "bezeichnung": "Tixhoven" }, "geometry": { "type": "Point", "coordinates": [ 7.338343271439187, 50.946527022689153 ] } },
{ "type": "Feature", "properties": { "strassenschluessel": "05378000002406566", "bezeichnung": "Trötenberg" }, "geometry": { "type": "Point", "coordinates": [ 7.34280796963391, 50.929864900075657 ] } },
{ "type": "Feature", "properties": { "strassenschluessel": "05378000002406567", "bezeichnung": "Vilkerather Straße" }, "geometry": { "type": "Point", "coordinates": [ 7.3417453204011, 50.9421632649142 ] } },
{ "type": "Feature", "properties": { "strassenschluessel": "05378000002406568", "bezeichnung": "Vilshoven" }, "geometry": { "type": "Point", "coordinates": [ 7.319939930982912, 50.923432121094471 ] } },
{ "type": "Feature", "properties": { "strassenschluessel": "05378000002406569", "bezeichnung": "Weißenstein" }, "geometry": { "type": "Point", "coordinates": [ 7.311374301735412, 50.935016324911558 ] } },
{ "type": "Feature", "properties": { "strassenschluessel": "05378000002406570", "bezeichnung": "Wüststeimel" }, "geometry": { "type": "Point", "coordinates": [ 7.365928629913056, 50.948641179605374 ] } },
{ "type": "Feature", "properties": { "strassenschluessel": "05378000002406571", "bezeichnung": "Gertrudenweg" }, "geometry": { "type": "Point", "coordinates": [ 7.324584319710607, 50.930463384548794 ] } },
{ "type": "Feature", "properties": { "strassenschluessel": "05378000002406572", "bezeichnung": "Annenweg" }, "geometry": { "type": "Point", "coordinates": [ 7.324698296189798, 50.930773124878343 ] } },
{ "type": "Feature", "properties": { "strassenschluessel": "05378000002406573", "bezeichnung": "Plonchenweg" }, "geometry": { "type": "Point", "coordinates": [ 7.324387164977214, 50.931026356459206 ] } },
{ "type": "Feature", "properties": { "strassenschluessel": "05378000002406574", "bezeichnung": "Schneppensiefen" }, "geometry": { "type": "Point", "coordinates": [ 7.323701137448328, 50.93041932869221 ] } },
{ "type": "Feature", "properties": { "strassenschluessel": "05378000002406575", "bezeichnung": "Stiefelhagenstraße" }, "geometry": { "type": "Point", "coordinates": [ 7.320743190625729, 50.930985132732339 ] } },
{ "type": "Feature", "properties": { "strassenschluessel": "05378000002406576", "bezeichnung": "Herchenbachstraße" }, "geometry": { "type": "Point", "coordinates": [ 7.321961676171642, 50.932234244507534 ] } },
{ "type": "Feature", "properties": { "strassenschluessel": "05378000002406577", "bezeichnung": "Franziskanerstraße" }, "geometry": { "type": "Point", "coordinates": [ 7.326662515278482, 50.931516035721579 ] } },
{ "type": "Feature", "properties": { "strassenschluessel": "05378000002406578", "bezeichnung": "Von-Nesselrode-Weg" }, "geometry": { "type": "Point", "coordinates": [ 7.327464029161412, 50.93192910299971 ] } },
{ "type": "Feature", "properties": { "strassenschluessel": "05378000002406579", "bezeichnung": "Auf dem Plägen" }, "geometry": { "type": "Point", "coordinates": [ 7.326719645488569, 50.929068097477291 ] } },
{ "type": "Feature", "properties": { "strassenschluessel": "05378000002406580", "bezeichnung": "Vinzenz-Grewe-Straße" }, "geometry": { "type": "Point", "coordinates": [ 7.333623672436793, 50.933737474776024 ] } },
{ "type": "Feature", "properties": { "strassenschluessel": "05378000002406581", "bezeichnung": "Lombachstraße" }, "geometry": { "type": "Point", "coordinates": [ 7.329170714208029, 50.934620196842488 ] } },
{ "type": "Feature", "properties": { "strassenschluessel": "05378000002406582", "bezeichnung": "Schöne Feder" }, "geometry": { "type": "Point", "coordinates": [ 7.318404021575658, 50.931528632385493 ] } },
{ "type": "Feature", "properties": { "strassenschluessel": "05378000002406583", "bezeichnung": "Büscherfeld" }, "geometry": { "type": "Point", "coordinates": [ 7.318974298560868, 50.93132952935089 ] } },
{ "type": "Feature", "properties": { "strassenschluessel": "05378000002406584", "bezeichnung": "Am Wäldchen" }, "geometry": { "type": "Point", "coordinates": [ 7.332426828594158, 50.933905505653343 ] } },
{ "type": "Feature", "properties": { "strassenschluessel": "05378000002406585", "bezeichnung": "Lindenhöhe" }, "geometry": { "type": "Point", "coordinates": [ 7.332518595444594, 50.934721248050913 ] } },
{ "type": "Feature", "properties": { "strassenschluessel": "05378000002406588", "bezeichnung": "Altbusch" }, "geometry": { "type": "Point", "coordinates": [ 7.239950221324705, 50.955669761148258 ] } },
{ "type": "Feature", "properties": { "strassenschluessel": "05378000002406589", "bezeichnung": "Am Fischweiher" }, "geometry": { "type": "Point", "coordinates": [ 7.234310097497604, 50.933927505758533 ] } },
{ "type": "Feature", "properties": { "strassenschluessel": "05378000002406590", "bezeichnung": "Am Hauptschacht" }, "geometry": { "type": "Point", "coordinates": [ 7.218851587083894, 50.938358405076052 ] } },
{ "type": "Feature", "properties": { "strassenschluessel": "05378000002406591", "bezeichnung": "Am Kreuzberg" }, "geometry": { "type": "Point", "coordinates": [ 7.225437923502187, 50.941957722864053 ] } },
{ "type": "Feature", "properties": { "strassenschluessel": "05378000002406592", "bezeichnung": "Am Meisenberg" }, "geometry": { "type": "Point", "coordinates": [ 7.228710447734509, 50.952423845857929 ] } },
{ "type": "Feature", "properties": { "strassenschluessel": "05378000002406593", "bezeichnung": "Am Mühlenfeld" }, "geometry": { "type": "Point", "coordinates": [ 7.239830401499644, 50.952904233869447 ] } },
{ "type": "Feature", "properties": { "strassenschluessel": "05378000002406594", "bezeichnung": "Auf dem Lohknippen" }, "geometry": { "type": "Point", "coordinates": [ 7.23118770091339, 50.949874432415356 ] } },
{ "type": "Feature", "properties": { "strassenschluessel": "05378000002406595", "bezeichnung": "Auguststollen" }, "geometry": { "type": "Point", "coordinates": [ 7.221909068377416, 50.935711111402071 ] } },
{ "type": "Feature", "properties": { "strassenschluessel": "05378000002406596", "bezeichnung": "Barbarastraße" }, "geometry": { "type": "Point", "coordinates": [ 7.226009338892236, 50.937583849165826 ] } },
{ "type": "Feature", "properties": { "strassenschluessel": "05378000002406597", "bezeichnung": "Südhang" }, "geometry": { "type": "Point", "coordinates": [ 7.23579753671896, 50.937708392266124 ] } },
{ "type": "Feature", "properties": { "strassenschluessel": "05378000002406598", "bezeichnung": "Bergwerkstraße" }, "geometry": { "type": "Point", "coordinates": [ 7.21894041211651, 50.936325559135582 ] } },
{ "type": "Feature", "properties": { "strassenschluessel": "05378000002406599", "bezeichnung": "Bertesweg" }, "geometry": { "type": "Point", "coordinates": [ 7.230790692710904, 50.934470770502863 ] } },
{ "type": "Feature", "properties": { "strassenschluessel": "05378000002406600", "bezeichnung": "Birkenweg" }, "geometry": { "type": "Point", "coordinates": [ 7.226609822541723, 50.936100503861724 ] } },
{ "type": "Feature", "properties": { "strassenschluessel": "05378000002406601", "bezeichnung": "Blumenweg" }, "geometry": { "type": "Point", "coordinates": [ 7.235905442497518, 50.940065906923117 ] } },
{ "type": "Feature", "properties": { "strassenschluessel": "05378000002406602", "bezeichnung": "Bücheler Straße" }, "geometry": { "type": "Point", "coordinates": [ 7.222626449398757, 50.93881109922981 ] } },
{ "type": "Feature", "properties": { "strassenschluessel": "05378000002406603", "bezeichnung": "Burgstraße" }, "geometry": { "type": "Point", "coordinates": [ 7.225417380337561, 50.949301567996258 ] } },
{ "type": "Feature", "properties": { "strassenschluessel": "05378000002406604", "bezeichnung": "Busch" }, "geometry": { "type": "Point", "coordinates": [ 7.244093352893969, 50.955509731638323 ] } },
{ "type": "Feature", "properties": { "strassenschluessel": "05378000002406605", "bezeichnung": "Dresbacher Straße" }, "geometry": { "type": "Point", "coordinates": [ 7.237055892813103, 50.934520184870443 ] } },
{ "type": "Feature", "properties": { "strassenschluessel": "05378000002406606", "bezeichnung": "Drosselweg" }, "geometry": { "type": "Point", "coordinates": [ 7.227729666706792, 50.952784853597429 ] } },
{ "type": "Feature", "properties": { "strassenschluessel": "05378000002406607", "bezeichnung": "Im Höhngesgarten" }, "geometry": { "type": "Point", "coordinates": [ 7.249782772615941, 50.951979070832223 ] } },
{ "type": "Feature", "properties": { "strassenschluessel": "05378000002406608", "bezeichnung": "Forstweg" }, "geometry": { "type": "Point", "coordinates": [ 7.235671810063901, 50.943917416154669 ] } },
{ "type": "Feature", "properties": { "strassenschluessel": "05378000002406609", "bezeichnung": "Im Reutersberg" }, "geometry": { "type": "Point", "coordinates": [ 7.233010411502937, 50.941556008227565 ] } },
{ "type": "Feature", "properties": { "strassenschluessel": "05378000002406610", "bezeichnung": "Frielinghausener Straße" }, "geometry": { "type": "Point", "coordinates": [ 7.240480144295841, 50.940543531884224 ] } },
{ "type": "Feature", "properties": { "strassenschluessel": "05378000002406611", "bezeichnung": "Auf der Steinbreche" }, "geometry": { "type": "Point", "coordinates": [ 7.22791916688428, 50.947453438261682 ] } },
{ "type": "Feature", "properties": { "strassenschluessel": "05378000002406612", "bezeichnung": "Ginsterweg" }, "geometry": { "type": "Point", "coordinates": [ 7.225778131687531, 50.935984883051262 ] } },
{ "type": "Feature", "properties": { "strassenschluessel": "05378000002406613", "bezeichnung": "Großdresbach" }, "geometry": { "type": "Point", "coordinates": [ 7.237573266769713, 50.933273586682937 ] } },
{ "type": "Feature", "properties": { "strassenschluessel": "05378000002406614", "bezeichnung": "Großhurdener Berg" }, "geometry": { "type": "Point", "coordinates": [ 7.247086620738108, 50.952058129948995 ] } },
{ "type": "Feature", "properties": { "strassenschluessel": "05378000002406615", "bezeichnung": "Großlödericher Straße" }, "geometry": { "type": "Point", "coordinates": [ 7.229652858141205, 50.935191427789107 ] } },
{ "type": "Feature", "properties": { "strassenschluessel": "05378000002406617", "bezeichnung": "Heidbergstraße" }, "geometry": { "type": "Point", "coordinates": [ 7.226694065785682, 50.934518363899301 ] } },
{ "type": "Feature", "properties": { "strassenschluessel": "05378000002406618", "bezeichnung": "Hirtenweg" }, "geometry": { "type": "Point", "coordinates": [ 7.234119448174716, 50.934087736855375 ] } },
{ "type": "Feature", "properties": { "strassenschluessel": "05378000002406619", "bezeichnung": "Höhenstraße" }, "geometry": { "type": "Point", "coordinates": [ 7.236505633807348, 50.939146003060486 ] } },
{ "type": "Feature", "properties": { "strassenschluessel": "05378000002406620", "bezeichnung": "Holzbachtalstraße" }, "geometry": { "type": "Point", "coordinates": [ 7.237568168603417, 50.945949863212924 ] } },
{ "type": "Feature", "properties": { "strassenschluessel": "05378000002406621", "bezeichnung": "Hufenstuhl" }, "geometry": { "type": "Point", "coordinates": [ 7.276784958716824, 50.961966337683371 ] } },
{ "type": "Feature", "properties": { "strassenschluessel": "05378000002406622", "bezeichnung": "Im Brückfeld" }, "geometry": { "type": "Point", "coordinates": [ 7.224247895818461, 50.933706249182684 ] } },
{ "type": "Feature", "properties": { "strassenschluessel": "05378000002406623", "bezeichnung": "Immekeppelerteich" }, "geometry": { "type": "Point", "coordinates": [ 7.244370149451409, 50.958518231695848 ] } },
{ "type": "Feature", "properties": { "strassenschluessel": "05378000002406624", "bezeichnung": "Josef-Wester-Straße" }, "geometry": { "type": "Point", "coordinates": [ 7.226060423978303, 50.94755427743813 ] } },
{ "type": "Feature", "properties": { "strassenschluessel": "05378000002406625", "bezeichnung": "Katzemicher Straße" }, "geometry": { "type": "Point", "coordinates": [ 7.225578487015206, 50.936446964782576 ] } },
{ "type": "Feature", "properties": { "strassenschluessel": "05378000002406626", "bezeichnung": "Zur Friedenskirche" }, "geometry": { "type": "Point", "coordinates": [ 7.229387156814561, 50.946014658360802 ] } },
{ "type": "Feature", "properties": { "strassenschluessel": "05378000002406627", "bezeichnung": "Kleinhurden" }, "geometry": { "type": "Point", "coordinates": [ 7.238012675892501, 50.950467032062484 ] } },
{ "type": "Feature", "properties": { "strassenschluessel": "05378000002406628", "bezeichnung": "Lauscherstraße" }, "geometry": { "type": "Point", "coordinates": [ 7.225812063432549, 50.941197785471722 ] } },
{ "type": "Feature", "properties": { "strassenschluessel": "05378000002406629", "bezeichnung": "Kirchweg" }, "geometry": { "type": "Point", "coordinates": [ 7.231525736357203, 50.948282584437585 ] } },
{ "type": "Feature", "properties": { "strassenschluessel": "05378000002406630", "bezeichnung": "Müllenholz" }, "geometry": { "type": "Point", "coordinates": [ 7.233138882653055, 50.95045380806345 ] } },
{ "type": "Feature", "properties": { "strassenschluessel": "05378000002406631", "bezeichnung": "Nachtigallenweg" }, "geometry": { "type": "Point", "coordinates": [ 7.232888385663191, 50.93336990232357 ] } },
{ "type": "Feature", "properties": { "strassenschluessel": "05378000002406632", "bezeichnung": "Nallinger Straße" }, "geometry": { "type": "Point", "coordinates": [ 7.228084039197212, 50.951082769923602 ] } },
{ "type": "Feature", "properties": { "strassenschluessel": "05378000002406633", "bezeichnung": "Neichener Straße" }, "geometry": { "type": "Point", "coordinates": [ 7.226446260216564, 50.947032222529387 ] } },
{ "type": "Feature", "properties": { "strassenschluessel": "05378000002406634", "bezeichnung": "Neichener Hofweg" }, "geometry": { "type": "Point", "coordinates": [ 7.227488581294602, 50.946669102327348 ] } },
{ "type": "Feature", "properties": { "strassenschluessel": "05378000002406635", "bezeichnung": "Neuhurden" }, "geometry": { "type": "Point", "coordinates": [ 7.244264678421193, 50.954730328506521 ] } },
{ "type": "Feature", "properties": { "strassenschluessel": "05378000002406636", "bezeichnung": "Obergründemich" }, "geometry": { "type": "Point", "coordinates": [ 7.266399444394344, 50.958620304849184 ] } },
{ "type": "Feature", "properties": { "strassenschluessel": "05378000002406637", "bezeichnung": "Ringstraße" }, "geometry": { "type": "Point", "coordinates": [ 7.224341149095141, 50.948248321844055 ] } },
{ "type": "Feature", "properties": { "strassenschluessel": "05378000002406638", "bezeichnung": "Römerstraße" }, "geometry": { "type": "Point", "coordinates": [ 7.226258920438645, 50.940407015804645 ] } },
{ "type": "Feature", "properties": { "strassenschluessel": "05378000002406639", "bezeichnung": "Schmitzlödericher Straße" }, "geometry": { "type": "Point", "coordinates": [ 7.22342128073049, 50.938472100459791 ] } },
{ "type": "Feature", "properties": { "strassenschluessel": "05378000002406640", "bezeichnung": "Sonnenweg" }, "geometry": { "type": "Point", "coordinates": [ 7.227596713829418, 50.935435700389569 ] } },
{ "type": "Feature", "properties": { "strassenschluessel": "05378000002406641", "bezeichnung": "Zum Holzplatz" }, "geometry": { "type": "Point", "coordinates": [ 7.21474983325964, 50.944645759085283 ] } },
{ "type": "Feature", "properties": { "strassenschluessel": "05378000002406642", "bezeichnung": "Talstraße" }, "geometry": { "type": "Point", "coordinates": [ 7.23488033890488, 50.934402413670298 ] } },
{ "type": "Feature", "properties": { "strassenschluessel": "05378000002406643", "bezeichnung": "Untergründemich" }, "geometry": { "type": "Point", "coordinates": [ 7.260854561784688, 50.95683149342571 ] } },
{ "type": "Feature", "properties": { "strassenschluessel": "05378000002406644", "bezeichnung": "Untersteeg" }, "geometry": { "type": "Point", "coordinates": [ 7.225954666834303, 50.952620019322858 ] } },
{ "type": "Feature", "properties": { "strassenschluessel": "05378000002406645", "bezeichnung": "Waldweg" }, "geometry": { "type": "Point", "coordinates": [ 7.238962955908981, 50.938641193619048 ] } },
{ "type": "Feature", "properties": { "strassenschluessel": "05378000002406646", "bezeichnung": "Zöllnerstraße" }, "geometry": { "type": "Point", "coordinates": [ 7.227959606803028, 50.950428352009169 ] } },
{ "type": "Feature", "properties": { "strassenschluessel": "05378000002406647", "bezeichnung": "Zum Bitzenberg" }, "geometry": { "type": "Point", "coordinates": [ 7.233600100784233, 50.933331820523023 ] } },
{ "type": "Feature", "properties": { "strassenschluessel": "05378000002406648", "bezeichnung": "Zur Freiheit" }, "geometry": { "type": "Point", "coordinates": [ 7.22721890629032, 50.95438270169673 ] } },
{ "type": "Feature", "properties": { "strassenschluessel": "05378000002406649", "bezeichnung": "Falkenweg" }, "geometry": { "type": "Point", "coordinates": [ 7.23231724873659, 50.933043705055809 ] } },
{ "type": "Feature", "properties": { "strassenschluessel": "05378000002406650", "bezeichnung": "Im Eichholz" }, "geometry": { "type": "Point", "coordinates": [ 7.245188804954138, 50.951233487523638 ] } },
{ "type": "Feature", "properties": { "strassenschluessel": "05378000002406651", "bezeichnung": "Talblick" }, "geometry": { "type": "Point", "coordinates": [ 7.230460405828453, 50.946261162118752 ] } },
{ "type": "Feature", "properties": { "strassenschluessel": "05378000002406652", "bezeichnung": "Fuchskaule" }, "geometry": { "type": "Point", "coordinates": [ 7.245429093859138, 50.951118556058056 ] } },
{ "type": "Feature", "properties": { "strassenschluessel": "05378000002406653", "bezeichnung": "Olper Straße" }, "geometry": { "type": "Point", "coordinates": [ 7.223625252847149, 50.943801582445715 ] } },
{ "type": "Feature", "properties": { "strassenschluessel": "05378000002406654", "bezeichnung": "Am Golfplatz" }, "geometry": { "type": "Point", "coordinates": [ 7.222489529897381, 50.943412551790622 ] } },
{ "type": "Feature", "properties": { "strassenschluessel": "05378000002406655", "bezeichnung": "Am alten Zollhaus" }, "geometry": { "type": "Point", "coordinates": [ 7.220167003157831, 50.944792994280618 ] } },
{ "type": "Feature", "properties": { "strassenschluessel": "05378000002406659", "bezeichnung": "Steinhauser Auel" }, "geometry": { "type": "Point", "coordinates": [ 7.322871778894801, 50.964455372581774 ] } },
{ "type": "Feature", "properties": { "strassenschluessel": "05378000002406660", "bezeichnung": "Krombacher Feld" }, "geometry": { "type": "Point", "coordinates": [ 7.313684901651468, 50.960330862099411 ] } },
{ "type": "Feature", "properties": { "strassenschluessel": "05378000002406661", "bezeichnung": "Auf dem Bungert" }, "geometry": { "type": "Point", "coordinates": [ 7.314808100270417, 50.959349883989631 ] } },
{ "type": "Feature", "properties": { "strassenschluessel": "05378000002406662", "bezeichnung": "Kramichsgarten" }, "geometry": { "type": "Point", "coordinates": [ 7.312627489713016, 50.959297052476167 ] } },
{ "type": "Feature", "properties": { "strassenschluessel": "05378000002406663", "bezeichnung": "Zur Kaule" }, "geometry": { "type": "Point", "coordinates": [ 7.325078340097691, 50.962698859162025 ] } },
{ "type": "Feature", "properties": { "strassenschluessel": "05378000002406664", "bezeichnung": "Im Grasgarten" }, "geometry": { "type": "Point", "coordinates": [ 7.311782410695261, 50.95989829318065 ] } },
{ "type": "Feature", "properties": { "strassenschluessel": "05378000002406665", "bezeichnung": "Aggerfeld" }, "geometry": { "type": "Point", "coordinates": [ 7.312210850643534, 50.960009232307762 ] } },
{ "type": "Feature", "properties": { "strassenschluessel": "05378000002406666", "bezeichnung": "Aggerhof" }, "geometry": { "type": "Point", "coordinates": [ 7.315461368022812, 50.957458634370305 ] } },
{ "type": "Feature", "properties": { "strassenschluessel": "05378000002406667", "bezeichnung": "Alemich" }, "geometry": { "type": "Point", "coordinates": [ 7.326499034928244, 50.953351282688807 ] } },
{ "type": "Feature", "properties": { "strassenschluessel": "05378000002406668", "bezeichnung": "Am Aggerberg" }, "geometry": { "type": "Point", "coordinates": [ 7.312582886506652, 50.956634209300674 ] } },
{ "type": "Feature", "properties": { "strassenschluessel": "05378000002406669", "bezeichnung": "Am Berg" }, "geometry": { "type": "Point", "coordinates": [ 7.315501761812322, 50.963631090937511 ] } },
{ "type": "Feature", "properties": { "strassenschluessel": "05378000002406670", "bezeichnung": "Am Fliederbusch" }, "geometry": { "type": "Point", "coordinates": [ 7.319200783979805, 50.96244590796735 ] } },
{ "type": "Feature", "properties": { "strassenschluessel": "05378000002406671", "bezeichnung": "Am Kaltenbach" }, "geometry": { "type": "Point", "coordinates": [ 7.319771004256842, 50.963794276684737 ] } },
{ "type": "Feature", "properties": { "strassenschluessel": "05378000002406672", "bezeichnung": "Noldenweg" }, "geometry": { "type": "Point", "coordinates": [ 7.313902382269145, 50.962590149117325 ] } },
{ "type": "Feature", "properties": { "strassenschluessel": "05378000002406673", "bezeichnung": "An den Tannen" }, "geometry": { "type": "Point", "coordinates": [ 7.310461596985395, 50.959143631460627 ] } },
{ "type": "Feature", "properties": { "strassenschluessel": "05378000002406674", "bezeichnung": "Bochmühle" }, "geometry": { "type": "Point", "coordinates": [ 7.329555334855999, 50.960928048916671 ] } },
{ "type": "Feature", "properties": { "strassenschluessel": "05378000002406675", "bezeichnung": "Elsterberg" }, "geometry": { "type": "Point", "coordinates": [ 7.320037653257678, 50.966305513129385 ] } },
{ "type": "Feature", "properties": { "strassenschluessel": "05378000002406676", "bezeichnung": "Im Lehmbachtal" }, "geometry": { "type": "Point", "coordinates": [ 7.306171639148027, 50.954732932775059 ] } },
{ "type": "Feature", "properties": { "strassenschluessel": "05378000002406677", "bezeichnung": "Kölner Straße" }, "geometry": { "type": "Point", "coordinates": [ 7.31931161933464, 50.961534030160237 ] } },
{ "type": "Feature", "properties": { "strassenschluessel": "05378000002406678", "bezeichnung": "Krombacher Straße" }, "geometry": { "type": "Point", "coordinates": [ 7.309766526461546, 50.959835522804504 ] } },
{ "type": "Feature", "properties": { "strassenschluessel": "05378000002406679", "bezeichnung": "Kreuzgarten" }, "geometry": { "type": "Point", "coordinates": [ 7.317450207356419, 50.963563555195215 ] } },
{ "type": "Feature", "properties": { "strassenschluessel": "05378000002406680", "bezeichnung": "Luisenhöhe" }, "geometry": { "type": "Point", "coordinates": [ 7.315969933809948, 50.962109305532174 ] } },
{ "type": "Feature", "properties": { "strassenschluessel": "05378000002406681", "bezeichnung": "Maarweg" }, "geometry": { "type": "Point", "coordinates": [ 7.323714467255579, 50.964641295682632 ] } },
{ "type": "Feature", "properties": { "strassenschluessel": "05378000002406682", "bezeichnung": "Oberhasbach" }, "geometry": { "type": "Point", "coordinates": [ 7.32113032240197, 50.974257815488876 ] } },
{ "type": "Feature", "properties": { "strassenschluessel": "05378000002406683", "bezeichnung": "Obermiebach" }, "geometry": { "type": "Point", "coordinates": [ 7.337360911633113, 50.961726889637035 ] } },
{ "type": "Feature", "properties": { "strassenschluessel": "05378000002406684", "bezeichnung": "Oberstraße" }, "geometry": { "type": "Point", "coordinates": [ 7.328168840827932, 50.968284079151594 ] } },
{ "type": "Feature", "properties": { "strassenschluessel": "05378000002406685", "bezeichnung": "Rosenhügel" }, "geometry": { "type": "Point", "coordinates": [ 7.32285619949471, 50.966098323314959 ] } },
{ "type": "Feature", "properties": { "strassenschluessel": "05378000002406686", "bezeichnung": "Rotter Weg" }, "geometry": { "type": "Point", "coordinates": [ 7.307132170992949, 50.95748310588219 ] } },
{ "type": "Feature", "properties": { "strassenschluessel": "05378000002406687", "bezeichnung": "Steinhaus" }, "geometry": { "type": "Point", "coordinates": [ 7.320850959329898, 50.963935960550856 ] } },
{ "type": "Feature", "properties": { "strassenschluessel": "05378000002406688", "bezeichnung": "Uhlandweg" }, "geometry": { "type": "Point", "coordinates": [ 7.320930609292639, 50.964456597750626 ] } },
{ "type": "Feature", "properties": { "strassenschluessel": "05378000002406689", "bezeichnung": "Unterhasbach" }, "geometry": { "type": "Point", "coordinates": [ 7.331487096666366, 50.971560188268477 ] } },
{ "type": "Feature", "properties": { "strassenschluessel": "05378000002406690", "bezeichnung": "Unterheide" }, "geometry": { "type": "Point", "coordinates": [ 7.311750898168835, 50.968227352321442 ] } },
{ "type": "Feature", "properties": { "strassenschluessel": "05378000002406691", "bezeichnung": "Untermiebach" }, "geometry": { "type": "Point", "coordinates": [ 7.332447207268068, 50.961411206754548 ] } },
{ "type": "Feature", "properties": { "strassenschluessel": "05378000002406692", "bezeichnung": "Wacholderweg" }, "geometry": { "type": "Point", "coordinates": [ 7.320001865306179, 50.964641975021522 ] } },
{ "type": "Feature", "properties": { "strassenschluessel": "05378000002406693", "bezeichnung": "Wiesengrund" }, "geometry": { "type": "Point", "coordinates": [ 7.315901100548144, 50.959516642261619 ] } },
{ "type": "Feature", "properties": { "strassenschluessel": "05378000002406694", "bezeichnung": "Zum Schlingenbach" }, "geometry": { "type": "Point", "coordinates": [ 7.322008076554361, 50.960306796266423 ] } },
{ "type": "Feature", "properties": { "strassenschluessel": "05378000002406695", "bezeichnung": "Bengelshöhe" }, "geometry": { "type": "Point", "coordinates": [ 7.299700127592224, 50.970745225027869 ] } },
{ "type": "Feature", "properties": { "strassenschluessel": "05378000002406696", "bezeichnung": "Kreutzweg" }, "geometry": { "type": "Point", "coordinates": [ 7.298365302067992, 50.971942188655476 ] } },
{ "type": "Feature", "properties": { "strassenschluessel": "05378000002406697", "bezeichnung": "Oberheide" }, "geometry": { "type": "Point", "coordinates": [ 7.301742148210403, 50.967195014040094 ] } },
{ "type": "Feature", "properties": { "strassenschluessel": "05378000002406698", "bezeichnung": "Jägerstraße" }, "geometry": { "type": "Point", "coordinates": [ 7.306080584697746, 50.957886074475454 ] } },
{ "type": "Feature", "properties": { "strassenschluessel": "05378000002406699", "bezeichnung": "Waidmannsring" }, "geometry": { "type": "Point", "coordinates": [ 7.307215854642481, 50.956947936281821 ] } },
{ "type": "Feature", "properties": { "strassenschluessel": "05378000002406700", "bezeichnung": "Rebhuhnweg" }, "geometry": { "type": "Point", "coordinates": [ 7.308602097596612, 50.957249732808982 ] } },
{ "type": "Feature", "properties": { "strassenschluessel": "05378000002406701", "bezeichnung": "Rehwinkel" }, "geometry": { "type": "Point", "coordinates": [ 7.305294497778406, 50.956495687117844 ] } },
{ "type": "Feature", "properties": { "strassenschluessel": "05378000002406702", "bezeichnung": "Habichtweg" }, "geometry": { "type": "Point", "coordinates": [ 7.305229733549595, 50.958755465753441 ] } },
{ "type": "Feature", "properties": { "strassenschluessel": "05378000002406703", "bezeichnung": "Pfr.-Johannes-Langen-Platz" }, "geometry": { "type": "Point", "coordinates": [ 7.226074160652273, 50.940957442353216 ] } },
{ "type": "Feature", "properties": { "strassenschluessel": "05378000002406704", "bezeichnung": "Jungholzpfad" }, "geometry": { "type": "Point", "coordinates": [ 7.305682668671669, 50.957547609480521 ] } },
{ "type": "Feature", "properties": { "strassenschluessel": "05378000002406705", "bezeichnung": "Moospfad" }, "geometry": { "type": "Point", "coordinates": [ 7.305477822529988, 50.957298200507672 ] } },
{ "type": "Feature", "properties": { "strassenschluessel": "05378000002406706", "bezeichnung": "Hülsenpfad" }, "geometry": { "type": "Point", "coordinates": [ 7.304713029756209, 50.958398968388174 ] } },
{ "type": "Feature", "properties": { "strassenschluessel": "05378000002406707", "bezeichnung": "Johann-Hein-Straße" }, "geometry": { "type": "Point", "coordinates": [ 7.316114547281758, 50.962843908950802 ] } },
{ "type": "Feature", "properties": { "strassenschluessel": "05378000002406708", "bezeichnung": "August-Storm-Straße" }, "geometry": { "type": "Point", "coordinates": [ 7.31743071678391, 50.962874014613355 ] } },
{ "type": "Feature", "properties": { "strassenschluessel": "05378000002406709", "bezeichnung": "Pastor-Becker-Weg" }, "geometry": { "type": "Point", "coordinates": [ 7.317213438306577, 50.961282647809433 ] } },
{ "type": "Feature", "properties": { "strassenschluessel": "05378000002406710", "bezeichnung": "Soennecken-Platz" }, "geometry": { "type": "Point", "coordinates": [ 7.328729235958676, 50.967120250589353 ] } },
{ "type": "Feature", "properties": { "strassenschluessel": "05378000002406718", "bezeichnung": "Kepplerburg" }, "geometry": { "type": "Point", "coordinates": [ 7.294114273097564, 50.975230933810174 ] } },
{ "type": "Feature", "properties": { "strassenschluessel": "05378000002406719", "bezeichnung": "Griessiefen" }, "geometry": { "type": "Point", "coordinates": [ 7.298713347331694, 50.974720532683058 ] } },
{ "type": "Feature", "properties": { "strassenschluessel": "05378000002406720", "bezeichnung": "Herrenhöhe" }, "geometry": { "type": "Point", "coordinates": [ 7.289857924482265, 50.96879577415298 ] } },
{ "type": "Feature", "properties": { "strassenschluessel": "05378000002406721", "bezeichnung": "Hufe" }, "geometry": { "type": "Point", "coordinates": [ 7.283033931234026, 50.967121394525215 ] } },
{ "type": "Feature", "properties": { "strassenschluessel": "05378000002406722", "bezeichnung": "Müllerwiese" }, "geometry": { "type": "Point", "coordinates": [ 7.280649021430242, 50.936628576924541 ] } },
{ "type": "Feature", "properties": { "strassenschluessel": "05378000002406723", "bezeichnung": "Weidenweg" }, "geometry": { "type": "Point", "coordinates": [ 7.280276390483095, 50.936736037102946 ] } },
{ "type": "Feature", "properties": { "strassenschluessel": "05378000002406724", "bezeichnung": "Pfarrer Schneider Weg" }, "geometry": null },
{ "type": "Feature", "properties": { "strassenschluessel": "05378000002406725", "bezeichnung": "Dr.-Wester-Straße" }, "geometry": { "type": "Point", "coordinates": [ 7.279445766577288, 50.928604220166548 ] } },
{ "type": "Feature", "properties": { "strassenschluessel": "05378000002406726", "bezeichnung": "Kolpingplatz" }, "geometry": { "type": "Point", "coordinates": [ 7.285377548571176, 50.933717984126424 ] } },
{ "type": "Feature", "properties": { "strassenschluessel": "05378000002406727", "bezeichnung": "Alter Sportplatz" }, "geometry": { "type": "Point", "coordinates": [ 7.284049285387994, 50.929965007514561 ] } },
{ "type": "Feature", "properties": { "strassenschluessel": "05378000002406728", "bezeichnung": "Schwimmbadstraße" }, "geometry": { "type": "Point", "coordinates": [ 7.284520021722036, 50.929234365127222 ] } },
{ "type": "Feature", "properties": { "strassenschluessel": "05378000002406729", "bezeichnung": "Waschmorgen" }, "geometry": { "type": "Point", "coordinates": [ 7.285388469273369, 50.929052226604369 ] } },
{ "type": "Feature", "properties": { "strassenschluessel": "05378000002406730", "bezeichnung": "Alte Schule" }, "geometry": { "type": "Point", "coordinates": [ 7.274198792567108, 50.955605584091344 ] } },
{ "type": "Feature", "properties": { "strassenschluessel": "05378000002406731", "bezeichnung": "Johann-Büscher-Straße" }, "geometry": { "type": "Point", "coordinates": [ 7.294922324860846, 50.940806643557167 ] } },
{ "type": "Feature", "properties": { "strassenschluessel": "05378000002406740", "bezeichnung": "Albert-Siebenmorgen-Weg" }, "geometry": null },
{ "type": "Feature", "properties": { "strassenschluessel": "05378000002406741", "bezeichnung": "Am Büscher Kiel" }, "geometry": { "type": "Point", "coordinates": [ 7.242056711661593, 50.96260966608569 ] } },
{ "type": "Feature", "properties": { "strassenschluessel": "05378000002406742", "bezeichnung": "Am Lehnshof" }, "geometry": { "type": "Point", "coordinates": [ 7.237460283515124, 50.961109584990318 ] } },
{ "type": "Feature", "properties": { "strassenschluessel": "05378000002406743", "bezeichnung": "Bilstein" }, "geometry": { "type": "Point", "coordinates": [ 7.252416166281834, 50.982433813962295 ] } },
{ "type": "Feature", "properties": { "strassenschluessel": "05378000002406744", "bezeichnung": "Bilsteiner Weg" }, "geometry": { "type": "Point", "coordinates": [ 7.256811631938593, 50.970326934034581 ] } },
{ "type": "Feature", "properties": { "strassenschluessel": "05378000002406745", "bezeichnung": "Brodhausen" }, "geometry": { "type": "Point", "coordinates": [ 7.257876778561456, 50.962325277290027 ] } },
{ "type": "Feature", "properties": { "strassenschluessel": "05378000002406746", "bezeichnung": "Büscherkieler Hof" }, "geometry": { "type": "Point", "coordinates": [ 7.242775867463182, 50.965341092104168 ] } },
{ "type": "Feature", "properties": { "strassenschluessel": "05378000002406747", "bezeichnung": "Christian-Heesen-Straße" }, "geometry": { "type": "Point", "coordinates": [ 7.24043493030996, 50.959868053427414 ] } },
{ "type": "Feature", "properties": { "strassenschluessel": "05378000002406748", "bezeichnung": "Hasenbüchel" }, "geometry": { "type": "Point", "coordinates": [ 7.251177522470657, 50.966921608049958 ] } },
{ "type": "Feature", "properties": { "strassenschluessel": "05378000002406749", "bezeichnung": "Haus Thal" }, "geometry": { "type": "Point", "coordinates": [ 7.246850759143812, 50.96269963759994 ] } },
{ "type": "Feature", "properties": { "strassenschluessel": "05378000002406750", "bezeichnung": "Huferberg" }, "geometry": { "type": "Point", "coordinates": [ 7.255355831509375, 50.957997031875969 ] } },
{ "type": "Feature", "properties": { "strassenschluessel": "05378000002406751", "bezeichnung": "Kielsberg" }, "geometry": { "type": "Point", "coordinates": [ 7.237082402407604, 50.96333488193283 ] } },
{ "type": "Feature", "properties": { "strassenschluessel": "05378000002406752", "bezeichnung": "Kielshöfchen" }, "geometry": { "type": "Point", "coordinates": [ 7.24080643941803, 50.962651542532313 ] } },
{ "type": "Feature", "properties": { "strassenschluessel": "05378000002406753", "bezeichnung": "Klefhaus" }, "geometry": { "type": "Point", "coordinates": [ 7.248837462432805, 50.986295445635029 ] } },
{ "type": "Feature", "properties": { "strassenschluessel": "05378000002406754", "bezeichnung": "Kloster-Meer-Straße" }, "geometry": null },
{ "type": "Feature", "properties": { "strassenschluessel": "05378000002406755", "bezeichnung": "Leffelsend" }, "geometry": { "type": "Point", "coordinates": [ 7.269100088822565, 50.961668060749055 ] } },
{ "type": "Feature", "properties": { "strassenschluessel": "05378000002406756", "bezeichnung": "Lindlarer Straße" }, "geometry": { "type": "Point", "coordinates": [ 7.243161563137815, 50.962139398861623 ] } },
{ "type": "Feature", "properties": { "strassenschluessel": "05378000002406757", "bezeichnung": "Löher Straße" }, "geometry": { "type": "Point", "coordinates": [ 7.233006967298029, 50.959250948621481 ] } },
{ "type": "Feature", "properties": { "strassenschluessel": "05378000002406758", "bezeichnung": "Marienstraße" }, "geometry": { "type": "Point", "coordinates": [ 7.240576056052245, 50.96089134841688 ] } },
{ "type": "Feature", "properties": { "strassenschluessel": "05378000002406759", "bezeichnung": "Melessen" }, "geometry": { "type": "Point", "coordinates": [ 7.260847847430701, 50.97105966794151 ] } },
{ "type": "Feature", "properties": { "strassenschluessel": "05378000002406760", "bezeichnung": "Mittelsteeg" }, "geometry": { "type": "Point", "coordinates": [ 7.249071436007446, 50.958674799713378 ] } },
{ "type": "Feature", "properties": { "strassenschluessel": "05378000002406761", "bezeichnung": "Obersteeg" }, "geometry": { "type": "Point", "coordinates": [ 7.255484714424187, 50.96772261166209 ] } },
{ "type": "Feature", "properties": { "strassenschluessel": "05378000002406762", "bezeichnung": "Schmitzbüchel" }, "geometry": { "type": "Point", "coordinates": [ 7.22714430068884, 50.95612596638415 ] } },
{ "type": "Feature", "properties": { "strassenschluessel": "05378000002406763", "bezeichnung": "St.Lucia-Straße" }, "geometry": { "type": "Point", "coordinates": [ 7.237754406073124, 50.960286637036354 ] } },
{ "type": "Feature", "properties": { "strassenschluessel": "05378000002406764", "bezeichnung": "Turnerstraße" }, "geometry": { "type": "Point", "coordinates": [ 7.235704920533051, 50.960499131883076 ] } },
{ "type": "Feature", "properties": { "strassenschluessel": "05378000002406765", "bezeichnung": "Über dem Hof" }, "geometry": { "type": "Point", "coordinates": [ 7.23578392787342, 50.960054008215643 ] } },
{ "type": "Feature", "properties": { "strassenschluessel": "05378000002406766", "bezeichnung": "Ufermühle" }, "geometry": { "type": "Point", "coordinates": [ 7.258451226819951, 50.971201121030127 ] } },
{ "type": "Feature", "properties": { "strassenschluessel": "05378000002406767", "bezeichnung": "Weierberg" }, "geometry": { "type": "Point", "coordinates": [ 7.246893194089874, 50.963387848942126 ] } },
{ "type": "Feature", "properties": { "strassenschluessel": "05378000002406768", "bezeichnung": "Wilhelm-Heidkamp-Straße" }, "geometry": { "type": "Point", "coordinates": [ 7.244792011018452, 50.962159844049438 ] } },
{ "type": "Feature", "properties": { "strassenschluessel": "05378000002406769", "bezeichnung": "Zur Ohlig" }, "geometry": { "type": "Point", "coordinates": [ 7.236387180988522, 50.959561287174488 ] } },
{ "type": "Feature", "properties": { "strassenschluessel": "05378000002406770", "bezeichnung": "Am Bahnhof" }, "geometry": { "type": "Point", "coordinates": [ 7.2572271887319, 50.969582196240083 ] } },
{ "type": "Feature", "properties": { "strassenschluessel": "05378000002406771", "bezeichnung": "Böke" }, "geometry": { "type": "Point", "coordinates": [ 7.275648101230519, 50.965257209066749 ] } },
{ "type": "Feature", "properties": { "strassenschluessel": "05378000002406772", "bezeichnung": "Zum Alten Wasserwerk" }, "geometry": { "type": "Point", "coordinates": [ 7.24556255054961, 50.961086591576283 ] } },
{ "type": "Feature", "properties": { "strassenschluessel": "05378000002406773", "bezeichnung": "Jucker Weg" }, "geometry": { "type": "Point", "coordinates": [ 7.23512010451579, 50.960248910283475 ] } },
{ "type": "Feature", "properties": { "strassenschluessel": "05378000002406774", "bezeichnung": "Johann-Kierspel-Straße" }, "geometry": { "type": "Point", "coordinates": [ 7.244157523557233, 50.963239939775619 ] } },
{ "type": "Feature", "properties": { "strassenschluessel": "05378000002406775", "bezeichnung": "Dr.-Hubert-Müller-Weg" }, "geometry": { "type": "Point", "coordinates": [ 7.240021003682252, 50.962265903960208 ] } },
{ "type": "Feature", "properties": { "strassenschluessel": "05378000002406793", "bezeichnung": "Bahnhofstraße" }, "geometry": { "type": "Point", "coordinates": [ 7.217283765566076, 50.950271089375924 ] } },
{ "type": "Feature", "properties": { "strassenschluessel": "05378000002406794", "bezeichnung": "Brüderstraße" }, "geometry": { "type": "Point", "coordinates": [ 7.212056895600517, 50.946968739690377 ] } },
{ "type": "Feature", "properties": { "strassenschluessel": "05378000002406795", "bezeichnung": "Daubenbüchel" }, "geometry": { "type": "Point", "coordinates": [ 7.208827880020651, 50.944213098050433 ] } },
{ "type": "Feature", "properties": { "strassenschluessel": "05378000002406796", "bezeichnung": "Friedensweg" }, "geometry": { "type": "Point", "coordinates": [ 7.213736153141092, 50.948174765225119 ] } },
{ "type": "Feature", "properties": { "strassenschluessel": "05378000002406797", "bezeichnung": "Hoffnungsthaler Straße" }, "geometry": { "type": "Point", "coordinates": [ 7.213326390622214, 50.947030163880278 ] } },
{ "type": "Feature", "properties": { "strassenschluessel": "05378000002406798", "bezeichnung": "Im Hoffeld" }, "geometry": { "type": "Point", "coordinates": [ 7.212103485272785, 50.946582670475365 ] } },
{ "type": "Feature", "properties": { "strassenschluessel": "05378000002406799", "bezeichnung": "Mittelauel" }, "geometry": { "type": "Point", "coordinates": [ 7.209737774930905, 50.94474589700345 ] } },
{ "type": "Feature", "properties": { "strassenschluessel": "05378000002406800", "bezeichnung": "Großbuchholz" }, "geometry": { "type": "Point", "coordinates": [ 7.203847863966161, 50.947722097416836 ] } },
{ "type": "Feature", "properties": { "strassenschluessel": "05378000002406801", "bezeichnung": "Grube Grünewald" }, "geometry": { "type": "Point", "coordinates": [ 7.203102273822316, 50.943840464536024 ] } },
{ "type": "Feature", "properties": { "strassenschluessel": "05378000002406802", "bezeichnung": "Oberauel" }, "geometry": { "type": "Point", "coordinates": [ 7.225448242660204, 50.955603520808495 ] } },
{ "type": "Feature", "properties": { "strassenschluessel": "05378000002406803", "bezeichnung": "Olper Straße" }, "geometry": { "type": "Point", "coordinates": [ 7.215685711855076, 50.948010658039379 ] } },
{ "type": "Feature", "properties": { "strassenschluessel": "05378000002406804", "bezeichnung": "Sportplatzstraße" }, "geometry": { "type": "Point", "coordinates": [ 7.215878791624523, 50.946970329320322 ] } },
{ "type": "Feature", "properties": { "strassenschluessel": "05378000002406805", "bezeichnung": "Schulstraße" }, "geometry": { "type": "Point", "coordinates": [ 7.221178457167382, 50.950881196140763 ] } },
{ "type": "Feature", "properties": { "strassenschluessel": "05378000002406806", "bezeichnung": "Unterauel" }, "geometry": { "type": "Point", "coordinates": [ 7.207656040752726, 50.941966805964007 ] } },
{ "type": "Feature", "properties": { "strassenschluessel": "05378000002406807", "bezeichnung": "Zum Sülzufer" }, "geometry": { "type": "Point", "coordinates": [ 7.216863278077936, 50.946022509299908 ] } },
{ "type": "Feature", "properties": { "strassenschluessel": "05378000002406808", "bezeichnung": "Kleestraße" }, "geometry": { "type": "Point", "coordinates": [ 7.209134458715351, 50.946216954223623 ] } },
{ "type": "Feature", "properties": { "strassenschluessel": "05378000002406809", "bezeichnung": "Im Kornfeld" }, "geometry": { "type": "Point", "coordinates": [ 7.208277158978025, 50.946414230768461 ] } },
{ "type": "Feature", "properties": { "strassenschluessel": "05378000002406810", "bezeichnung": "Am Lüderich" }, "geometry": { "type": "Point", "coordinates": [ 7.21518295603433, 50.945996690558438 ] } },
{ "type": "Feature", "properties": { "strassenschluessel": "05378000002406811", "bezeichnung": "Im Ziegelfeld" }, "geometry": { "type": "Point", "coordinates": [ 7.21405996751396, 50.946511941147186 ] } },
{ "type": "Feature", "properties": { "strassenschluessel": "05378000002406812", "bezeichnung": "Alte Ziegelei" }, "geometry": { "type": "Point", "coordinates": [ 7.220220192647737, 50.953598520173379 ] } },
{ "type": "Feature", "properties": { "strassenschluessel": "05378000002406813", "bezeichnung": "Pfarrer H.Kugelmeier Straße" }, "geometry": { "type": "Point", "coordinates": [ 7.216616466546392, 50.947742060650803 ] } },
{ "type": "Feature", "properties": { "strassenschluessel": "05378000002406814", "bezeichnung": "Am Auelterberg" }, "geometry": { "type": "Point", "coordinates": [ 7.221765730762119, 50.95435451390324 ] } },
{ "type": "Feature", "properties": { "strassenschluessel": "05378000002406830", "bezeichnung": "Am Röttchen" }, "geometry": { "type": "Point", "coordinates": [ 7.253277437206912, 50.979052879944454 ] } },
{ "type": "Feature", "properties": { "strassenschluessel": "05378000002406831", "bezeichnung": "Bergstraße" }, "geometry": { "type": "Point", "coordinates": [ 7.257574032793868, 50.975172075776882 ] } },
{ "type": "Feature", "properties": { "strassenschluessel": "05378000002406832", "bezeichnung": "Am Sonnenhang" }, "geometry": { "type": "Point", "coordinates": [ 7.259115867769888, 50.975649947219175 ] } },
{ "type": "Feature", "properties": { "strassenschluessel": "05378000002406833", "bezeichnung": "Amselweg" }, "geometry": { "type": "Point", "coordinates": [ 7.264748057473397, 50.976215177936488 ] } },
{ "type": "Feature", "properties": { "strassenschluessel": "05378000002406834", "bezeichnung": "Am Brombacher Berg" }, "geometry": { "type": "Point", "coordinates": [ 7.263898056329127, 50.977352961069158 ] } },
{ "type": "Feature", "properties": { "strassenschluessel": "05378000002406835", "bezeichnung": "Bökerberg" }, "geometry": { "type": "Point", "coordinates": [ 7.264647461868809, 50.968897989517046 ] } },
{ "type": "Feature", "properties": { "strassenschluessel": "05378000002406836", "bezeichnung": "Im Rauschen Auel" }, "geometry": { "type": "Point", "coordinates": [ 7.257123997745452, 50.973456848418145 ] } },
{ "type": "Feature", "properties": { "strassenschluessel": "05378000002406837", "bezeichnung": "Dorfstraße" }, "geometry": { "type": "Point", "coordinates": [ 7.254180720870557, 50.980155954236245 ] } },
{ "type": "Feature", "properties": { "strassenschluessel": "05378000002406839", "bezeichnung": "Halfenslennefe" }, "geometry": { "type": "Point", "coordinates": [ 7.27135719546398, 50.972804758510442 ] } },
{ "type": "Feature", "properties": { "strassenschluessel": "05378000002406840", "bezeichnung": "Kartenlennefe" }, "geometry": { "type": "Point", "coordinates": [ 7.27350212126996, 50.974651182883193 ] } },
{ "type": "Feature", "properties": { "strassenschluessel": "05378000002406841", "bezeichnung": "Holzweg" }, "geometry": { "type": "Point", "coordinates": [ 7.253180175896204, 50.977816694849729 ] } },
{ "type": "Feature", "properties": { "strassenschluessel": "05378000002406842", "bezeichnung": "Im Hagen" }, "geometry": { "type": "Point", "coordinates": [ 7.267044141785966, 50.977079343785896 ] } },
{ "type": "Feature", "properties": { "strassenschluessel": "05378000002406843", "bezeichnung": "Im Hof" }, "geometry": { "type": "Point", "coordinates": [ 7.264322807113301, 50.977917089396527 ] } },
{ "type": "Feature", "properties": { "strassenschluessel": "05378000002406844", "bezeichnung": "Im Schwalbennest" }, "geometry": { "type": "Point", "coordinates": [ 7.262897199024261, 50.975016254666947 ] } },
{ "type": "Feature", "properties": { "strassenschluessel": "05378000002406845", "bezeichnung": "Im Meisenbusch" }, "geometry": { "type": "Point", "coordinates": [ 7.261727473235725, 50.975915141149216 ] } },
{ "type": "Feature", "properties": { "strassenschluessel": "05378000002406846", "bezeichnung": "Im Lerchengrund" }, "geometry": { "type": "Point", "coordinates": [ 7.260678326322512, 50.975797849910833 ] } },
{ "type": "Feature", "properties": { "strassenschluessel": "05378000002406847", "bezeichnung": "Perlenweg" }, "geometry": { "type": "Point", "coordinates": [ 7.259623454201129, 50.977162323187827 ] } },
{ "type": "Feature", "properties": { "strassenschluessel": "05378000002406849", "bezeichnung": "Sülztalstraße" }, "geometry": { "type": "Point", "coordinates": [ 7.258477667341042, 50.973927999213132 ] } },
{ "type": "Feature", "properties": { "strassenschluessel": "05378000002406851", "bezeichnung": "Klingerath" }, "geometry": { "type": "Point", "coordinates": [ 7.279591033357728, 50.971316669593676 ] } },
{ "type": "Feature", "properties": { "strassenschluessel": "05378000002406852", "bezeichnung": "Unter-Bilstein" }, "geometry": { "type": "Point", "coordinates": [ 7.249030845368045, 50.984109857363244 ] } }
]
}
