{
"type": "FeatureCollection",
"features": [
{ "type": "Feature", "properties": { "strassenschluessel": "05770000003603322", "bezeichnung": "Eininghauser Ring" }, "geometry": { "type": "Point", "coordinates": [ 8.472228493187401, 52.280427388359492 ] } },
{ "type": "Feature", "properties": { "strassenschluessel": "05770000003603324", "bezeichnung": "Am Feuerlöschteich" }, "geometry": { "type": "Point", "coordinates": [ 8.476726479468732, 52.282478556801045 ] } },
{ "type": "Feature", "properties": { "strassenschluessel": "05770000003603325", "bezeichnung": "Am Gröppelsbrink" }, "geometry": { "type": "Point", "coordinates": [ 8.473095626853343, 52.284892712003234 ] } },
{ "type": "Feature", "properties": { "strassenschluessel": "05770000003603326", "bezeichnung": "Am Haverkamp" }, "geometry": { "type": "Point", "coordinates": [ 8.513520098306138, 52.26924842258326 ] } },
{ "type": "Feature", "properties": { "strassenschluessel": "05770000003603327", "bezeichnung": "An der Hauwiese" }, "geometry": { "type": "Point", "coordinates": [ 8.496734071256716, 52.27770881964274 ] } },
{ "type": "Feature", "properties": { "strassenschluessel": "05770000003603328", "bezeichnung": "An der Kirche" }, "geometry": { "type": "Point", "coordinates": [ 8.496731597713667, 52.274935418099496 ] } },
{ "type": "Feature", "properties": { "strassenschluessel": "05770000003603330", "bezeichnung": "Auf dem Balkenkamp" }, "geometry": { "type": "Point", "coordinates": [ 8.499499489263011, 52.28283957690757 ] } },
{ "type": "Feature", "properties": { "strassenschluessel": "05770000003603331", "bezeichnung": "Auf den Hallen" }, "geometry": { "type": "Point", "coordinates": [ 8.481899317367297, 52.276822518735358 ] } },
{ "type": "Feature", "properties": { "strassenschluessel": "05770000003603332", "bezeichnung": "Auf der Horst" }, "geometry": null },
{ "type": "Feature", "properties": { "strassenschluessel": "05770000003603334", "bezeichnung": "Auf'n Linsken" }, "geometry": { "type": "Point", "coordinates": [ 8.478361435496915, 52.278289480033393 ] } },
{ "type": "Feature", "properties": { "strassenschluessel": "05770000003603335", "bezeichnung": "Bachstraße" }, "geometry": { "type": "Point", "coordinates": [ 8.518918284578524, 52.263616691942055 ] } },
{ "type": "Feature", "properties": { "strassenschluessel": "05770000003603336", "bezeichnung": "Bärenquellenstraße" }, "geometry": { "type": "Point", "coordinates": [ 8.473925956907113, 52.282785434488808 ] } },
{ "type": "Feature", "properties": { "strassenschluessel": "05770000003603338", "bezeichnung": "Bohnensieksweg" }, "geometry": { "type": "Point", "coordinates": [ 8.479309128832567, 52.272582635028762 ] } },
{ "type": "Feature", "properties": { "strassenschluessel": "05770000003603339", "bezeichnung": "Breckenfeldweg" }, "geometry": { "type": "Point", "coordinates": [ 8.478100817949876, 52.273368269774764 ] } },
{ "type": "Feature", "properties": { "strassenschluessel": "05770000003603341", "bezeichnung": "Büscherheider Straße" }, "geometry": null },
{ "type": "Feature", "properties": { "strassenschluessel": "05770000003603342", "bezeichnung": "Burgstraße" }, "geometry": { "type": "Point", "coordinates": [ 8.501129425237766, 52.281155240544336 ] } },
{ "type": "Feature", "properties": { "strassenschluessel": "05770000003603343", "bezeichnung": "Buschweg" }, "geometry": { "type": "Point", "coordinates": [ 8.515649567047701, 52.275139020917258 ] } },
{ "type": "Feature", "properties": { "strassenschluessel": "05770000003603344", "bezeichnung": "Dorfanger" }, "geometry": { "type": "Point", "coordinates": [ 8.474928906883781, 52.279407554068051 ] } },
{ "type": "Feature", "properties": { "strassenschluessel": "05770000003603345", "bezeichnung": "Delefeldstraße" }, "geometry": { "type": "Point", "coordinates": [ 8.485485177229922, 52.281273423155 ] } },
{ "type": "Feature", "properties": { "strassenschluessel": "05770000003603346", "bezeichnung": "Großer Teichweg" }, "geometry": { "type": "Point", "coordinates": [ 8.500261670477892, 52.269075188019258 ] } },
{ "type": "Feature", "properties": { "strassenschluessel": "05770000003603347", "bezeichnung": "Dreienortsweg" }, "geometry": { "type": "Point", "coordinates": [ 8.489749827249968, 52.270498510671409 ] } },
{ "type": "Feature", "properties": { "strassenschluessel": "05770000003603348", "bezeichnung": "Dreihausen" }, "geometry": { "type": "Point", "coordinates": [ 8.488940458126839, 52.28203284967033 ] } },
{ "type": "Feature", "properties": { "strassenschluessel": "05770000003603349", "bezeichnung": "Eggetaler Straße" }, "geometry": { "type": "Point", "coordinates": [ 8.499804084727426, 52.275754023294816 ] } },
{ "type": "Feature", "properties": { "strassenschluessel": "05770000003603350", "bezeichnung": "Eickwiesenstraße" }, "geometry": { "type": "Point", "coordinates": [ 8.498885941968897, 52.273451596856873 ] } },
{ "type": "Feature", "properties": { "strassenschluessel": "05770000003603351", "bezeichnung": "Eimsiekstraße" }, "geometry": { "type": "Point", "coordinates": [ 8.500106852752358, 52.277039795297213 ] } },
{ "type": "Feature", "properties": { "strassenschluessel": "05770000003603353", "bezeichnung": "Geisbergstraße" }, "geometry": { "type": "Point", "coordinates": [ 8.471781427187365, 52.282843507322774 ] } },
{ "type": "Feature", "properties": { "strassenschluessel": "05770000003603354", "bezeichnung": "Gerenortsweg" }, "geometry": { "type": "Point", "coordinates": [ 8.479978962564774, 52.271534177050761 ] } },
{ "type": "Feature", "properties": { "strassenschluessel": "05770000003603355", "bezeichnung": "Zur Schirmke" }, "geometry": { "type": "Point", "coordinates": [ 8.518847289949367, 52.268234268935558 ] } },
{ "type": "Feature", "properties": { "strassenschluessel": "05770000003603356", "bezeichnung": "Gottliebstraße" }, "geometry": { "type": "Point", "coordinates": [ 8.490994053231617, 52.27432274040126 ] } },
{ "type": "Feature", "properties": { "strassenschluessel": "05770000003603357", "bezeichnung": "Gröchtenstraße" }, "geometry": { "type": "Point", "coordinates": [ 8.473443121844619, 52.279018755988623 ] } },
{ "type": "Feature", "properties": { "strassenschluessel": "05770000003603358", "bezeichnung": "Zum Haspel" }, "geometry": { "type": "Point", "coordinates": [ 8.497754350638585, 52.269373845733348 ] } },
{ "type": "Feature", "properties": { "strassenschluessel": "05770000003603359", "bezeichnung": "Hermann-Löns-Straße" }, "geometry": { "type": "Point", "coordinates": [ 8.473001182205969, 52.280705583535706 ] } },
{ "type": "Feature", "properties": { "strassenschluessel": "05770000003603360", "bezeichnung": "Heulandstraße" }, "geometry": { "type": "Point", "coordinates": [ 8.490488632033738, 52.273589829505042 ] } },
{ "type": "Feature", "properties": { "strassenschluessel": "05770000003603361", "bezeichnung": "Kalkofenstraße" }, "geometry": { "type": "Point", "coordinates": [ 8.461723548111333, 52.285656462575076 ] } },
{ "type": "Feature", "properties": { "strassenschluessel": "05770000003603362", "bezeichnung": "Kleiner Weg" }, "geometry": { "type": "Point", "coordinates": [ 8.512123250430989, 52.269715827188342 ] } },
{ "type": "Feature", "properties": { "strassenschluessel": "05770000003603363", "bezeichnung": "Königsholzer Weg" }, "geometry": { "type": "Point", "coordinates": [ 8.465646519386068, 52.275346997023554 ] } },
{ "type": "Feature", "properties": { "strassenschluessel": "05770000003603364", "bezeichnung": "Kurze Straße" }, "geometry": { "type": "Point", "coordinates": [ 8.481302764642653, 52.276267776555684 ] } },
{ "type": "Feature", "properties": { "strassenschluessel": "05770000003603365", "bezeichnung": "Zum Limberg" }, "geometry": { "type": "Point", "coordinates": [ 8.509389854188106, 52.286172134783804 ] } },
{ "type": "Feature", "properties": { "strassenschluessel": "05770000003603366", "bezeichnung": "Wellensieksweg" }, "geometry": { "type": "Point", "coordinates": [ 8.515590806773037, 52.273254265339936 ] } },
{ "type": "Feature", "properties": { "strassenschluessel": "05770000003603367", "bezeichnung": "Markendorfer Straße" }, "geometry": { "type": "Point", "coordinates": [ 8.462836098416016, 52.276686482570078 ] } },
{ "type": "Feature", "properties": { "strassenschluessel": "05770000003603368", "bezeichnung": "Maschweg" }, "geometry": { "type": "Point", "coordinates": [ 8.510474361490003, 52.275292323583521 ] } },
{ "type": "Feature", "properties": { "strassenschluessel": "05770000003603369", "bezeichnung": "Mühlenbachstraße" }, "geometry": { "type": "Point", "coordinates": [ 8.485404687240322, 52.277938792907818 ] } },
{ "type": "Feature", "properties": { "strassenschluessel": "05770000003603370", "bezeichnung": "Neue Mühler Weg" }, "geometry": { "type": "Point", "coordinates": [ 8.518355715857819, 52.265105674711542 ] } },
{ "type": "Feature", "properties": { "strassenschluessel": "05770000003603371", "bezeichnung": "Nonnensteiner Weg" }, "geometry": { "type": "Point", "coordinates": [ 8.48260480195397, 52.271263855260955 ] } },
{ "type": "Feature", "properties": { "strassenschluessel": "05770000003603372", "bezeichnung": "Oberbergweg" }, "geometry": { "type": "Point", "coordinates": [ 8.490083852893877, 52.271068997663065 ] } },
{ "type": "Feature", "properties": { "strassenschluessel": "05770000003603373", "bezeichnung": "Obere Lehmbreite" }, "geometry": { "type": "Point", "coordinates": [ 8.485329851583934, 52.276152865813025 ] } },
{ "type": "Feature", "properties": { "strassenschluessel": "05770000003603374", "bezeichnung": "Osterkampsweg" }, "geometry": { "type": "Point", "coordinates": [ 8.500476506199067, 52.274387067393519 ] } },
{ "type": "Feature", "properties": { "strassenschluessel": "05770000003603375", "bezeichnung": "Paradiesweg" }, "geometry": { "type": "Point", "coordinates": [ 8.498552553615561, 52.272048075428913 ] } },
{ "type": "Feature", "properties": { "strassenschluessel": "05770000003603376", "bezeichnung": "Pieningfeldweg" }, "geometry": { "type": "Point", "coordinates": [ 8.48717273868702, 52.270444470267911 ] } },
{ "type": "Feature", "properties": { "strassenschluessel": "05770000003603377", "bezeichnung": "Ravensberger Straße" }, "geometry": { "type": "Point", "coordinates": [ 8.489761693652552, 52.277818928530408 ] } },
{ "type": "Feature", "properties": { "strassenschluessel": "05770000003603378", "bezeichnung": "Röthenweg" }, "geometry": { "type": "Point", "coordinates": [ 8.463920734923212, 52.276728839401002 ] } },
{ "type": "Feature", "properties": { "strassenschluessel": "05770000003603379", "bezeichnung": "Sachsenweg" }, "geometry": { "type": "Point", "coordinates": [ 8.498028332882379, 52.280456466491451 ] } },
{ "type": "Feature", "properties": { "strassenschluessel": "05770000003603380", "bezeichnung": "Schlukenweg" }, "geometry": { "type": "Point", "coordinates": [ 8.465707550494228, 52.284029872853637 ] } },
{ "type": "Feature", "properties": { "strassenschluessel": "05770000003603382", "bezeichnung": "Schmalenkampsweg" }, "geometry": { "type": "Point", "coordinates": [ 8.468055038433597, 52.282915095996358 ] } },
{ "type": "Feature", "properties": { "strassenschluessel": "05770000003603383", "bezeichnung": "Siekenweg" }, "geometry": { "type": "Point", "coordinates": [ 8.505904010511951, 52.271146808752349 ] } },
{ "type": "Feature", "properties": { "strassenschluessel": "05770000003603384", "bezeichnung": "Stapelweg" }, "geometry": { "type": "Point", "coordinates": [ 8.496580821093856, 52.270494502449687 ] } },
{ "type": "Feature", "properties": { "strassenschluessel": "05770000003603385", "bezeichnung": "Strombergstraße" }, "geometry": { "type": "Point", "coordinates": [ 8.490229383019642, 52.274799298568013 ] } },
{ "type": "Feature", "properties": { "strassenschluessel": "05770000003603386", "bezeichnung": "Unter den Buchen" }, "geometry": { "type": "Point", "coordinates": [ 8.517116148611542, 52.265731026000623 ] } },
{ "type": "Feature", "properties": { "strassenschluessel": "05770000003603387", "bezeichnung": "Untere Lehmbreite" }, "geometry": { "type": "Point", "coordinates": [ 8.485730474997229, 52.276289398646682 ] } },
{ "type": "Feature", "properties": { "strassenschluessel": "05770000003603388", "bezeichnung": "Fiegenburgweg" }, "geometry": { "type": "Point", "coordinates": [ 8.514010258638358, 52.273115725821683 ] } },
{ "type": "Feature", "properties": { "strassenschluessel": "05770000003603389", "bezeichnung": "Hohenstiege" }, "geometry": { "type": "Point", "coordinates": [ 8.514039949441461, 52.274985447280699 ] } },
{ "type": "Feature", "properties": { "strassenschluessel": "05770000003603390", "bezeichnung": "Westerfeldweg" }, "geometry": { "type": "Point", "coordinates": [ 8.465851538527364, 52.28247666598665 ] } },
{ "type": "Feature", "properties": { "strassenschluessel": "05770000003603391", "bezeichnung": "Wiesenstraße" }, "geometry": { "type": "Point", "coordinates": [ 8.498504595843748, 52.276262532598956 ] } },
{ "type": "Feature", "properties": { "strassenschluessel": "05770000003603392", "bezeichnung": "Wittekindsweg" }, "geometry": { "type": "Point", "coordinates": [ 8.501094007274384, 52.279262836343108 ] } },
{ "type": "Feature", "properties": { "strassenschluessel": "05770000003603393", "bezeichnung": "Zum Schürenbrink" }, "geometry": { "type": "Point", "coordinates": [ 8.473814542539705, 52.274211539699287 ] } },
{ "type": "Feature", "properties": { "strassenschluessel": "05770000003603394", "bezeichnung": "Zur Drift" }, "geometry": { "type": "Point", "coordinates": [ 8.513381589635568, 52.271070611250458 ] } },
{ "type": "Feature", "properties": { "strassenschluessel": "05770000003603395", "bezeichnung": "Zur Egge" }, "geometry": { "type": "Point", "coordinates": [ 8.472268001415264, 52.274961649568056 ] } },
{ "type": "Feature", "properties": { "strassenschluessel": "05770000003603396", "bezeichnung": "Zur Hasenbrücke" }, "geometry": { "type": "Point", "coordinates": [ 8.519434016424192, 52.263024906790363 ] } },
{ "type": "Feature", "properties": { "strassenschluessel": "05770000003603397", "bezeichnung": "Zwischen den Sieken" }, "geometry": { "type": "Point", "coordinates": [ 8.481173928978571, 52.278105388976392 ] } },
{ "type": "Feature", "properties": { "strassenschluessel": "05770000003603398", "bezeichnung": "Am Kattenbusch" }, "geometry": { "type": "Point", "coordinates": [ 8.513912423799029, 52.275404640400595 ] } },
{ "type": "Feature", "properties": { "strassenschluessel": "05770000003603399", "bezeichnung": "Kleifeld" }, "geometry": { "type": "Point", "coordinates": [ 8.494915653614607, 52.280147187555066 ] } },
{ "type": "Feature", "properties": { "strassenschluessel": "05770000003603400", "bezeichnung": "Orbeck" }, "geometry": { "type": "Point", "coordinates": [ 8.506691781863488, 52.27028326212519 ] } },
{ "type": "Feature", "properties": { "strassenschluessel": "05770000003603401", "bezeichnung": "Unterer Burgweg" }, "geometry": { "type": "Point", "coordinates": [ 8.498325334197286, 52.281150347505104 ] } },
{ "type": "Feature", "properties": { "strassenschluessel": "05770000003603402", "bezeichnung": "Papenstraße" }, "geometry": { "type": "Point", "coordinates": [ 8.47794218979133, 52.279543536668442 ] } },
{ "type": "Feature", "properties": { "strassenschluessel": "05770000003603403", "bezeichnung": "Auf der Breite" }, "geometry": { "type": "Point", "coordinates": [ 8.513375141623921, 52.273237378603916 ] } },
{ "type": "Feature", "properties": { "strassenschluessel": "05770000003603404", "bezeichnung": "Bornestraße" }, "geometry": { "type": "Point", "coordinates": [ 8.495219018771261, 52.275472157567215 ] } },
{ "type": "Feature", "properties": { "strassenschluessel": "05770000003603405", "bezeichnung": "Rüdenbergweg" }, "geometry": { "type": "Point", "coordinates": [ 8.486908945327196, 52.275464627247963 ] } },
{ "type": "Feature", "properties": { "strassenschluessel": "05770000003603412", "bezeichnung": "Alwinstraße" }, "geometry": { "type": "Point", "coordinates": [ 8.4942994775781, 52.308647901459587 ] } },
{ "type": "Feature", "properties": { "strassenschluessel": "05770000003603413", "bezeichnung": "Am Brink" }, "geometry": { "type": "Point", "coordinates": [ 8.496696237598561, 52.309521835182643 ] } },
{ "type": "Feature", "properties": { "strassenschluessel": "05770000003603414", "bezeichnung": "Apothekerweg" }, "geometry": { "type": "Point", "coordinates": [ 8.500653131213976, 52.327108000759345 ] } },
{ "type": "Feature", "properties": { "strassenschluessel": "05770000003603415", "bezeichnung": "Bellenkamp" }, "geometry": { "type": "Point", "coordinates": [ 8.499085838733905, 52.322884772603999 ] } },
{ "type": "Feature", "properties": { "strassenschluessel": "05770000003603416", "bezeichnung": "Bolldamm" }, "geometry": { "type": "Point", "coordinates": [ 8.49871352153078, 52.308824320674248 ] } },
{ "type": "Feature", "properties": { "strassenschluessel": "05770000003603418", "bezeichnung": "Engershauser Straße" }, "geometry": { "type": "Point", "coordinates": [ 8.506065676575217, 52.313639585775974 ] } },
{ "type": "Feature", "properties": { "strassenschluessel": "05770000003603419", "bezeichnung": "Zum Kühlhaus" }, "geometry": { "type": "Point", "coordinates": [ 8.498588982277816, 52.310349276130289 ] } },
{ "type": "Feature", "properties": { "strassenschluessel": "05770000003603420", "bezeichnung": "Großer Maschweg" }, "geometry": { "type": "Point", "coordinates": [ 8.4958839379017, 52.320841239107324 ] } },
{ "type": "Feature", "properties": { "strassenschluessel": "05770000003603422", "bezeichnung": "Im Felde" }, "geometry": { "type": "Point", "coordinates": [ 8.500719389243523, 52.309087680690276 ] } },
{ "type": "Feature", "properties": { "strassenschluessel": "05770000003603423", "bezeichnung": "Lauwandsweg" }, "geometry": { "type": "Point", "coordinates": [ 8.503912192280556, 52.31741051671073 ] } },
{ "type": "Feature", "properties": { "strassenschluessel": "05770000003603424", "bezeichnung": "Ostermasch" }, "geometry": { "type": "Point", "coordinates": [ 8.496311746459984, 52.327733816145482 ] } },
{ "type": "Feature", "properties": { "strassenschluessel": "05770000003603426", "bezeichnung": "Ostfeld" }, "geometry": { "type": "Point", "coordinates": [ 8.500452298459642, 52.308061113870629 ] } },
{ "type": "Feature", "properties": { "strassenschluessel": "05770000003603427", "bezeichnung": "Am Kreuzweg" }, "geometry": { "type": "Point", "coordinates": [ 8.501167914325494, 52.307002764999012 ] } },
{ "type": "Feature", "properties": { "strassenschluessel": "05770000003603428", "bezeichnung": "Meyers Patt" }, "geometry": { "type": "Point", "coordinates": [ 8.502337979051498, 52.307214438630737 ] } },
{ "type": "Feature", "properties": { "strassenschluessel": "05770000003603429", "bezeichnung": "Engernweg" }, "geometry": { "type": "Point", "coordinates": [ 8.503508756549683, 52.306908426480504 ] } },
{ "type": "Feature", "properties": { "strassenschluessel": "05770000003603430", "bezeichnung": "Linnenbrede" }, "geometry": { "type": "Point", "coordinates": [ 8.494619551668416, 52.312350149711996 ] } },
{ "type": "Feature", "properties": { "strassenschluessel": "05770000003603431", "bezeichnung": "Am Grasweg" }, "geometry": { "type": "Point", "coordinates": [ 8.495920541220768, 52.31208436418644 ] } },
{ "type": "Feature", "properties": { "strassenschluessel": "05770000003603432", "bezeichnung": "Flagweg" }, "geometry": { "type": "Point", "coordinates": [ 8.4945346588117, 52.310655738535175 ] } },
{ "type": "Feature", "properties": { "strassenschluessel": "05770000003603433", "bezeichnung": "Trippenkamp" }, "geometry": { "type": "Point", "coordinates": [ 8.499645602439895, 52.307234513713219 ] } },
{ "type": "Feature", "properties": { "strassenschluessel": "05770000003603452", "bezeichnung": "Altenteich" }, "geometry": null },
{ "type": "Feature", "properties": { "strassenschluessel": "05770000003603453", "bezeichnung": "Am Schierfeld" }, "geometry": { "type": "Point", "coordinates": [ 8.487887906234992, 52.347060942596421 ] } },
{ "type": "Feature", "properties": { "strassenschluessel": "05770000003603454", "bezeichnung": "Am Westerkamp" }, "geometry": { "type": "Point", "coordinates": [ 8.488068368428751, 52.334103462144341 ] } },
{ "type": "Feature", "properties": { "strassenschluessel": "05770000003603455", "bezeichnung": "Am Westrand" }, "geometry": { "type": "Point", "coordinates": [ 8.481251778752103, 52.333993139129255 ] } },
{ "type": "Feature", "properties": { "strassenschluessel": "05770000003603456", "bezeichnung": "Brackämpe" }, "geometry": { "type": "Point", "coordinates": [ 8.479777317089994, 52.348717430972627 ] } },
{ "type": "Feature", "properties": { "strassenschluessel": "05770000003603458", "bezeichnung": "Burwiese" }, "geometry": { "type": "Point", "coordinates": [ 8.497162714512674, 52.340710753917705 ] } },
{ "type": "Feature", "properties": { "strassenschluessel": "05770000003603459", "bezeichnung": "Diekrieder Weg" }, "geometry": { "type": "Point", "coordinates": [ 8.479053045131991, 52.336946971147235 ] } },
{ "type": "Feature", "properties": { "strassenschluessel": "05770000003603460", "bezeichnung": "Gartenweg" }, "geometry": { "type": "Point", "coordinates": [ 8.494698550522596, 52.33529877706944 ] } },
{ "type": "Feature", "properties": { "strassenschluessel": "05770000003603461", "bezeichnung": "Getmolder Straße" }, "geometry": { "type": "Point", "coordinates": [ 8.493343496207524, 52.335740190255287 ] } },
{ "type": "Feature", "properties": { "strassenschluessel": "05770000003603462", "bezeichnung": "Hafenstraße" }, "geometry": { "type": "Point", "coordinates": [ 8.49163101674727, 52.339961458359561 ] } },
{ "type": "Feature", "properties": { "strassenschluessel": "05770000003603463", "bezeichnung": "Hüffer Weg" }, "geometry": { "type": "Point", "coordinates": [ 8.499075594297739, 52.331588195591728 ] } },
{ "type": "Feature", "properties": { "strassenschluessel": "05770000003603464", "bezeichnung": "Im Dorfe" }, "geometry": { "type": "Point", "coordinates": [ 8.493443182745617, 52.33500778134993 ] } },
{ "type": "Feature", "properties": { "strassenschluessel": "05770000003603465", "bezeichnung": "Im Hehenfeld" }, "geometry": { "type": "Point", "coordinates": [ 8.479435315556385, 52.334226554903545 ] } },
{ "type": "Feature", "properties": { "strassenschluessel": "05770000003603466", "bezeichnung": "Kampweg" }, "geometry": { "type": "Point", "coordinates": [ 8.48699788709936, 52.336497062387366 ] } },
{ "type": "Feature", "properties": { "strassenschluessel": "05770000003603467", "bezeichnung": "Kanalweg" }, "geometry": { "type": "Point", "coordinates": [ 8.489116330142634, 52.338285485421338 ] } },
{ "type": "Feature", "properties": { "strassenschluessel": "05770000003603469", "bezeichnung": "Kottenort" }, "geometry": { "type": "Point", "coordinates": [ 8.49379359174204, 52.337373604178076 ] } },
{ "type": "Feature", "properties": { "strassenschluessel": "05770000003603470", "bezeichnung": "Ladestraße" }, "geometry": { "type": "Point", "coordinates": [ 8.489924955291166, 52.342097617952192 ] } },
{ "type": "Feature", "properties": { "strassenschluessel": "05770000003603471", "bezeichnung": "Lashorster Straße" }, "geometry": { "type": "Point", "coordinates": [ 8.495379636939582, 52.340561920249506 ] } },
{ "type": "Feature", "properties": { "strassenschluessel": "05770000003603472", "bezeichnung": "Neuenfelder Straße" }, "geometry": { "type": "Point", "coordinates": [ 8.492193187000847, 52.345276420428839 ] } },
{ "type": "Feature", "properties": { "strassenschluessel": "05770000003603473", "bezeichnung": "Niederfeldweg" }, "geometry": { "type": "Point", "coordinates": [ 8.486695942684683, 52.337608374417634 ] } },
{ "type": "Feature", "properties": { "strassenschluessel": "05770000003603474", "bezeichnung": "Ossenbrink" }, "geometry": { "type": "Point", "coordinates": [ 8.467439594086978, 52.35347717244116 ] } },
{ "type": "Feature", "properties": { "strassenschluessel": "05770000003603475", "bezeichnung": "Osterhofweg" }, "geometry": { "type": "Point", "coordinates": [ 8.497946747898206, 52.333828322897197 ] } },
{ "type": "Feature", "properties": { "strassenschluessel": "05770000003603476", "bezeichnung": "Piepersheide" }, "geometry": { "type": "Point", "coordinates": [ 8.4817692590962, 52.343290838170816 ] } },
{ "type": "Feature", "properties": { "strassenschluessel": "05770000003603477", "bezeichnung": "Rosengarten" }, "geometry": { "type": "Point", "coordinates": [ 8.484308476368685, 52.335408243794291 ] } },
{ "type": "Feature", "properties": { "strassenschluessel": "05770000003603478", "bezeichnung": "Schulstraße" }, "geometry": { "type": "Point", "coordinates": [ 8.489663071927577, 52.336403324889773 ] } },
{ "type": "Feature", "properties": { "strassenschluessel": "05770000003603479", "bezeichnung": "Westerwand" }, "geometry": { "type": "Point", "coordinates": [ 8.487132956316426, 52.334832691605314 ] } },
{ "type": "Feature", "properties": { "strassenschluessel": "05770000003603480", "bezeichnung": "Zum Neuen Felde" }, "geometry": { "type": "Point", "coordinates": [ 8.4699873384216, 52.35452636570006 ] } },
{ "type": "Feature", "properties": { "strassenschluessel": "05770000003603481", "bezeichnung": "Apolloweg" }, "geometry": { "type": "Point", "coordinates": [ 8.49327178721698, 52.336556771460238 ] } },
{ "type": "Feature", "properties": { "strassenschluessel": "05770000003603482", "bezeichnung": "Mittelkamp" }, "geometry": { "type": "Point", "coordinates": [ 8.483869819444267, 52.334409907181168 ] } },
{ "type": "Feature", "properties": { "strassenschluessel": "05770000003603483", "bezeichnung": "Südrand" }, "geometry": { "type": "Point", "coordinates": [ 8.483370212151723, 52.33376224794187 ] } },
{ "type": "Feature", "properties": { "strassenschluessel": "05770000003603484", "bezeichnung": "Neuer Garten" }, "geometry": { "type": "Point", "coordinates": [ 8.495777290724265, 52.339055654975859 ] } },
{ "type": "Feature", "properties": { "strassenschluessel": "05770000003603485", "bezeichnung": "An der Brückenwaage" }, "geometry": { "type": "Point", "coordinates": [ 8.49009766820744, 52.341373942884907 ] } },
{ "type": "Feature", "properties": { "strassenschluessel": "05770000003603486", "bezeichnung": "Am Yachthafen" }, "geometry": { "type": "Point", "coordinates": [ 8.48475146229616, 52.342839968761098 ] } },
{ "type": "Feature", "properties": { "strassenschluessel": "05770000003603487", "bezeichnung": "Am Pool" }, "geometry": { "type": "Point", "coordinates": [ 8.487064394936661, 52.335180966045655 ] } },
{ "type": "Feature", "properties": { "strassenschluessel": "05770000003603488", "bezeichnung": "Westerkämper Masch" }, "geometry": { "type": "Point", "coordinates": [ 8.480886128693779, 52.333342020583359 ] } },
{ "type": "Feature", "properties": { "strassenschluessel": "05770000003603501", "bezeichnung": "Am Bodenbach" }, "geometry": { "type": "Point", "coordinates": [ 8.480718277705302, 52.30712688519337 ] } },
{ "type": "Feature", "properties": { "strassenschluessel": "05770000003603502", "bezeichnung": "Am Diek" }, "geometry": { "type": "Point", "coordinates": [ 8.481168009857431, 52.316316409224655 ] } },
{ "type": "Feature", "properties": { "strassenschluessel": "05770000003603503", "bezeichnung": "Am Kamp" }, "geometry": { "type": "Point", "coordinates": [ 8.489107020816487, 52.312606214646173 ] } },
{ "type": "Feature", "properties": { "strassenschluessel": "05770000003603504", "bezeichnung": "Am Sägewerk" }, "geometry": { "type": "Point", "coordinates": [ 8.482008965970765, 52.311026496977647 ] } },
{ "type": "Feature", "properties": { "strassenschluessel": "05770000003603505", "bezeichnung": "Auf der Höhe" }, "geometry": { "type": "Point", "coordinates": [ 8.493321961969125, 52.311179862966284 ] } },
{ "type": "Feature", "properties": { "strassenschluessel": "05770000003603506", "bezeichnung": "Behrensweg" }, "geometry": { "type": "Point", "coordinates": [ 8.48091328367707, 52.315536967822851 ] } },
{ "type": "Feature", "properties": { "strassenschluessel": "05770000003603507", "bezeichnung": "Brunnenweg" }, "geometry": { "type": "Point", "coordinates": [ 8.479547838572515, 52.324587287164142 ] } },
{ "type": "Feature", "properties": { "strassenschluessel": "05770000003603508", "bezeichnung": "Niedersachsenweg" }, "geometry": { "type": "Point", "coordinates": [ 8.483986268544253, 52.311800077938663 ] } },
{ "type": "Feature", "properties": { "strassenschluessel": "05770000003603510", "bezeichnung": "Dillenweg" }, "geometry": { "type": "Point", "coordinates": [ 8.487427093388469, 52.317830052934404 ] } },
{ "type": "Feature", "properties": { "strassenschluessel": "05770000003603511", "bezeichnung": "Dorfkamp" }, "geometry": { "type": "Point", "coordinates": [ 8.472455845658398, 52.319169982063819 ] } },
{ "type": "Feature", "properties": { "strassenschluessel": "05770000003603512", "bezeichnung": "Eichenweg" }, "geometry": { "type": "Point", "coordinates": [ 8.484175499567856, 52.3149481792111 ] } },
{ "type": "Feature", "properties": { "strassenschluessel": "05770000003603513", "bezeichnung": "Feldweg" }, "geometry": { "type": "Point", "coordinates": [ 8.47485586485025, 52.304486038184635 ] } },
{ "type": "Feature", "properties": { "strassenschluessel": "05770000003603514", "bezeichnung": "Fledderweg" }, "geometry": { "type": "Point", "coordinates": [ 8.481068005002603, 52.325152017887198 ] } },
{ "type": "Feature", "properties": { "strassenschluessel": "05770000003603515", "bezeichnung": "Friedensweg" }, "geometry": { "type": "Point", "coordinates": [ 8.491051497653778, 52.311651808260194 ] } },
{ "type": "Feature", "properties": { "strassenschluessel": "05770000003603516", "bezeichnung": "Langenhegge" }, "geometry": { "type": "Point", "coordinates": [ 8.478812122158621, 52.303177242748788 ] } },
{ "type": "Feature", "properties": { "strassenschluessel": "05770000003603517", "bezeichnung": "Fünfhausen" }, "geometry": { "type": "Point", "coordinates": [ 8.477782786973822, 52.307647840546458 ] } },
{ "type": "Feature", "properties": { "strassenschluessel": "05770000003603518", "bezeichnung": "Funkenweg" }, "geometry": { "type": "Point", "coordinates": [ 8.48757389606722, 52.320614913295607 ] } },
{ "type": "Feature", "properties": { "strassenschluessel": "05770000003603520", "bezeichnung": "Hauptstraße" }, "geometry": { "type": "Point", "coordinates": [ 8.48505547604489, 52.313741816030578 ] } },
{ "type": "Feature", "properties": { "strassenschluessel": "05770000003603521", "bezeichnung": "In den Büren" }, "geometry": { "type": "Point", "coordinates": [ 8.489432292174, 52.317915983206056 ] } },
{ "type": "Feature", "properties": { "strassenschluessel": "05770000003603523", "bezeichnung": "Kleiner Maschweg" }, "geometry": { "type": "Point", "coordinates": [ 8.482629023904979, 52.316020877740016 ] } },
{ "type": "Feature", "properties": { "strassenschluessel": "05770000003603524", "bezeichnung": "Mittelweg" }, "geometry": { "type": "Point", "coordinates": [ 8.490605856334033, 52.312762641148467 ] } },
{ "type": "Feature", "properties": { "strassenschluessel": "05770000003603525", "bezeichnung": "Ostweg" }, "geometry": { "type": "Point", "coordinates": [ 8.496088292667343, 52.312763993580305 ] } },
{ "type": "Feature", "properties": { "strassenschluessel": "05770000003603526", "bezeichnung": "Roseneck" }, "geometry": { "type": "Point", "coordinates": [ 8.491744473542063, 52.312678116435073 ] } },
{ "type": "Feature", "properties": { "strassenschluessel": "05770000003603527", "bezeichnung": "Siedlerweg" }, "geometry": { "type": "Point", "coordinates": [ 8.491931644234478, 52.312129103386489 ] } },
{ "type": "Feature", "properties": { "strassenschluessel": "05770000003603529", "bezeichnung": "Westweg" }, "geometry": { "type": "Point", "coordinates": [ 8.482430030382053, 52.309825107015833 ] } },
{ "type": "Feature", "properties": { "strassenschluessel": "05770000003603532", "bezeichnung": "Lindenweg" }, "geometry": { "type": "Point", "coordinates": [ 8.487877255104152, 52.312740836831026 ] } },
{ "type": "Feature", "properties": { "strassenschluessel": "05770000003603533", "bezeichnung": "Eschweg" }, "geometry": { "type": "Point", "coordinates": [ 8.489734921612138, 52.311961499701461 ] } },
{ "type": "Feature", "properties": { "strassenschluessel": "05770000003603534", "bezeichnung": "Wrisbergweg" }, "geometry": { "type": "Point", "coordinates": [ 8.485215128422475, 52.309599035960765 ] } },
{ "type": "Feature", "properties": { "strassenschluessel": "05770000003603535", "bezeichnung": "Grestenweg" }, "geometry": { "type": "Point", "coordinates": [ 8.48807846106366, 52.309401387841518 ] } },
{ "type": "Feature", "properties": { "strassenschluessel": "05770000003603536", "bezeichnung": "Lütkemannsweg" }, "geometry": { "type": "Point", "coordinates": [ 8.48612283387908, 52.308615984865177 ] } },
{ "type": "Feature", "properties": { "strassenschluessel": "05770000003603537", "bezeichnung": "Schelenweg" }, "geometry": { "type": "Point", "coordinates": [ 8.487392350671483, 52.311434372656841 ] } },
{ "type": "Feature", "properties": { "strassenschluessel": "05770000003603538", "bezeichnung": "Wißmanns Kamp" }, "geometry": { "type": "Point", "coordinates": [ 8.487996326947435, 52.309913161934261 ] } },
{ "type": "Feature", "properties": { "strassenschluessel": "05770000003603552", "bezeichnung": "Am Fischteich" }, "geometry": { "type": "Point", "coordinates": [ 8.539128533972921, 52.327601257211086 ] } },
{ "type": "Feature", "properties": { "strassenschluessel": "05770000003603553", "bezeichnung": "Am Wiehenfeld" }, "geometry": { "type": "Point", "coordinates": [ 8.541732397844944, 52.334445217738882 ] } },
{ "type": "Feature", "properties": { "strassenschluessel": "05770000003603554", "bezeichnung": "Auf dem Buchholz" }, "geometry": { "type": "Point", "coordinates": [ 8.527697416814908, 52.348843337740028 ] } },
{ "type": "Feature", "properties": { "strassenschluessel": "05770000003603555", "bezeichnung": "Auf den Bohlen" }, "geometry": { "type": "Point", "coordinates": [ 8.525555064152575, 52.347849792132713 ] } },
{ "type": "Feature", "properties": { "strassenschluessel": "05770000003603556", "bezeichnung": "Hedemer Dorfstraße" }, "geometry": { "type": "Point", "coordinates": [ 8.541384148995101, 52.340349977895833 ] } },
{ "type": "Feature", "properties": { "strassenschluessel": "05770000003603557", "bezeichnung": "Hedemer Holz" }, "geometry": { "type": "Point", "coordinates": [ 8.531056135329832, 52.332497919768471 ] } },
{ "type": "Feature", "properties": { "strassenschluessel": "05770000003603558", "bezeichnung": "Hedemer Masch" }, "geometry": { "type": "Point", "coordinates": [ 8.530497885574697, 52.315647803592086 ] } },
{ "type": "Feature", "properties": { "strassenschluessel": "05770000003603559", "bezeichnung": "Hedemer Straße" }, "geometry": { "type": "Point", "coordinates": [ 8.518192763202705, 52.31605405149616 ] } },
{ "type": "Feature", "properties": { "strassenschluessel": "05770000003603560", "bezeichnung": "Hintern Kämpen" }, "geometry": { "type": "Point", "coordinates": [ 8.529420670995574, 52.337557378266396 ] } },
{ "type": "Feature", "properties": { "strassenschluessel": "05770000003603561", "bezeichnung": "Hollwinkel" }, "geometry": { "type": "Point", "coordinates": [ 8.558416293325479, 52.353243843769945 ] } },
{ "type": "Feature", "properties": { "strassenschluessel": "05770000003603562", "bezeichnung": "Hüffer Straße" }, "geometry": { "type": "Point", "coordinates": [ 8.53173146667992, 52.329837748137841 ] } },
{ "type": "Feature", "properties": { "strassenschluessel": "05770000003603563", "bezeichnung": "Im Bogen" }, "geometry": { "type": "Point", "coordinates": [ 8.54033073365143, 52.341066554768915 ] } },
{ "type": "Feature", "properties": { "strassenschluessel": "05770000003603564", "bezeichnung": "Im Bohnenort" }, "geometry": { "type": "Point", "coordinates": [ 8.540686882271771, 52.337361538451418 ] } },
{ "type": "Feature", "properties": { "strassenschluessel": "05770000003603565", "bezeichnung": "Im Ore" }, "geometry": { "type": "Point", "coordinates": [ 8.538194476376471, 52.342909280619281 ] } },
{ "type": "Feature", "properties": { "strassenschluessel": "05770000003603566", "bezeichnung": "Im Rummeldsbruch" }, "geometry": { "type": "Point", "coordinates": [ 8.545540547820684, 52.352566431891582 ] } },
{ "type": "Feature", "properties": { "strassenschluessel": "05770000003603567", "bezeichnung": "In der Feldwiese" }, "geometry": { "type": "Point", "coordinates": [ 8.527441203942532, 52.335907548476001 ] } },
{ "type": "Feature", "properties": { "strassenschluessel": "05770000003603568", "bezeichnung": "In der Siedlung" }, "geometry": { "type": "Point", "coordinates": [ 8.540551431420688, 52.335692650841537 ] } },
{ "type": "Feature", "properties": { "strassenschluessel": "05770000003603569", "bezeichnung": "Jägerweg" }, "geometry": { "type": "Point", "coordinates": [ 8.536401226036732, 52.32949047438391 ] } },
{ "type": "Feature", "properties": { "strassenschluessel": "05770000003603570", "bezeichnung": "Lübbecker Straße" }, "geometry": { "type": "Point", "coordinates": [ 8.541251523269603, 52.339837300675669 ] } },
{ "type": "Feature", "properties": { "strassenschluessel": "05770000003603571", "bezeichnung": "Parkweg" }, "geometry": { "type": "Point", "coordinates": [ 8.53905093101465, 52.343102252507677 ] } },
{ "type": "Feature", "properties": { "strassenschluessel": "05770000003603572", "bezeichnung": "Poststraße" }, "geometry": { "type": "Point", "coordinates": [ 8.539478561491931, 52.337316602551546 ] } },
{ "type": "Feature", "properties": { "strassenschluessel": "05770000003603573", "bezeichnung": "Teckelstraße" }, "geometry": { "type": "Point", "coordinates": [ 8.538372459866292, 52.339048669130449 ] } },
{ "type": "Feature", "properties": { "strassenschluessel": "05770000003603574", "bezeichnung": "Treiberweg" }, "geometry": { "type": "Point", "coordinates": [ 8.539815987207037, 52.341326930170766 ] } },
{ "type": "Feature", "properties": { "strassenschluessel": "05770000003603575", "bezeichnung": "Vehlager Straße" }, "geometry": { "type": "Point", "coordinates": [ 8.528846014407828, 52.352729255650665 ] } },
{ "type": "Feature", "properties": { "strassenschluessel": "05770000003603576", "bezeichnung": "Zum Kanal" }, "geometry": { "type": "Point", "coordinates": [ 8.53793957470484, 52.342164328638901 ] } },
{ "type": "Feature", "properties": { "strassenschluessel": "05770000003603577", "bezeichnung": "Zum Wasserwerk" }, "geometry": { "type": "Point", "coordinates": [ 8.530059878851054, 52.328123557635678 ] } },
{ "type": "Feature", "properties": { "strassenschluessel": "05770000003603578", "bezeichnung": "Zur Ölmühle" }, "geometry": { "type": "Point", "coordinates": [ 8.536284557681325, 52.328303689316023 ] } },
{ "type": "Feature", "properties": { "strassenschluessel": "05770000003603579", "bezeichnung": "Zur Schmiede" }, "geometry": { "type": "Point", "coordinates": [ 8.542330420741514, 52.340687293689179 ] } },
{ "type": "Feature", "properties": { "strassenschluessel": "05770000003603580", "bezeichnung": "Busquetweg" }, "geometry": { "type": "Point", "coordinates": [ 8.539195704005799, 52.342404021064986 ] } },
{ "type": "Feature", "properties": { "strassenschluessel": "05770000003603597", "bezeichnung": "Trifterweg" }, "geometry": { "type": "Point", "coordinates": [ 8.545970492210136, 52.293858071596546 ] } },
{ "type": "Feature", "properties": { "strassenschluessel": "05770000003603598", "bezeichnung": "An der Bruchriede" }, "geometry": { "type": "Point", "coordinates": [ 8.54611057065722, 52.297311746439235 ] } },
{ "type": "Feature", "properties": { "strassenschluessel": "05770000003603600", "bezeichnung": "Deelsbrink" }, "geometry": { "type": "Point", "coordinates": [ 8.539498849070988, 52.284037194781391 ] } },
{ "type": "Feature", "properties": { "strassenschluessel": "05770000003603601", "bezeichnung": "Albert-Schweitzer-Straße" }, "geometry": { "type": "Point", "coordinates": [ 8.543995228584366, 52.289933157178289 ] } },
{ "type": "Feature", "properties": { "strassenschluessel": "05770000003603602", "bezeichnung": "Altstadtweg" }, "geometry": { "type": "Point", "coordinates": [ 8.537870888997199, 52.287877838595477 ] } },
{ "type": "Feature", "properties": { "strassenschluessel": "05770000003603603", "bezeichnung": "Am Alten Markt" }, "geometry": { "type": "Point", "coordinates": [ 8.539735861565882, 52.292835571901364 ] } },
{ "type": "Feature", "properties": { "strassenschluessel": "05770000003603604", "bezeichnung": "Amselweg" }, "geometry": { "type": "Point", "coordinates": [ 8.527054323237143, 52.289819475845093 ] } },
{ "type": "Feature", "properties": { "strassenschluessel": "05770000003603605", "bezeichnung": "Antepohl" }, "geometry": { "type": "Point", "coordinates": [ 8.541469317511858, 52.293585763599324 ] } },
{ "type": "Feature", "properties": { "strassenschluessel": "05770000003603606", "bezeichnung": "Auf dem Brink" }, "geometry": { "type": "Point", "coordinates": [ 8.531890418028246, 52.287941009010751 ] } },
{ "type": "Feature", "properties": { "strassenschluessel": "05770000003603607", "bezeichnung": "Auf dem Brunnen" }, "geometry": { "type": "Point", "coordinates": [ 8.557928244240751, 52.292058423794188 ] } },
{ "type": "Feature", "properties": { "strassenschluessel": "05770000003603608", "bezeichnung": "Auf dem Winkel" }, "geometry": { "type": "Point", "coordinates": [ 8.53086030032248, 52.291822870150604 ] } },
{ "type": "Feature", "properties": { "strassenschluessel": "05770000003603609", "bezeichnung": "Bahnhofstraße" }, "geometry": { "type": "Point", "coordinates": [ 8.541300061791908, 52.289336237337537 ] } },
{ "type": "Feature", "properties": { "strassenschluessel": "05770000003603610", "bezeichnung": "Rumenstraße" }, "geometry": { "type": "Point", "coordinates": [ 8.55231642459907, 52.288820041660806 ] } },
{ "type": "Feature", "properties": { "strassenschluessel": "05770000003603611", "bezeichnung": "Berliner Straße" }, "geometry": { "type": "Point", "coordinates": [ 8.532905372475176, 52.291090493167196 ] } },
{ "type": "Feature", "properties": { "strassenschluessel": "05770000003603612", "bezeichnung": "Blütenstraße" }, "geometry": { "type": "Point", "coordinates": [ 8.544632649175195, 52.298438069786847 ] } },
{ "type": "Feature", "properties": { "strassenschluessel": "05770000003603613", "bezeichnung": "Brandenburger Ring" }, "geometry": { "type": "Point", "coordinates": [ 8.546729642133871, 52.293869978040433 ] } },
{ "type": "Feature", "properties": { "strassenschluessel": "05770000003603614", "bezeichnung": "Brunnenallee" }, "geometry": { "type": "Point", "coordinates": [ 8.553836161720639, 52.29187416622986 ] } },
{ "type": "Feature", "properties": { "strassenschluessel": "05770000003603615", "bezeichnung": "Bünder Straße" }, "geometry": { "type": "Point", "coordinates": [ 8.516240625874198, 52.273413249130662 ] } },
{ "type": "Feature", "properties": { "strassenschluessel": "05770000003603616", "bezeichnung": "Crollage" }, "geometry": { "type": "Point", "coordinates": [ 8.527297030623844, 52.279011221034182 ] } },
{ "type": "Feature", "properties": { "strassenschluessel": "05770000003603617", "bezeichnung": "Dammweg" }, "geometry": { "type": "Point", "coordinates": [ 8.545369624570737, 52.300068804456195 ] } },
{ "type": "Feature", "properties": { "strassenschluessel": "05770000003603618", "bezeichnung": "Dorfstraße" }, "geometry": { "type": "Point", "coordinates": [ 8.538955562609608, 52.286008996054761 ] } },
{ "type": "Feature", "properties": { "strassenschluessel": "05770000003603619", "bezeichnung": "Dummerter Straße" }, "geometry": { "type": "Point", "coordinates": [ 8.548167223113563, 52.287241991382139 ] } },
{ "type": "Feature", "properties": { "strassenschluessel": "05770000003603620", "bezeichnung": "Feldmark" }, "geometry": { "type": "Point", "coordinates": [ 8.522294061609193, 52.296011599941458 ] } },
{ "type": "Feature", "properties": { "strassenschluessel": "05770000003603621", "bezeichnung": "Feldstraße" }, "geometry": { "type": "Point", "coordinates": [ 8.533185832443117, 52.292815223179566 ] } },
{ "type": "Feature", "properties": { "strassenschluessel": "05770000003603622", "bezeichnung": "Friedensstraße" }, "geometry": { "type": "Point", "coordinates": [ 8.544611418290399, 52.293013487712791 ] } },
{ "type": "Feature", "properties": { "strassenschluessel": "05770000003603623", "bezeichnung": "Gartenstraße" }, "geometry": { "type": "Point", "coordinates": [ 8.543581911776634, 52.293781310105665 ] } },
{ "type": "Feature", "properties": { "strassenschluessel": "05770000003603624", "bezeichnung": "Glösinghausen" }, "geometry": { "type": "Point", "coordinates": [ 8.542382724363378, 52.270477140166989 ] } },
{ "type": "Feature", "properties": { "strassenschluessel": "05770000003603625", "bezeichnung": "Glösinghauser Straße" }, "geometry": { "type": "Point", "coordinates": [ 8.537548686256388, 52.272720463149092 ] } },
{ "type": "Feature", "properties": { "strassenschluessel": "05770000003603626", "bezeichnung": "Goldener Frieden" }, "geometry": { "type": "Point", "coordinates": [ 8.547537419180085, 52.294433988483725 ] } },
{ "type": "Feature", "properties": { "strassenschluessel": "05770000003603627", "bezeichnung": "Grenzstraße" }, "geometry": { "type": "Point", "coordinates": [ 8.54915370895897, 52.291945894985552 ] } },
{ "type": "Feature", "properties": { "strassenschluessel": "05770000003603628", "bezeichnung": "Sonnenweg" }, "geometry": { "type": "Point", "coordinates": [ 8.551126781808508, 52.289635800121417 ] } },
{ "type": "Feature", "properties": { "strassenschluessel": "05770000003603629", "bezeichnung": "Haberland" }, "geometry": { "type": "Point", "coordinates": [ 8.546967217935551, 52.274581230326469 ] } },
{ "type": "Feature", "properties": { "strassenschluessel": "05770000003603630", "bezeichnung": "Hartenkampstraße" }, "geometry": { "type": "Point", "coordinates": [ 8.543256118926967, 52.292414210616734 ] } },
{ "type": "Feature", "properties": { "strassenschluessel": "05770000003603632", "bezeichnung": "Heddinghauser Straße" }, "geometry": { "type": "Point", "coordinates": [ 8.538408155929217, 52.283840052526749 ] } },
{ "type": "Feature", "properties": { "strassenschluessel": "05770000003603634", "bezeichnung": "Höhenweg" }, "geometry": { "type": "Point", "coordinates": [ 8.554868624927048, 52.281729883220585 ] } },
{ "type": "Feature", "properties": { "strassenschluessel": "05770000003603635", "bezeichnung": "Hudenbeck" }, "geometry": { "type": "Point", "coordinates": [ 8.532761242857744, 52.286649452399601 ] } },
{ "type": "Feature", "properties": { "strassenschluessel": "05770000003603636", "bezeichnung": "Im Holz" }, "geometry": { "type": "Point", "coordinates": [ 8.528021319099132, 52.301096922768082 ] } },
{ "type": "Feature", "properties": { "strassenschluessel": "05770000003603637", "bezeichnung": "Große Aue" }, "geometry": { "type": "Point", "coordinates": [ 8.536522651721045, 52.292325017873893 ] } },
{ "type": "Feature", "properties": { "strassenschluessel": "05770000003603638", "bezeichnung": "Lerchenweg" }, "geometry": { "type": "Point", "coordinates": [ 8.53110331368735, 52.292548872017505 ] } },
{ "type": "Feature", "properties": { "strassenschluessel": "05770000003603640", "bezeichnung": "Echterbrocksweg" }, "geometry": { "type": "Point", "coordinates": [ 8.534414031785563, 52.305871831474086 ] } },
{ "type": "Feature", "properties": { "strassenschluessel": "05770000003603641", "bezeichnung": "Neustadtstraße" }, "geometry": { "type": "Point", "coordinates": [ 8.536710440645873, 52.287448792341976 ] } },
{ "type": "Feature", "properties": { "strassenschluessel": "05770000003603642", "bezeichnung": "Pfarrstraße" }, "geometry": { "type": "Point", "coordinates": [ 8.533903438920552, 52.289922737860287 ] } },
{ "type": "Feature", "properties": { "strassenschluessel": "05770000003603643", "bezeichnung": "Rote Erde" }, "geometry": { "type": "Point", "coordinates": [ 8.528273107800874, 52.287994557921131 ] } },
{ "type": "Feature", "properties": { "strassenschluessel": "05770000003603644", "bezeichnung": "Röthestraße" }, "geometry": { "type": "Point", "coordinates": [ 8.544428061744123, 52.292121787027554 ] } },
{ "type": "Feature", "properties": { "strassenschluessel": "05770000003603645", "bezeichnung": "Rummeldweg" }, "geometry": { "type": "Point", "coordinates": [ 8.534826121092717, 52.292136954078494 ] } },
{ "type": "Feature", "properties": { "strassenschluessel": "05770000003603646", "bezeichnung": "Am Großen Garten" }, "geometry": { "type": "Point", "coordinates": [ 8.537283668612249, 52.288972031691188 ] } },
{ "type": "Feature", "properties": { "strassenschluessel": "05770000003603647", "bezeichnung": "Schwagerhausen" }, "geometry": { "type": "Point", "coordinates": [ 8.529673450400351, 52.29442174232161 ] } },
{ "type": "Feature", "properties": { "strassenschluessel": "05770000003603648", "bezeichnung": "Sonnenwinkel" }, "geometry": { "type": "Point", "coordinates": [ 8.531868354011593, 52.293108064408059 ] } },
{ "type": "Feature", "properties": { "strassenschluessel": "05770000003603649", "bezeichnung": "Stattkamp" }, "geometry": { "type": "Point", "coordinates": [ 8.537973920169483, 52.293102491674759 ] } },
{ "type": "Feature", "properties": { "strassenschluessel": "05770000003603650", "bezeichnung": "Wiehenstraße" }, "geometry": { "type": "Point", "coordinates": [ 8.551515606125436, 52.279588178876033 ] } },
{ "type": "Feature", "properties": { "strassenschluessel": "05770000003603651", "bezeichnung": "Wilhelm-Busche-Straße" }, "geometry": { "type": "Point", "coordinates": [ 8.544539992799606, 52.297944166052496 ] } },
{ "type": "Feature", "properties": { "strassenschluessel": "05770000003603652", "bezeichnung": "Wittekindstraße" }, "geometry": { "type": "Point", "coordinates": [ 8.541165609435151, 52.290175660611844 ] } },
{ "type": "Feature", "properties": { "strassenschluessel": "05770000003603653", "bezeichnung": "Zur Freiheit" }, "geometry": { "type": "Point", "coordinates": [ 8.545285965062329, 52.296426014972084 ] } },
{ "type": "Feature", "properties": { "strassenschluessel": "05770000003603654", "bezeichnung": "Industriestraße" }, "geometry": { "type": "Point", "coordinates": [ 8.526787255804647, 52.293038502259947 ] } },
{ "type": "Feature", "properties": { "strassenschluessel": "05770000003603655", "bezeichnung": "Hangesch" }, "geometry": { "type": "Point", "coordinates": [ 8.510555321583489, 52.291695642273012 ] } },
{ "type": "Feature", "properties": { "strassenschluessel": "05770000003603656", "bezeichnung": "Blasheimer Straße" }, "geometry": { "type": "Point", "coordinates": [ 8.53033780453862, 52.297870601294527 ] } },
{ "type": "Feature", "properties": { "strassenschluessel": "05770000003603657", "bezeichnung": "Mühlenweg" }, "geometry": { "type": "Point", "coordinates": [ 8.535850964359424, 52.2897583997635 ] } },
{ "type": "Feature", "properties": { "strassenschluessel": "05770000003603658", "bezeichnung": "Ernst-Ludwig-Straße" }, "geometry": { "type": "Point", "coordinates": [ 8.548415821934388, 52.291352961160854 ] } },
{ "type": "Feature", "properties": { "strassenschluessel": "05770000003603659", "bezeichnung": "Babel" }, "geometry": { "type": "Point", "coordinates": [ 8.527700944896772, 52.28721616713365 ] } },
{ "type": "Feature", "properties": { "strassenschluessel": "05770000003603660", "bezeichnung": "Kleiner Garten" }, "geometry": { "type": "Point", "coordinates": [ 8.542039850425278, 52.291555044782271 ] } },
{ "type": "Feature", "properties": { "strassenschluessel": "05770000003603661", "bezeichnung": "Winkelstraße" }, "geometry": { "type": "Point", "coordinates": [ 8.530669973734936, 52.294712263255256 ] } },
{ "type": "Feature", "properties": { "strassenschluessel": "05770000003603662", "bezeichnung": "Otto-Hahn-Straße" }, "geometry": { "type": "Point", "coordinates": [ 8.545034392018362, 52.289950650734816 ] } },
{ "type": "Feature", "properties": { "strassenschluessel": "05770000003603663", "bezeichnung": "Robert-Koch-Straße" }, "geometry": { "type": "Point", "coordinates": [ 8.542273353654839, 52.290983708295087 ] } },
{ "type": "Feature", "properties": { "strassenschluessel": "05770000003603664", "bezeichnung": "Fasanenweg" }, "geometry": { "type": "Point", "coordinates": [ 8.535123748391134, 52.296869617107077 ] } },
{ "type": "Feature", "properties": { "strassenschluessel": "05770000003603665", "bezeichnung": "Am Park" }, "geometry": { "type": "Point", "coordinates": [ 8.534950726893141, 52.285820431698362 ] } },
{ "type": "Feature", "properties": { "strassenschluessel": "05770000003603666", "bezeichnung": "Großer Garten" }, "geometry": { "type": "Point", "coordinates": [ 8.538664917487472, 52.290984745590393 ] } },
{ "type": "Feature", "properties": { "strassenschluessel": "05770000003603678", "bezeichnung": "Blasheimer Busch" }, "geometry": { "type": "Point", "coordinates": [ 8.547757891990758, 52.300320628299239 ] } },
{ "type": "Feature", "properties": { "strassenschluessel": "05770000003603679", "bezeichnung": "Generalweg" }, "geometry": { "type": "Point", "coordinates": [ 8.544989574234988, 52.302370427822211 ] } },
{ "type": "Feature", "properties": { "strassenschluessel": "05770000003603680", "bezeichnung": "Knöttinghauser Weg" }, "geometry": { "type": "Point", "coordinates": [ 8.54200942780929, 52.30760368102748 ] } },
{ "type": "Feature", "properties": { "strassenschluessel": "05770000003603681", "bezeichnung": "Am Harrenbach" }, "geometry": { "type": "Point", "coordinates": [ 8.546174020773766, 52.29054599545065 ] } },
{ "type": "Feature", "properties": { "strassenschluessel": "05770000003603682", "bezeichnung": "Am Bruch" }, "geometry": { "type": "Point", "coordinates": [ 8.505522181277843, 52.345799728150574 ] } },
{ "type": "Feature", "properties": { "strassenschluessel": "05770000003603683", "bezeichnung": "Am Felde" }, "geometry": { "type": "Point", "coordinates": [ 8.508381594436447, 52.339604075981235 ] } },
{ "type": "Feature", "properties": { "strassenschluessel": "05770000003603684", "bezeichnung": "An der Glocke" }, "geometry": { "type": "Point", "coordinates": [ 8.510828447850798, 52.345909848965512 ] } },
{ "type": "Feature", "properties": { "strassenschluessel": "05770000003603685", "bezeichnung": "Auf der Heide" }, "geometry": { "type": "Point", "coordinates": [ 8.525104494480308, 52.353269657838609 ] } },
{ "type": "Feature", "properties": { "strassenschluessel": "05770000003603686", "bezeichnung": "Brückenstraße" }, "geometry": { "type": "Point", "coordinates": [ 8.5160080556075, 52.346159293853582 ] } },
{ "type": "Feature", "properties": { "strassenschluessel": "05770000003603687", "bezeichnung": "Desteler Weg" }, "geometry": { "type": "Point", "coordinates": [ 8.511106590157524, 52.353479180405635 ] } },
{ "type": "Feature", "properties": { "strassenschluessel": "05770000003603688", "bezeichnung": "Harmstraße" }, "geometry": { "type": "Point", "coordinates": [ 8.519391017049021, 52.343379363652474 ] } },
{ "type": "Feature", "properties": { "strassenschluessel": "05770000003603689", "bezeichnung": "Hubertusweg" }, "geometry": { "type": "Point", "coordinates": [ 8.515021813029296, 52.332529290546049 ] } },
{ "type": "Feature", "properties": { "strassenschluessel": "05770000003603690", "bezeichnung": "Im Erdbrand" }, "geometry": { "type": "Point", "coordinates": [ 8.523787906526108, 52.339715927992046 ] } },
{ "type": "Feature", "properties": { "strassenschluessel": "05770000003603691", "bezeichnung": "Im Wiesbrock" }, "geometry": { "type": "Point", "coordinates": [ 8.519205619431663, 52.347563448589817 ] } },
{ "type": "Feature", "properties": { "strassenschluessel": "05770000003603692", "bezeichnung": "Mühlenbrink" }, "geometry": { "type": "Point", "coordinates": [ 8.510157028965969, 52.336801290889767 ] } },
{ "type": "Feature", "properties": { "strassenschluessel": "05770000003603693", "bezeichnung": "Schloßstraße" }, "geometry": { "type": "Point", "coordinates": [ 8.517677914830314, 52.334841693393862 ] } },
{ "type": "Feature", "properties": { "strassenschluessel": "05770000003603694", "bezeichnung": "Volkskamp" }, "geometry": { "type": "Point", "coordinates": [ 8.501132374687916, 52.342581138221796 ] } },
{ "type": "Feature", "properties": { "strassenschluessel": "05770000003603695", "bezeichnung": "Zum Anleger" }, "geometry": { "type": "Point", "coordinates": [ 8.514335927541095, 52.343585705069593 ] } },
{ "type": "Feature", "properties": { "strassenschluessel": "05770000003603696", "bezeichnung": "Zum Langen Damm" }, "geometry": { "type": "Point", "coordinates": [ 8.508541395178261, 52.336836792312063 ] } },
{ "type": "Feature", "properties": { "strassenschluessel": "05770000003603697", "bezeichnung": "Zur Alten Brücke" }, "geometry": { "type": "Point", "coordinates": [ 8.512997193979714, 52.349711983113195 ] } },
{ "type": "Feature", "properties": { "strassenschluessel": "05770000003603731", "bezeichnung": "Am Klingelberg" }, "geometry": { "type": "Point", "coordinates": [ 8.503762442245677, 52.296531107864084 ] } },
{ "type": "Feature", "properties": { "strassenschluessel": "05770000003603733", "bezeichnung": "An den Quellen" }, "geometry": { "type": "Point", "coordinates": [ 8.503252431375479, 52.297049312253598 ] } },
{ "type": "Feature", "properties": { "strassenschluessel": "05770000003603734", "bezeichnung": "An der Bahn" }, "geometry": { "type": "Point", "coordinates": [ 8.502694544016851, 52.300011754130182 ] } },
{ "type": "Feature", "properties": { "strassenschluessel": "05770000003603735", "bezeichnung": "Aueweg" }, "geometry": { "type": "Point", "coordinates": [ 8.521098530693102, 52.306599535392742 ] } },
{ "type": "Feature", "properties": { "strassenschluessel": "05770000003603736", "bezeichnung": "Bollstraße" }, "geometry": { "type": "Point", "coordinates": [ 8.508965517311152, 52.301217078386053 ] } },
{ "type": "Feature", "properties": { "strassenschluessel": "05770000003603737", "bezeichnung": "Glockenweg" }, "geometry": { "type": "Point", "coordinates": [ 8.506160454291106, 52.302314093110951 ] } },
{ "type": "Feature", "properties": { "strassenschluessel": "05770000003603740", "bezeichnung": "Im Hallau" }, "geometry": { "type": "Point", "coordinates": [ 8.52416374909888, 52.31003538575181 ] } },
{ "type": "Feature", "properties": { "strassenschluessel": "05770000003603742", "bezeichnung": "Im Kamp" }, "geometry": { "type": "Point", "coordinates": [ 8.509431377605361, 52.302841166201475 ] } },
{ "type": "Feature", "properties": { "strassenschluessel": "05770000003603743", "bezeichnung": "Schützenstraße" }, "geometry": { "type": "Point", "coordinates": [ 8.511796414515647, 52.308129914343148 ] } },
{ "type": "Feature", "properties": { "strassenschluessel": "05770000003603745", "bezeichnung": "Obernholzweg" }, "geometry": { "type": "Point", "coordinates": [ 8.509173431858159, 52.300175448796324 ] } },
{ "type": "Feature", "properties": { "strassenschluessel": "05770000003603746", "bezeichnung": "Offelter Dorfstraße" }, "geometry": { "type": "Point", "coordinates": [ 8.517584332336433, 52.305330907219236 ] } },
{ "type": "Feature", "properties": { "strassenschluessel": "05770000003603747", "bezeichnung": "Im Osttor" }, "geometry": { "type": "Point", "coordinates": [ 8.501155536634657, 52.304309172257433 ] } },
{ "type": "Feature", "properties": { "strassenschluessel": "05770000003603748", "bezeichnung": "Diekweg" }, "geometry": { "type": "Point", "coordinates": [ 8.506061855712094, 52.300198799601326 ] } },
{ "type": "Feature", "properties": { "strassenschluessel": "05770000003603749", "bezeichnung": "Balkenkampsweg" }, "geometry": { "type": "Point", "coordinates": [ 8.497929703560745, 52.29410064724204 ] } },
{ "type": "Feature", "properties": { "strassenschluessel": "05770000003603750", "bezeichnung": "Unterm Brümmel" }, "geometry": { "type": "Point", "coordinates": [ 8.498214641414478, 52.296255158992381 ] } },
{ "type": "Feature", "properties": { "strassenschluessel": "05770000003603751", "bezeichnung": "Wiehenweg" }, "geometry": { "type": "Point", "coordinates": [ 8.502206943168652, 52.29865357831838 ] } },
{ "type": "Feature", "properties": { "strassenschluessel": "05770000003603752", "bezeichnung": "Im Woot" }, "geometry": { "type": "Point", "coordinates": [ 8.506279956517512, 52.299233250782699 ] } },
{ "type": "Feature", "properties": { "strassenschluessel": "05770000003603771", "bezeichnung": "Lilienweg" }, "geometry": { "type": "Point", "coordinates": [ 8.488812082332103, 52.302418965574311 ] } },
{ "type": "Feature", "properties": { "strassenschluessel": "05770000003603772", "bezeichnung": "Am Kirchplatz" }, "geometry": { "type": "Point", "coordinates": [ 8.495003866771814, 52.305366028309791 ] } },
{ "type": "Feature", "properties": { "strassenschluessel": "05770000003603773", "bezeichnung": "Am Osttor" }, "geometry": { "type": "Point", "coordinates": [ 8.500255806810232, 52.304216236477913 ] } },
{ "type": "Feature", "properties": { "strassenschluessel": "05770000003603774", "bezeichnung": "Am Wassergraben" }, "geometry": { "type": "Point", "coordinates": [ 8.487061855587612, 52.302465249549961 ] } },
{ "type": "Feature", "properties": { "strassenschluessel": "05770000003603775", "bezeichnung": "Drosselweg" }, "geometry": { "type": "Point", "coordinates": [ 8.488814987607469, 52.29928462571938 ] } },
{ "type": "Feature", "properties": { "strassenschluessel": "05770000003603776", "bezeichnung": "Badstraße" }, "geometry": { "type": "Point", "coordinates": [ 8.487877519949084, 52.296261478932536 ] } },
{ "type": "Feature", "properties": { "strassenschluessel": "05770000003603777", "bezeichnung": "Rathausstraße" }, "geometry": { "type": "Point", "coordinates": [ 8.491561460826318, 52.305756987788783 ] } },
{ "type": "Feature", "properties": { "strassenschluessel": "05770000003603778", "bezeichnung": "Beethovenstraße" }, "geometry": { "type": "Point", "coordinates": [ 8.490122255105671, 52.309891861432682 ] } },
{ "type": "Feature", "properties": { "strassenschluessel": "05770000003603779", "bezeichnung": "Bergstraße" }, "geometry": { "type": "Point", "coordinates": [ 8.489576789025097, 52.3022805630075 ] } },
{ "type": "Feature", "properties": { "strassenschluessel": "05770000003603780", "bezeichnung": "Börninghauser Weg" }, "geometry": { "type": "Point", "coordinates": [ 8.487767652138443, 52.294518265409508 ] } },
{ "type": "Feature", "properties": { "strassenschluessel": "05770000003603781", "bezeichnung": "Bremer Straße" }, "geometry": { "type": "Point", "coordinates": [ 8.496903768940633, 52.307912840387274 ] } },
{ "type": "Feature", "properties": { "strassenschluessel": "05770000003603782", "bezeichnung": "Brümmelstraße" }, "geometry": { "type": "Point", "coordinates": [ 8.490871501041498, 52.302430305825141 ] } },
{ "type": "Feature", "properties": { "strassenschluessel": "05770000003603783", "bezeichnung": "Dahlienweg" }, "geometry": { "type": "Point", "coordinates": [ 8.487996014783626, 52.301323722111029 ] } },
{ "type": "Feature", "properties": { "strassenschluessel": "05770000003603784", "bezeichnung": "Eininghauser Weg" }, "geometry": { "type": "Point", "coordinates": [ 8.487048498492703, 52.296304299854945 ] } },
{ "type": "Feature", "properties": { "strassenschluessel": "05770000003603785", "bezeichnung": "Eisenbahnstraße" }, "geometry": { "type": "Point", "coordinates": [ 8.493737225020411, 52.302380066913436 ] } },
{ "type": "Feature", "properties": { "strassenschluessel": "05770000003603786", "bezeichnung": "Ernst-Reuter-Straße" }, "geometry": { "type": "Point", "coordinates": [ 8.488993723689376, 52.306270777334085 ] } },
{ "type": "Feature", "properties": { "strassenschluessel": "05770000003603787", "bezeichnung": "Zum Sonnenbrink" }, "geometry": { "type": "Point", "coordinates": [ 8.498291476095876, 52.301683453210984 ] } },
{ "type": "Feature", "properties": { "strassenschluessel": "05770000003603788", "bezeichnung": "Goethestraße" }, "geometry": { "type": "Point", "coordinates": [ 8.487704337696252, 52.304951551604795 ] } },
{ "type": "Feature", "properties": { "strassenschluessel": "05770000003603789", "bezeichnung": "Friedhofstraße" }, "geometry": { "type": "Point", "coordinates": [ 8.488603766856343, 52.309858325522903 ] } },
{ "type": "Feature", "properties": { "strassenschluessel": "05770000003603790", "bezeichnung": "Blumenstraße" }, "geometry": { "type": "Point", "coordinates": [ 8.492597121850794, 52.305144264880269 ] } },
{ "type": "Feature", "properties": { "strassenschluessel": "05770000003603791", "bezeichnung": "Grüner Weg" }, "geometry": { "type": "Point", "coordinates": [ 8.49204443816547, 52.310829291333405 ] } },
{ "type": "Feature", "properties": { "strassenschluessel": "05770000003603792", "bezeichnung": "Hallenstraße" }, "geometry": { "type": "Point", "coordinates": [ 8.501039887377697, 52.304554926713365 ] } },
{ "type": "Feature", "properties": { "strassenschluessel": "05770000003603793", "bezeichnung": "Haspelstraße" }, "geometry": { "type": "Point", "coordinates": [ 8.493979901581392, 52.304618287090392 ] } },
{ "type": "Feature", "properties": { "strassenschluessel": "05770000003603794", "bezeichnung": "Hermannstraße" }, "geometry": { "type": "Point", "coordinates": [ 8.497101630802712, 52.302538495297277 ] } },
{ "type": "Feature", "properties": { "strassenschluessel": "05770000003603795", "bezeichnung": "In der Hegge" }, "geometry": { "type": "Point", "coordinates": [ 8.486328071140752, 52.297787260063636 ] } },
{ "type": "Feature", "properties": { "strassenschluessel": "05770000003603796", "bezeichnung": "Jahnstraße" }, "geometry": { "type": "Point", "coordinates": [ 8.487936521494106, 52.302963409931813 ] } },
{ "type": "Feature", "properties": { "strassenschluessel": "05770000003603797", "bezeichnung": "Kampstraße" }, "geometry": { "type": "Point", "coordinates": [ 8.492876364468877, 52.309624991490338 ] } },
{ "type": "Feature", "properties": { "strassenschluessel": "05770000003603798", "bezeichnung": "Karlstraße" }, "geometry": { "type": "Point", "coordinates": [ 8.485185928595889, 52.295416780910791 ] } },
{ "type": "Feature", "properties": { "strassenschluessel": "05770000003603799", "bezeichnung": "Kirchstraße" }, "geometry": { "type": "Point", "coordinates": [ 8.493487739904165, 52.304811102417851 ] } },
{ "type": "Feature", "properties": { "strassenschluessel": "05770000003603800", "bezeichnung": "Am Rathaus" }, "geometry": { "type": "Point", "coordinates": [ 8.491766659489615, 52.305742020476814 ] } },
{ "type": "Feature", "properties": { "strassenschluessel": "05770000003603801", "bezeichnung": "Webelnweg" }, "geometry": { "type": "Point", "coordinates": [ 8.486884440000512, 52.303357540715709 ] } },
{ "type": "Feature", "properties": { "strassenschluessel": "05770000003603802", "bezeichnung": "Meisenweg" }, "geometry": { "type": "Point", "coordinates": [ 8.487780542430881, 52.300298831895681 ] } },
{ "type": "Feature", "properties": { "strassenschluessel": "05770000003603803", "bezeichnung": "Limbergstraße" }, "geometry": { "type": "Point", "coordinates": [ 8.49575342138796, 52.302284391595336 ] } },
{ "type": "Feature", "properties": { "strassenschluessel": "05770000003603804", "bezeichnung": "Linkenstraße" }, "geometry": { "type": "Point", "coordinates": [ 8.485442303515379, 52.29729697745514 ] } },
{ "type": "Feature", "properties": { "strassenschluessel": "05770000003603805", "bezeichnung": "Am Hang" }, "geometry": { "type": "Point", "coordinates": [ 8.488973944983188, 52.30054269231951 ] } },
{ "type": "Feature", "properties": { "strassenschluessel": "05770000003603806", "bezeichnung": "Marktstraße" }, "geometry": { "type": "Point", "coordinates": [ 8.49725830440264, 52.3054300201294 ] } },
{ "type": "Feature", "properties": { "strassenschluessel": "05770000003603807", "bezeichnung": "Mergelsbrink" }, "geometry": { "type": "Point", "coordinates": [ 8.49307079818934, 52.298608507766858 ] } },
{ "type": "Feature", "properties": { "strassenschluessel": "05770000003603808", "bezeichnung": "Mindener Straße" }, "geometry": { "type": "Point", "coordinates": [ 8.509475355977681, 52.298852021707731 ] } },
{ "type": "Feature", "properties": { "strassenschluessel": "05770000003603809", "bezeichnung": "Mozartstraße" }, "geometry": { "type": "Point", "coordinates": [ 8.490731648373208, 52.309593692657032 ] } },
{ "type": "Feature", "properties": { "strassenschluessel": "05770000003603810", "bezeichnung": "Nelkenweg" }, "geometry": { "type": "Point", "coordinates": [ 8.48720949916904, 52.302138651287478 ] } },
{ "type": "Feature", "properties": { "strassenschluessel": "05770000003603811", "bezeichnung": "Nordweg" }, "geometry": { "type": "Point", "coordinates": [ 8.497861248771112, 52.30860647343799 ] } },
{ "type": "Feature", "properties": { "strassenschluessel": "05770000003603812", "bezeichnung": "Offelter Weg" }, "geometry": { "type": "Point", "coordinates": [ 8.498321189726253, 52.307090522285577 ] } },
{ "type": "Feature", "properties": { "strassenschluessel": "05770000003603813", "bezeichnung": "Osnabrücker Straße" }, "geometry": { "type": "Point", "coordinates": [ 8.484818954259111, 52.307977000113922 ] } },
{ "type": "Feature", "properties": { "strassenschluessel": "05770000003603814", "bezeichnung": "Pestalozzistraße" }, "geometry": { "type": "Point", "coordinates": [ 8.493723504801512, 52.306553291455351 ] } },
{ "type": "Feature", "properties": { "strassenschluessel": "05770000003603815", "bezeichnung": "Richard-Wagner-Straße" }, "geometry": { "type": "Point", "coordinates": [ 8.4915912255784, 52.309240424691943 ] } },
{ "type": "Feature", "properties": { "strassenschluessel": "05770000003603816", "bezeichnung": "Schillerstraße" }, "geometry": { "type": "Point", "coordinates": [ 8.486538526249776, 52.306769374742515 ] } },
{ "type": "Feature", "properties": { "strassenschluessel": "05770000003603817", "bezeichnung": "Schulweg" }, "geometry": { "type": "Point", "coordinates": [ 8.494828399158365, 52.309469817161123 ] } },
{ "type": "Feature", "properties": { "strassenschluessel": "05770000003603818", "bezeichnung": "Siedlerstraße" }, "geometry": { "type": "Point", "coordinates": [ 8.499559220249324, 52.305739177012185 ] } },
{ "type": "Feature", "properties": { "strassenschluessel": "05770000003603819", "bezeichnung": "Spiegelstraße" }, "geometry": { "type": "Point", "coordinates": [ 8.493633129000926, 52.305791995540439 ] } },
{ "type": "Feature", "properties": { "strassenschluessel": "05770000003603820", "bezeichnung": "St.-Raphaels-Weg" }, "geometry": { "type": "Point", "coordinates": [ 8.497120195040326, 52.306433940353863 ] } },
{ "type": "Feature", "properties": { "strassenschluessel": "05770000003603821", "bezeichnung": "Südweg" }, "geometry": { "type": "Point", "coordinates": [ 8.494060894606074, 52.303639955423364 ] } },
{ "type": "Feature", "properties": { "strassenschluessel": "05770000003603822", "bezeichnung": "Tonstraße" }, "geometry": { "type": "Point", "coordinates": [ 8.484724206706266, 52.302664141973125 ] } },
{ "type": "Feature", "properties": { "strassenschluessel": "05770000003603823", "bezeichnung": "Tulpenweg" }, "geometry": { "type": "Point", "coordinates": [ 8.487524546762705, 52.301072764075968 ] } },
{ "type": "Feature", "properties": { "strassenschluessel": "05770000003603824", "bezeichnung": "Veilchenweg" }, "geometry": { "type": "Point", "coordinates": [ 8.487412557586698, 52.301409784765667 ] } },
{ "type": "Feature", "properties": { "strassenschluessel": "05770000003603825", "bezeichnung": "Waldstraße" }, "geometry": { "type": "Point", "coordinates": [ 8.481029379494704, 52.301409862959396 ] } },
{ "type": "Feature", "properties": { "strassenschluessel": "05770000003603826", "bezeichnung": "Weststraße" }, "geometry": { "type": "Point", "coordinates": [ 8.487853284616499, 52.303942860826872 ] } },
{ "type": "Feature", "properties": { "strassenschluessel": "05770000003603827", "bezeichnung": "Wilhelmstraße" }, "geometry": { "type": "Point", "coordinates": [ 8.489529957304176, 52.305830040193371 ] } },
{ "type": "Feature", "properties": { "strassenschluessel": "05770000003603828", "bezeichnung": "Herzogstraße" }, "geometry": { "type": "Point", "coordinates": [ 8.483401552739297, 52.304316660040698 ] } },
{ "type": "Feature", "properties": { "strassenschluessel": "05770000003603829", "bezeichnung": "Heidestraße" }, "geometry": { "type": "Point", "coordinates": [ 8.484571706362278, 52.296529790063815 ] } },
{ "type": "Feature", "properties": { "strassenschluessel": "05770000003603830", "bezeichnung": "Ziegeleistraße" }, "geometry": { "type": "Point", "coordinates": [ 8.484760173088947, 52.301704634670202 ] } },
{ "type": "Feature", "properties": { "strassenschluessel": "05770000003603831", "bezeichnung": "Am Golfplatz" }, "geometry": { "type": "Point", "coordinates": [ 8.486678551475107, 52.297113221638675 ] } },
{ "type": "Feature", "properties": { "strassenschluessel": "05770000003603832", "bezeichnung": "Bahnhof" }, "geometry": null },
{ "type": "Feature", "properties": { "strassenschluessel": "05770000003603833", "bezeichnung": "Fliederweg" }, "geometry": { "type": "Point", "coordinates": [ 8.485123598663851, 52.301654011085198 ] } },
{ "type": "Feature", "properties": { "strassenschluessel": "05770000003603834", "bezeichnung": "Köllings Mühle" }, "geometry": { "type": "Point", "coordinates": [ 8.493463243987833, 52.304051814812048 ] } },
{ "type": "Feature", "properties": { "strassenschluessel": "05770000003603835", "bezeichnung": "Heuers Kamp" }, "geometry": { "type": "Point", "coordinates": [ 8.495479838564679, 52.303903326109037 ] } },
{ "type": "Feature", "properties": { "strassenschluessel": "05770000003603836", "bezeichnung": "Am Bache" }, "geometry": { "type": "Point", "coordinates": [ 8.493308005283456, 52.303138020591405 ] } },
{ "type": "Feature", "properties": { "strassenschluessel": "05770000003603837", "bezeichnung": "Steinmanns Kamp" }, "geometry": { "type": "Point", "coordinates": [ 8.494984758360284, 52.302685881643832 ] } },
{ "type": "Feature", "properties": { "strassenschluessel": "05770000003603838", "bezeichnung": "Brinkweg" }, "geometry": { "type": "Point", "coordinates": [ 8.495824461425821, 52.300090587733052 ] } },
{ "type": "Feature", "properties": { "strassenschluessel": "05770000003603839", "bezeichnung": "Bergbrede" }, "geometry": { "type": "Point", "coordinates": [ 8.493764999600755, 52.300340671833169 ] } },
{ "type": "Feature", "properties": { "strassenschluessel": "05770000003603840", "bezeichnung": "Harlinghauser Kirchweg" }, "geometry": { "type": "Point", "coordinates": [ 8.488079532987419, 52.309057961525454 ] } },
{ "type": "Feature", "properties": { "strassenschluessel": "05770000003603841", "bezeichnung": "Trotzenburg" }, "geometry": { "type": "Point", "coordinates": [ 8.48992350864015, 52.307238037543286 ] } },
{ "type": "Feature", "properties": { "strassenschluessel": "05770000003603842", "bezeichnung": "Eibenweg" }, "geometry": { "type": "Point", "coordinates": [ 8.492290994541245, 52.300597976084312 ] } },
{ "type": "Feature", "properties": { "strassenschluessel": "05770000003603843", "bezeichnung": "Erlenweg" }, "geometry": { "type": "Point", "coordinates": [ 8.494134973203042, 52.301779069296401 ] } },
{ "type": "Feature", "properties": { "strassenschluessel": "05770000003603844", "bezeichnung": "Schmaler Weg" }, "geometry": { "type": "Point", "coordinates": [ 8.492522581632649, 52.303922160765971 ] } },
{ "type": "Feature", "properties": { "strassenschluessel": "05770000003603861", "bezeichnung": "Am Denkmal" }, "geometry": { "type": "Point", "coordinates": [ 8.46248996100447, 52.332230119296867 ] } },
{ "type": "Feature", "properties": { "strassenschluessel": "05770000003603862", "bezeichnung": "Harlinghauser Weg" }, "geometry": null },
{ "type": "Feature", "properties": { "strassenschluessel": "05770000003603863", "bezeichnung": "Auf der Bake" }, "geometry": { "type": "Point", "coordinates": [ 8.459748739243022, 52.3355111238197 ] } },
{ "type": "Feature", "properties": { "strassenschluessel": "05770000003603864", "bezeichnung": "Auf der Dasslage" }, "geometry": { "type": "Point", "coordinates": [ 8.459920756942253, 52.330146368548007 ] } },
{ "type": "Feature", "properties": { "strassenschluessel": "05770000003603865", "bezeichnung": "Auf der Linst" }, "geometry": { "type": "Point", "coordinates": [ 8.45595312929145, 52.342692208944023 ] } },
{ "type": "Feature", "properties": { "strassenschluessel": "05770000003603867", "bezeichnung": "Bruchweg" }, "geometry": { "type": "Point", "coordinates": [ 8.456405013468741, 52.354681761996346 ] } },
{ "type": "Feature", "properties": { "strassenschluessel": "05770000003603868", "bezeichnung": "Dahlinghauser Straße" }, "geometry": { "type": "Point", "coordinates": [ 8.462976085745167, 52.330018946252345 ] } },
{ "type": "Feature", "properties": { "strassenschluessel": "05770000003603869", "bezeichnung": "Dielinger Weg" }, "geometry": { "type": "Point", "coordinates": [ 8.470945398951613, 52.342899460064025 ] } },
{ "type": "Feature", "properties": { "strassenschluessel": "05770000003603870", "bezeichnung": "Kuckucksweg" }, "geometry": { "type": "Point", "coordinates": [ 8.463023582399245, 52.331491868338318 ] } },
{ "type": "Feature", "properties": { "strassenschluessel": "05770000003603871", "bezeichnung": "Elsterweg" }, "geometry": { "type": "Point", "coordinates": [ 8.466713935463734, 52.329609707016061 ] } },
{ "type": "Feature", "properties": { "strassenschluessel": "05770000003603872", "bezeichnung": "Finkenweg" }, "geometry": { "type": "Point", "coordinates": [ 8.472752182792915, 52.330668545324158 ] } },
{ "type": "Feature", "properties": { "strassenschluessel": "05770000003603874", "bezeichnung": "Im Busche" }, "geometry": { "type": "Point", "coordinates": [ 8.455659920401878, 52.333114455864369 ] } },
{ "type": "Feature", "properties": { "strassenschluessel": "05770000003603875", "bezeichnung": "Im Weidehorn" }, "geometry": { "type": "Point", "coordinates": [ 8.460475009384343, 52.352509271828097 ] } },
{ "type": "Feature", "properties": { "strassenschluessel": "05770000003603876", "bezeichnung": "Langenhorstweg" }, "geometry": { "type": "Point", "coordinates": [ 8.445771870033228, 52.351659861651783 ] } },
{ "type": "Feature", "properties": { "strassenschluessel": "05770000003603877", "bezeichnung": "Leverner Straße" }, "geometry": { "type": "Point", "coordinates": [ 8.449887325710321, 52.356429413191456 ] } },
{ "type": "Feature", "properties": { "strassenschluessel": "05770000003603878", "bezeichnung": "Vogelpohlsweg" }, "geometry": { "type": "Point", "coordinates": [ 8.461625269183349, 52.322316134217267 ] } },
{ "type": "Feature", "properties": { "strassenschluessel": "05770000003603879", "bezeichnung": "Knoops Mühle" }, "geometry": { "type": "Point", "coordinates": [ 8.456090881230542, 52.328230281412075 ] } },
{ "type": "Feature", "properties": { "strassenschluessel": "05770000003603881", "bezeichnung": "Niederheide" }, "geometry": null },
{ "type": "Feature", "properties": { "strassenschluessel": "05770000003603882", "bezeichnung": "Oberfeld" }, "geometry": { "type": "Point", "coordinates": [ 8.462120580393492, 52.32514472640392 ] } },
{ "type": "Feature", "properties": { "strassenschluessel": "05770000003603883", "bezeichnung": "Oberheide" }, "geometry": { "type": "Point", "coordinates": [ 8.454169524709121, 52.344792353514492 ] } },
{ "type": "Feature", "properties": { "strassenschluessel": "05770000003603884", "bezeichnung": "Ortfeldweg" }, "geometry": { "type": "Point", "coordinates": [ 8.466753681518437, 52.331913175330733 ] } },
{ "type": "Feature", "properties": { "strassenschluessel": "05770000003603885", "bezeichnung": "Obermehner Straße" }, "geometry": null },
{ "type": "Feature", "properties": { "strassenschluessel": "05770000003603886", "bezeichnung": "Wietkampsweg" }, "geometry": { "type": "Point", "coordinates": [ 8.468140755216574, 52.340500026708497 ] } },
{ "type": "Feature", "properties": { "strassenschluessel": "057700000036=2982", "bezeichnung": "Bünde - Bassum" }, "geometry": null },
{ "type": "Feature", "properties": { "strassenschluessel": "057700000036=9168", "bezeichnung": "Holzhausen - Bohmte" }, "geometry": null }
]
}
