{
"type": "FeatureCollection",
"features": [
{ "type": "Feature", "properties": { "strassenschluessel": "05120000000000101", "bezeichnung": "Abraham-Hering-Straße" }, "geometry": { "type": "Point", "coordinates": [ 7.183066182460236, 51.190226516668545 ] } },
{ "type": "Feature", "properties": { "strassenschluessel": "05120000000000102", "bezeichnung": "Ackerstraße" }, "geometry": { "type": "Point", "coordinates": [ 7.154522788736555, 51.178615550220499 ] } },
{ "type": "Feature", "properties": { "strassenschluessel": "05120000000000103", "bezeichnung": "Adam-Stegerwald-Straße" }, "geometry": { "type": "Point", "coordinates": [ 7.156574373624663, 51.170422298141688 ] } },
{ "type": "Feature", "properties": { "strassenschluessel": "05120000000000104", "bezeichnung": "Adlerstraße" }, "geometry": { "type": "Point", "coordinates": [ 7.201257653755621, 51.169111507469047 ] } },
{ "type": "Feature", "properties": { "strassenschluessel": "05120000000000105", "bezeichnung": "Adolf-Clarenbach-Straße" }, "geometry": { "type": "Point", "coordinates": [ 7.237245488704549, 51.207245605539683 ] } },
{ "type": "Feature", "properties": { "strassenschluessel": "05120000000000106", "bezeichnung": "Adolfstraße" }, "geometry": { "type": "Point", "coordinates": [ 7.181633006481583, 51.183300488721812 ] } },
{ "type": "Feature", "properties": { "strassenschluessel": "05120000000000107", "bezeichnung": "Adolf-Westen-Straße" }, "geometry": { "type": "Point", "coordinates": [ 7.206814338799727, 51.197973238025654 ] } },
{ "type": "Feature", "properties": { "strassenschluessel": "05120000000000108", "bezeichnung": "Agnes-Miegel-Weg" }, "geometry": { "type": "Point", "coordinates": [ 7.221032633035168, 51.175301616154712 ] } },
{ "type": "Feature", "properties": { "strassenschluessel": "05120000000000109", "bezeichnung": "Ahornstraße" }, "geometry": { "type": "Point", "coordinates": [ 7.207887092553181, 51.179876282164635 ] } },
{ "type": "Feature", "properties": { "strassenschluessel": "05120000000000110", "bezeichnung": "Albert-Schmidt-Allee" }, "geometry": { "type": "Point", "coordinates": [ 7.260415273422253, 51.199028412441884 ] } },
{ "type": "Feature", "properties": { "strassenschluessel": "05120000000000111", "bezeichnung": "Albert-Schweitzer-Straße" }, "geometry": { "type": "Point", "coordinates": [ 7.256806407827568, 51.177189450311552 ] } },
{ "type": "Feature", "properties": { "strassenschluessel": "05120000000000112", "bezeichnung": "Albertstraße" }, "geometry": { "type": "Point", "coordinates": [ 7.255928132631222, 51.184553017993117 ] } },
{ "type": "Feature", "properties": { "strassenschluessel": "05120000000000113", "bezeichnung": "Albert-Tillmanns-Weg" }, "geometry": { "type": "Point", "coordinates": [ 7.237898216497239, 51.215035905491071 ] } },
{ "type": "Feature", "properties": { "strassenschluessel": "05120000000000114", "bezeichnung": "Albrecht-Thaer-Straße" }, "geometry": { "type": "Point", "coordinates": [ 7.2626297259913, 51.192794915621185 ] } },
{ "type": "Feature", "properties": { "strassenschluessel": "05120000000000115", "bezeichnung": "Alexanderstraße" }, "geometry": { "type": "Point", "coordinates": [ 7.18800388565715, 51.175978887046519 ] } },
{ "type": "Feature", "properties": { "strassenschluessel": "05120000000000116", "bezeichnung": "Alleestraße" }, "geometry": { "type": "Point", "coordinates": [ 7.178994569076011, 51.181409686143027 ] } },
{ "type": "Feature", "properties": { "strassenschluessel": "05120000000000117", "bezeichnung": "Alte Bismarckstraße" }, "geometry": { "type": "Point", "coordinates": [ 7.195409018827876, 51.179587209005248 ] } },
{ "type": "Feature", "properties": { "strassenschluessel": "05120000000000118", "bezeichnung": "Alte Freiheitstraße" }, "geometry": { "type": "Point", "coordinates": [ 7.184854316579784, 51.177126422174595 ] } },
{ "type": "Feature", "properties": { "strassenschluessel": "05120000000000119", "bezeichnung": "Alte Kölner Straße" }, "geometry": { "type": "Point", "coordinates": [ 7.253689000640509, 51.185107381161671 ] } },
{ "type": "Feature", "properties": { "strassenschluessel": "05120000000000120", "bezeichnung": "Altenhammer" }, "geometry": null },
{ "type": "Feature", "properties": { "strassenschluessel": "05120000000000121", "bezeichnung": "Alte Rathausstraße" }, "geometry": { "type": "Point", "coordinates": [ 7.19166869096227, 51.182616221537153 ] } },
{ "type": "Feature", "properties": { "strassenschluessel": "05120000000000122", "bezeichnung": "Alter Markt" }, "geometry": { "type": "Point", "coordinates": [ 7.257633705310758, 51.192246526569278 ] } },
{ "type": "Feature", "properties": { "strassenschluessel": "05120000000000123", "bezeichnung": "Alte Straße" }, "geometry": { "type": "Point", "coordinates": [ 7.162563150491271, 51.197102931485837 ] } },
{ "type": "Feature", "properties": { "strassenschluessel": "05120000000000125", "bezeichnung": "Am Anger" }, "geometry": { "type": "Point", "coordinates": [ 7.226299840404015, 51.181131612786579 ] } },
{ "type": "Feature", "properties": { "strassenschluessel": "05120000000000126", "bezeichnung": "Am Bahnhof" }, "geometry": { "type": "Point", "coordinates": [ 7.25326478150192, 51.19147405325112 ] } },
{ "type": "Feature", "properties": { "strassenschluessel": "05120000000000127", "bezeichnung": "Am Blaffertsberg" }, "geometry": { "type": "Point", "coordinates": [ 7.216585411981586, 51.220266742827995 ] } },
{ "type": "Feature", "properties": { "strassenschluessel": "05120000000000128", "bezeichnung": "Amboßweg" }, "geometry": { "type": "Point", "coordinates": [ 7.198753297922706, 51.194569797173969 ] } },
{ "type": "Feature", "properties": { "strassenschluessel": "05120000000000129", "bezeichnung": "Am Breithammer" }, "geometry": { "type": "Point", "coordinates": [ 7.201190971387895, 51.196405910436198 ] } },
{ "type": "Feature", "properties": { "strassenschluessel": "05120000000000130", "bezeichnung": "Ambrosius-Vaßbender-Platz" }, "geometry": { "type": "Point", "coordinates": [ 7.195948379255076, 51.179981741324205 ] } },
{ "type": "Feature", "properties": { "strassenschluessel": "05120000000000131", "bezeichnung": "Am Bruch" }, "geometry": { "type": "Point", "coordinates": [ 7.178372176265035, 51.178934070376073 ] } },
{ "type": "Feature", "properties": { "strassenschluessel": "05120000000000132", "bezeichnung": "Am Buchenwald" }, "geometry": { "type": "Point", "coordinates": [ 7.1665165973881, 51.156449652594567 ] } },
{ "type": "Feature", "properties": { "strassenschluessel": "05120000000000133", "bezeichnung": "Am Drosselsang" }, "geometry": { "type": "Point", "coordinates": [ 7.263981962502998, 51.193486828955834 ] } },
{ "type": "Feature", "properties": { "strassenschluessel": "05120000000000134", "bezeichnung": "Am Finkenschlag" }, "geometry": { "type": "Point", "coordinates": [ 7.262222922705535, 51.193557188205233 ] } },
{ "type": "Feature", "properties": { "strassenschluessel": "05120000000000135", "bezeichnung": "Am Grafenwald" }, "geometry": { "type": "Point", "coordinates": [ 7.215864662594281, 51.173189974185007 ] } },
{ "type": "Feature", "properties": { "strassenschluessel": "05120000000000136", "bezeichnung": "Am Hagen" }, "geometry": { "type": "Point", "coordinates": [ 7.204027179035601, 51.184144423657713 ] } },
{ "type": "Feature", "properties": { "strassenschluessel": "05120000000000137", "bezeichnung": "Am Hasenclev" }, "geometry": { "type": "Point", "coordinates": [ 7.196920320672706, 51.19408921112511 ] } },
{ "type": "Feature", "properties": { "strassenschluessel": "05120000000000138", "bezeichnung": "Am Hohen Wald" }, "geometry": { "type": "Point", "coordinates": [ 7.196952371743234, 51.159110314268965 ] } },
{ "type": "Feature", "properties": { "strassenschluessel": "05120000000000139", "bezeichnung": "Am Holscheidsberg" }, "geometry": { "type": "Point", "coordinates": [ 7.176118653131446, 51.18884449948839 ] } },
{ "type": "Feature", "properties": { "strassenschluessel": "05120000000000140", "bezeichnung": "Am Honsbergpark" }, "geometry": { "type": "Point", "coordinates": [ 7.182422910679423, 51.187058884184168 ] } },
{ "type": "Feature", "properties": { "strassenschluessel": "05120000000000141", "bezeichnung": "Am Johannisberg" }, "geometry": { "type": "Point", "coordinates": [ 7.255492802415191, 51.189167307445857 ] } },
{ "type": "Feature", "properties": { "strassenschluessel": "05120000000000142", "bezeichnung": "Am Kegelhäuschen" }, "geometry": { "type": "Point", "coordinates": [ 7.253982071817978, 51.195641288843781 ] } },
{ "type": "Feature", "properties": { "strassenschluessel": "05120000000000143", "bezeichnung": "Am Königstein" }, "geometry": { "type": "Point", "coordinates": [ 7.167224409513543, 51.157025091700582 ] } },
{ "type": "Feature", "properties": { "strassenschluessel": "05120000000000144", "bezeichnung": "Am Langen Siepen" }, "geometry": { "type": "Point", "coordinates": [ 7.164910290302444, 51.178419973575856 ] } },
{ "type": "Feature", "properties": { "strassenschluessel": "05120000000000145", "bezeichnung": "Am Lenneper Hof" }, "geometry": { "type": "Point", "coordinates": [ 7.26810374475021, 51.185855250921662 ] } },
{ "type": "Feature", "properties": { "strassenschluessel": "05120000000000146", "bezeichnung": "Am Meisenhort" }, "geometry": { "type": "Point", "coordinates": [ 7.265732846580184, 51.193584726799997 ] } },
{ "type": "Feature", "properties": { "strassenschluessel": "05120000000000147", "bezeichnung": "Am Müggenbach" }, "geometry": { "type": "Point", "coordinates": [ 7.199385896839114, 51.193888601893804 ] } },
{ "type": "Feature", "properties": { "strassenschluessel": "05120000000000148", "bezeichnung": "Am Ostbahnhof" }, "geometry": { "type": "Point", "coordinates": [ 7.208341733269082, 51.176688309643922 ] } },
{ "type": "Feature", "properties": { "strassenschluessel": "05120000000000149", "bezeichnung": "Am Rather Berg" }, "geometry": { "type": "Point", "coordinates": [ 7.182887669839078, 51.196488213524589 ] } },
{ "type": "Feature", "properties": { "strassenschluessel": "05120000000000150", "bezeichnung": "Am Schellenberg" }, "geometry": { "type": "Point", "coordinates": [ 7.257060792369023, 51.193353863316382 ] } },
{ "type": "Feature", "properties": { "strassenschluessel": "05120000000000151", "bezeichnung": "Am Schützenplatz" }, "geometry": { "type": "Point", "coordinates": [ 7.235813628612664, 51.211011326906707 ] } },
{ "type": "Feature", "properties": { "strassenschluessel": "05120000000000152", "bezeichnung": "Am Sieper Park" }, "geometry": { "type": "Point", "coordinates": [ 7.186386107081995, 51.187933861011956 ] } },
{ "type": "Feature", "properties": { "strassenschluessel": "05120000000000153", "bezeichnung": "Am Singerberg" }, "geometry": { "type": "Point", "coordinates": [ 7.197554674854187, 51.196700336924792 ] } },
{ "type": "Feature", "properties": { "strassenschluessel": "05120000000000154", "bezeichnung": "Am Stadion" }, "geometry": { "type": "Point", "coordinates": [ 7.262601205732376, 51.189292160856603 ] } },
{ "type": "Feature", "properties": { "strassenschluessel": "05120000000000155", "bezeichnung": "Am Stadtwald" }, "geometry": { "type": "Point", "coordinates": [ 7.261482202797039, 51.180267481449732 ] } },
{ "type": "Feature", "properties": { "strassenschluessel": "05120000000000156", "bezeichnung": "Am Ueling" }, "geometry": { "type": "Point", "coordinates": [ 7.171791801870668, 51.157600818676336 ] } },
{ "type": "Feature", "properties": { "strassenschluessel": "05120000000000157", "bezeichnung": "Am Weyerhofsfeld" }, "geometry": { "type": "Point", "coordinates": [ 7.265015577277931, 51.194504002188928 ] } },
{ "type": "Feature", "properties": { "strassenschluessel": "05120000000000158", "bezeichnung": "Am Wiesenhang" }, "geometry": { "type": "Point", "coordinates": [ 7.226902364743325, 51.168176442297757 ] } },
{ "type": "Feature", "properties": { "strassenschluessel": "05120000000000159", "bezeichnung": "An den Hülsen" }, "geometry": { "type": "Point", "coordinates": [ 7.155263193667171, 51.162422483829154 ] } },
{ "type": "Feature", "properties": { "strassenschluessel": "05120000000000160", "bezeichnung": "Anton-Küppers-Weg" }, "geometry": { "type": "Point", "coordinates": [ 7.172651869148428, 51.199725753208909 ] } },
{ "type": "Feature", "properties": { "strassenschluessel": "05120000000000161", "bezeichnung": "Arnoldstraße" }, "geometry": { "type": "Point", "coordinates": [ 7.198946456819474, 51.1656895355123 ] } },
{ "type": "Feature", "properties": { "strassenschluessel": "05120000000000162", "bezeichnung": "Arnold-Wilhelm-Straße" }, "geometry": { "type": "Point", "coordinates": [ 7.251242829993647, 51.185518287070643 ] } },
{ "type": "Feature", "properties": { "strassenschluessel": "05120000000000163", "bezeichnung": "Artur-Sommer-Straße" }, "geometry": { "type": "Point", "coordinates": [ 7.273643395826267, 51.182773886184663 ] } },
{ "type": "Feature", "properties": { "strassenschluessel": "05120000000000164", "bezeichnung": "Arturstraße" }, "geometry": { "type": "Point", "coordinates": [ 7.167369347910279, 51.192885467947292 ] } },
{ "type": "Feature", "properties": { "strassenschluessel": "05120000000000165", "bezeichnung": "Asternweg" }, "geometry": { "type": "Point", "coordinates": [ 7.237891717156882, 51.216819395880584 ] } },
{ "type": "Feature", "properties": { "strassenschluessel": "05120000000000166", "bezeichnung": "Aue" }, "geometry": { "type": "Point", "coordinates": [ 7.144400440195183, 51.189145285615361 ] } },
{ "type": "Feature", "properties": { "strassenschluessel": "05120000000000167", "bezeichnung": "Auf der Hardt" }, "geometry": { "type": "Point", "coordinates": [ 7.282862614750321, 51.18903625842551 ] } },
{ "type": "Feature", "properties": { "strassenschluessel": "05120000000000168", "bezeichnung": "Auf'm Heidchen" }, "geometry": { "type": "Point", "coordinates": [ 7.227698853925081, 51.18372469472056 ] } },
{ "type": "Feature", "properties": { "strassenschluessel": "05120000000000169", "bezeichnung": "Augustenstraße" }, "geometry": { "type": "Point", "coordinates": [ 7.250977218157693, 51.184741771751064 ] } },
{ "type": "Feature", "properties": { "strassenschluessel": "05120000000000170", "bezeichnung": "August-Erbschloe-Straße" }, "geometry": { "type": "Point", "coordinates": [ 7.217635711015177, 51.20733006293657 ] } },
{ "type": "Feature", "properties": { "strassenschluessel": "05120000000000171", "bezeichnung": "Augustinusstraße" }, "geometry": { "type": "Point", "coordinates": [ 7.170529970649659, 51.167441129652346 ] } },
{ "type": "Feature", "properties": { "strassenschluessel": "05120000000000172", "bezeichnung": "Augustplatz" }, "geometry": { "type": "Point", "coordinates": [ 7.221675819429995, 51.168426254352831 ] } },
{ "type": "Feature", "properties": { "strassenschluessel": "05120000000000173", "bezeichnung": "Auguststraße" }, "geometry": { "type": "Point", "coordinates": [ 7.218887183357066, 51.1715659320787 ] } },
{ "type": "Feature", "properties": { "strassenschluessel": "05120000000000174", "bezeichnung": "Auf dem Knapp" }, "geometry": { "type": "Point", "coordinates": [ 7.228165873882038, 51.187573410904029 ] } },
{ "type": "Feature", "properties": { "strassenschluessel": "05120000000000175", "bezeichnung": "Alte Pulvermühle" }, "geometry": { "type": "Point", "coordinates": [ 7.200154437573394, 51.195229634905253 ] } },
{ "type": "Feature", "properties": { "strassenschluessel": "05120000000000176", "bezeichnung": "Am Weidenbroich" }, "geometry": { "type": "Point", "coordinates": [ 7.272449007066347, 51.152700987533386 ] } },
{ "type": "Feature", "properties": { "strassenschluessel": "05120000000000177", "bezeichnung": "Am Eichholz" }, "geometry": { "type": "Point", "coordinates": [ 7.267763808804506, 51.153226548553853 ] } },
{ "type": "Feature", "properties": { "strassenschluessel": "05120000000000178", "bezeichnung": "Am Wahlbusch" }, "geometry": { "type": "Point", "coordinates": [ 7.222994562972483, 51.169524408071183 ] } },
{ "type": "Feature", "properties": { "strassenschluessel": "05120000000000179", "bezeichnung": "Annette-von-Droste-Hülshoff-Weg" }, "geometry": { "type": "Point", "coordinates": [ 7.274468170948943, 51.192083966922944 ] } },
{ "type": "Feature", "properties": { "strassenschluessel": "05120000000000180", "bezeichnung": "Am Ginsterbusch" }, "geometry": { "type": "Point", "coordinates": [ 7.153680646697988, 51.163528607176872 ] } },
{ "type": "Feature", "properties": { "strassenschluessel": "05120000000000181", "bezeichnung": "August-Brauer-Weg" }, "geometry": { "type": "Point", "coordinates": [ 7.225358386983886, 51.168185444445321 ] } },
{ "type": "Feature", "properties": { "strassenschluessel": "05120000000000201", "bezeichnung": "Albert-Einstein-Straße" }, "geometry": { "type": "Point", "coordinates": [ 7.275391310701787, 51.201128616627749 ] } },
{ "type": "Feature", "properties": { "strassenschluessel": "05120000000000202", "bezeichnung": "Am Brunnen" }, "geometry": { "type": "Point", "coordinates": [ 7.17415983370719, 51.201378277006633 ] } },
{ "type": "Feature", "properties": { "strassenschluessel": "05120000000000203", "bezeichnung": "Auf dem Langefeld" }, "geometry": { "type": "Point", "coordinates": [ 7.232078072126994, 51.180926178376204 ] } },
{ "type": "Feature", "properties": { "strassenschluessel": "05120000000000204", "bezeichnung": "Am Goldenbergshammer" }, "geometry": { "type": "Point", "coordinates": [ 7.292739429269708, 51.162605516681495 ] } },
{ "type": "Feature", "properties": { "strassenschluessel": "05120000000000205", "bezeichnung": "Am Kranen" }, "geometry": { "type": "Point", "coordinates": [ 7.22373786469448, 51.199032399212975 ] } },
{ "type": "Feature", "properties": { "strassenschluessel": "05120000000000206", "bezeichnung": "An der Hasenjagd" }, "geometry": { "type": "Point", "coordinates": [ 7.244102641792822, 51.181804692305718 ] } },
{ "type": "Feature", "properties": { "strassenschluessel": "05120000000000207", "bezeichnung": "Am Wallenberg" }, "geometry": { "type": "Point", "coordinates": [ 7.297813142916124, 51.199100063526927 ] } },
{ "type": "Feature", "properties": { "strassenschluessel": "05120000000000207", "bezeichnung": "Am Wallenberg" }, "geometry": { "type": "Point", "coordinates": [ 7.297813142916124, 51.199100063526927 ] } },
{ "type": "Feature", "properties": { "strassenschluessel": "05120000000000208", "bezeichnung": "Am Hardtpark" }, "geometry": { "type": "Point", "coordinates": [ 7.259176373450996, 51.189121426767343 ] } },
{ "type": "Feature", "properties": { "strassenschluessel": "05120000000000209", "bezeichnung": "An der Windmühle" }, "geometry": { "type": "Point", "coordinates": [ 7.229878496824024, 51.211911312975047 ] } },
{ "type": "Feature", "properties": { "strassenschluessel": "05120000000000210", "bezeichnung": "Am Alten Flugplatz" }, "geometry": { "type": "Point", "coordinates": [ 7.212195840112489, 51.182794256740564 ] } },
{ "type": "Feature", "properties": { "strassenschluessel": "05120000000000211", "bezeichnung": "Alma-Mühlhausen-Straße" }, "geometry": { "type": "Point", "coordinates": [ 7.202067251371009, 51.161033073841331 ] } },
{ "type": "Feature", "properties": { "strassenschluessel": "05120000000000212", "bezeichnung": "Albert-Strasmann-Weg" }, "geometry": { "type": "Point", "coordinates": [ 7.169378811732819, 51.157990266408923 ] } },
{ "type": "Feature", "properties": { "strassenschluessel": "05120000000000213", "bezeichnung": "An der Tuchwiese" }, "geometry": { "type": "Point", "coordinates": [ 7.264880580957686, 51.191236476483766 ] } },
{ "type": "Feature", "properties": { "strassenschluessel": "05120000000000214", "bezeichnung": "Am Kleebach" }, "geometry": { "type": "Point", "coordinates": [ 7.278396261662321, 51.195757480706916 ] } },
{ "type": "Feature", "properties": { "strassenschluessel": "05120000000000301", "bezeichnung": "Bachstraße" }, "geometry": { "type": "Point", "coordinates": [ 7.258302983889103, 51.192868554369646 ] } },
{ "type": "Feature", "properties": { "strassenschluessel": "05120000000000302", "bezeichnung": "Bäckerstraße" }, "geometry": { "type": "Point", "coordinates": [ 7.200421459150939, 51.162458262720975 ] } },
{ "type": "Feature", "properties": { "strassenschluessel": "05120000000000303", "bezeichnung": "Bärenhammer" }, "geometry": null },
{ "type": "Feature", "properties": { "strassenschluessel": "05120000000000304", "bezeichnung": "Bahnhof" }, "geometry": { "type": "Point", "coordinates": [ 7.242027116958552, 51.21784345148825 ] } },
{ "type": "Feature", "properties": { "strassenschluessel": "05120000000000306", "bezeichnung": "Bahnhofstraße" }, "geometry": { "type": "Point", "coordinates": [ 7.255660121068449, 51.189902614204613 ] } },
{ "type": "Feature", "properties": { "strassenschluessel": "05120000000000307", "bezeichnung": "Bahnstraße" }, "geometry": { "type": "Point", "coordinates": [ 7.20186746112511, 51.162927520504446 ] } },
{ "type": "Feature", "properties": { "strassenschluessel": "05120000000000308", "bezeichnung": "Baisiepen" }, "geometry": { "type": "Point", "coordinates": [ 7.232450734297405, 51.167617409160968 ] } },
{ "type": "Feature", "properties": { "strassenschluessel": "05120000000000309", "bezeichnung": "Baisieper Straße" }, "geometry": { "type": "Point", "coordinates": [ 7.221513234925458, 51.173561006895049 ] } },
{ "type": "Feature", "properties": { "strassenschluessel": "05120000000000310", "bezeichnung": "Bandwirkerweg" }, "geometry": { "type": "Point", "coordinates": [ 7.232833567036588, 51.217842698221325 ] } },
{ "type": "Feature", "properties": { "strassenschluessel": "05120000000000311", "bezeichnung": "Bankstraße" }, "geometry": { "type": "Point", "coordinates": [ 7.191380454666592, 51.179426085161431 ] } },
{ "type": "Feature", "properties": { "strassenschluessel": "05120000000000312", "bezeichnung": "Barlachweg" }, "geometry": { "type": "Point", "coordinates": [ 7.149699462614882, 51.158920326306998 ] } },
{ "type": "Feature", "properties": { "strassenschluessel": "05120000000000313", "bezeichnung": "Barmer Straße" }, "geometry": { "type": "Point", "coordinates": [ 7.240173830273972, 51.217964128611662 ] } },
{ "type": "Feature", "properties": { "strassenschluessel": "05120000000000314", "bezeichnung": "Baumschulenweg" }, "geometry": { "type": "Point", "coordinates": [ 7.172415184444259, 51.196150363176578 ] } },
{ "type": "Feature", "properties": { "strassenschluessel": "05120000000000315", "bezeichnung": "Baustraße" }, "geometry": { "type": "Point", "coordinates": [ 7.18476289468788, 51.185326453242396 ] } },
{ "type": "Feature", "properties": { "strassenschluessel": "05120000000000316", "bezeichnung": "Becherstraße" }, "geometry": { "type": "Point", "coordinates": [ 7.15523452003641, 51.161500413159395 ] } },
{ "type": "Feature", "properties": { "strassenschluessel": "05120000000000319", "bezeichnung": "Beethovenstraße" }, "geometry": { "type": "Point", "coordinates": [ 7.174574450397248, 51.183682828080435 ] } },
{ "type": "Feature", "properties": { "strassenschluessel": "05120000000000320", "bezeichnung": "Bergfrieder Weg" }, "geometry": { "type": "Point", "coordinates": [ 7.192519635614038, 51.163113539996949 ] } },
{ "type": "Feature", "properties": { "strassenschluessel": "05120000000000321", "bezeichnung": "Berghausen" }, "geometry": { "type": "Point", "coordinates": [ 7.216220064097333, 51.167617483670078 ] } },
{ "type": "Feature", "properties": { "strassenschluessel": "05120000000000322", "bezeichnung": "Berghauser Straße" }, "geometry": { "type": "Point", "coordinates": [ 7.210849630789348, 51.171755980135188 ] } },
{ "type": "Feature", "properties": { "strassenschluessel": "05120000000000323", "bezeichnung": "Bergstraße" }, "geometry": { "type": "Point", "coordinates": [ 7.254110186886583, 51.191983147120922 ] } },
{ "type": "Feature", "properties": { "strassenschluessel": "05120000000000324", "bezeichnung": "Berliner Straße" }, "geometry": { "type": "Point", "coordinates": [ 7.257754692790246, 51.192906820727998 ] } },
{ "type": "Feature", "properties": { "strassenschluessel": "05120000000000325", "bezeichnung": "Bermesgasse" }, "geometry": { "type": "Point", "coordinates": [ 7.259461858690544, 51.195131170491159 ] } },
{ "type": "Feature", "properties": { "strassenschluessel": "05120000000000326", "bezeichnung": "Bernhardstraße" }, "geometry": { "type": "Point", "coordinates": [ 7.172797927260976, 51.172803786298914 ] } },
{ "type": "Feature", "properties": { "strassenschluessel": "05120000000000327", "bezeichnung": "Beyenburger Straße" }, "geometry": { "type": "Point", "coordinates": [ 7.241183878579888, 51.213956840257872 ] } },
{ "type": "Feature", "properties": { "strassenschluessel": "05120000000000328", "bezeichnung": "Bilscheider Hof" }, "geometry": null },
{ "type": "Feature", "properties": { "strassenschluessel": "05120000000000329", "bezeichnung": "Birgden I" }, "geometry": { "type": "Point", "coordinates": [ 7.237648898001975, 51.165957992791945 ] } },
{ "type": "Feature", "properties": { "strassenschluessel": "05120000000000330", "bezeichnung": "Birgden II" }, "geometry": { "type": "Point", "coordinates": [ 7.239803604238202, 51.179897069505003 ] } },
{ "type": "Feature", "properties": { "strassenschluessel": "05120000000000331", "bezeichnung": "Birgden III" }, "geometry": { "type": "Point", "coordinates": [ 7.205255076063446, 51.202471289367772 ] } },
{ "type": "Feature", "properties": { "strassenschluessel": "05120000000000332", "bezeichnung": "Birgder Hammer" }, "geometry": { "type": "Point", "coordinates": [ 7.201222505448277, 51.199325263521544 ] } },
{ "type": "Feature", "properties": { "strassenschluessel": "05120000000000333", "bezeichnung": "Birke" }, "geometry": { "type": "Point", "coordinates": [ 7.227179142673236, 51.209912606846736 ] } },
{ "type": "Feature", "properties": { "strassenschluessel": "05120000000000334", "bezeichnung": "Birkenstraße" }, "geometry": { "type": "Point", "coordinates": [ 7.209240471573774, 51.185178223334908 ] } },
{ "type": "Feature", "properties": { "strassenschluessel": "05120000000000335", "bezeichnung": "Birker Weg" }, "geometry": { "type": "Point", "coordinates": [ 7.227509014849119, 51.209505451430857 ] } },
{ "type": "Feature", "properties": { "strassenschluessel": "05120000000000336", "bezeichnung": "Bismarckstraße" }, "geometry": { "type": "Point", "coordinates": [ 7.205512532166458, 51.175953379308325 ] } },
{ "type": "Feature", "properties": { "strassenschluessel": "05120000000000337", "bezeichnung": "Blecherweg" }, "geometry": { "type": "Point", "coordinates": [ 7.162325825637286, 51.191010319855842 ] } },
{ "type": "Feature", "properties": { "strassenschluessel": "05120000000000338", "bezeichnung": "Bliedinghauser Kotten" }, "geometry": null },
{ "type": "Feature", "properties": { "strassenschluessel": "05120000000000339", "bezeichnung": "Bliedinghauser Straße" }, "geometry": { "type": "Point", "coordinates": [ 7.203726778619997, 51.162622878323091 ] } },
{ "type": "Feature", "properties": { "strassenschluessel": "05120000000000340", "bezeichnung": "Blücherstraße" }, "geometry": { "type": "Point", "coordinates": [ 7.168803940190936, 51.195689472312473 ] } },
{ "type": "Feature", "properties": { "strassenschluessel": "05120000000000341", "bezeichnung": "Blume" }, "geometry": { "type": "Point", "coordinates": [ 7.249307521776148, 51.202391917974701 ] } },
{ "type": "Feature", "properties": { "strassenschluessel": "05120000000000342", "bezeichnung": "Blumenstraße" }, "geometry": { "type": "Point", "coordinates": [ 7.193433445680703, 51.179399735444569 ] } },
{ "type": "Feature", "properties": { "strassenschluessel": "05120000000000343", "bezeichnung": "Blumentalstraße" }, "geometry": { "type": "Point", "coordinates": [ 7.19011847530901, 51.170128869333979 ] } },
{ "type": "Feature", "properties": { "strassenschluessel": "05120000000000344", "bezeichnung": "Bocksgasse" }, "geometry": { "type": "Point", "coordinates": [ 7.257353045058131, 51.193288664923955 ] } },
{ "type": "Feature", "properties": { "strassenschluessel": "05120000000000345", "bezeichnung": "Bongartshof" }, "geometry": { "type": "Point", "coordinates": [ 7.259478796371627, 51.192629042017316 ] } },
{ "type": "Feature", "properties": { "strassenschluessel": "05120000000000346", "bezeichnung": "Boelckestraße" }, "geometry": { "type": "Point", "coordinates": [ 7.243523593695765, 51.209217762771843 ] } },
{ "type": "Feature", "properties": { "strassenschluessel": "05120000000000347", "bezeichnung": "Böhlefeld" }, "geometry": { "type": "Point", "coordinates": [ 7.284169951433594, 51.207610733869821 ] } },
{ "type": "Feature", "properties": { "strassenschluessel": "05120000000000348", "bezeichnung": "Bogenstraße" }, "geometry": { "type": "Point", "coordinates": [ 7.174171053936753, 51.173043513950446 ] } },
{ "type": "Feature", "properties": { "strassenschluessel": "05120000000000349", "bezeichnung": "Borner Straße" }, "geometry": { "type": "Point", "coordinates": [ 7.253525093903423, 51.181439828681214 ] } },
{ "type": "Feature", "properties": { "strassenschluessel": "05120000000000350", "bezeichnung": "Bornsiepen" }, "geometry": { "type": "Point", "coordinates": [ 7.227208017161739, 51.172355868580553 ] } },
{ "type": "Feature", "properties": { "strassenschluessel": "05120000000000351", "bezeichnung": "Bornstal" }, "geometry": { "type": "Point", "coordinates": [ 7.155191128068171, 51.16657066497001 ] } },
{ "type": "Feature", "properties": { "strassenschluessel": "05120000000000352", "bezeichnung": "Botengasse" }, "geometry": { "type": "Point", "coordinates": [ 7.256121219362376, 51.192391286635377 ] } },
{ "type": "Feature", "properties": { "strassenschluessel": "05120000000000354", "bezeichnung": "Brandgasse" }, "geometry": { "type": "Point", "coordinates": [ 7.25623718338226, 51.191711347906633 ] } },
{ "type": "Feature", "properties": { "strassenschluessel": "05120000000000355", "bezeichnung": "Bredestraße" }, "geometry": { "type": "Point", "coordinates": [ 7.269505943679134, 51.198342246728942 ] } },
{ "type": "Feature", "properties": { "strassenschluessel": "05120000000000356", "bezeichnung": "Brehmstraße" }, "geometry": { "type": "Point", "coordinates": [ 7.265739923506318, 51.191203076644648 ] } },
{ "type": "Feature", "properties": { "strassenschluessel": "05120000000000357", "bezeichnung": "Breitenbruch" }, "geometry": { "type": "Point", "coordinates": [ 7.149479668273353, 51.193313992760217 ] } },
{ "type": "Feature", "properties": { "strassenschluessel": "05120000000000359", "bezeichnung": "Bremen" }, "geometry": { "type": "Point", "coordinates": [ 7.166594878863307, 51.190929409208067 ] } },
{ "type": "Feature", "properties": { "strassenschluessel": "05120000000000360", "bezeichnung": "Breslauer Straße" }, "geometry": { "type": "Point", "coordinates": [ 7.227453254403753, 51.171737529322513 ] } },
{ "type": "Feature", "properties": { "strassenschluessel": "05120000000000361", "bezeichnung": "Brucher Straße" }, "geometry": { "type": "Point", "coordinates": [ 7.18245174885897, 51.178689682724212 ] } },
{ "type": "Feature", "properties": { "strassenschluessel": "05120000000000362", "bezeichnung": "Brückenstraße" }, "geometry": { "type": "Point", "coordinates": [ 7.167285771623378, 51.172532620316829 ] } },
{ "type": "Feature", "properties": { "strassenschluessel": "05120000000000363", "bezeichnung": "Brüderstraße" }, "geometry": { "type": "Point", "coordinates": [ 7.183114154821345, 51.178867247859067 ] } },
{ "type": "Feature", "properties": { "strassenschluessel": "05120000000000364", "bezeichnung": "Brunnengasse" }, "geometry": { "type": "Point", "coordinates": [ 7.198808066399261, 51.179037429523881 ] } },
{ "type": "Feature", "properties": { "strassenschluessel": "05120000000000365", "bezeichnung": "Buchenstraße" }, "geometry": { "type": "Point", "coordinates": [ 7.204585633976554, 51.179800064576305 ] } },
{ "type": "Feature", "properties": { "strassenschluessel": "05120000000000366", "bezeichnung": "Buchholzen" }, "geometry": { "type": "Point", "coordinates": [ 7.249767036538551, 51.161201391837075 ] } },
{ "type": "Feature", "properties": { "strassenschluessel": "05120000000000367", "bezeichnung": "Buchholzer Weg" }, "geometry": { "type": "Point", "coordinates": [ 7.264283759578375, 51.159806511605112 ] } },
{ "type": "Feature", "properties": { "strassenschluessel": "05120000000000368", "bezeichnung": "Büchel" }, "geometry": { "type": "Point", "coordinates": [ 7.174828847330085, 51.197899745739853 ] } },
{ "type": "Feature", "properties": { "strassenschluessel": "05120000000000369", "bezeichnung": "Büchelstraße" }, "geometry": { "type": "Point", "coordinates": [ 7.172837297932118, 51.198100795815677 ] } },
{ "type": "Feature", "properties": { "strassenschluessel": "05120000000000370", "bezeichnung": "Büchener Straße" }, "geometry": { "type": "Point", "coordinates": [ 7.171708408030049, 51.179125996993108 ] } },
{ "type": "Feature", "properties": { "strassenschluessel": "05120000000000371", "bezeichnung": "Burger Straße" }, "geometry": { "type": "Point", "coordinates": [ 7.204661260461278, 51.169848645348139 ] } },
{ "type": "Feature", "properties": { "strassenschluessel": "05120000000000372", "bezeichnung": "Buscher Hof" }, "geometry": { "type": "Point", "coordinates": [ 7.236107880171915, 51.200326310479596 ] } },
{ "type": "Feature", "properties": { "strassenschluessel": "05120000000000373", "bezeichnung": "Buschstraße" }, "geometry": { "type": "Point", "coordinates": [ 7.193119365850458, 51.187282020627777 ] } },
{ "type": "Feature", "properties": { "strassenschluessel": "05120000000000402", "bezeichnung": "Bornbach" }, "geometry": { "type": "Point", "coordinates": [ 7.275305668692047, 51.146894397732524 ] } },
{ "type": "Feature", "properties": { "strassenschluessel": "05120000000000403", "bezeichnung": "Bornefelder Straße" }, "geometry": { "type": "Point", "coordinates": [ 7.266495946743957, 51.154059213098435 ] } },
{ "type": "Feature", "properties": { "strassenschluessel": "05120000000000404", "bezeichnung": "Bergisch Born" }, "geometry": { "type": "Point", "coordinates": [ 7.267007780112858, 51.162877466999419 ] } },
{ "type": "Feature", "properties": { "strassenschluessel": "05120000000000405", "bezeichnung": "Bergwerkstraße" }, "geometry": { "type": "Point", "coordinates": [ 7.153920726231963, 51.156746292432572 ] } },
{ "type": "Feature", "properties": { "strassenschluessel": "05120000000000406", "bezeichnung": "Birgderkamper Brücke" }, "geometry": null },
{ "type": "Feature", "properties": { "strassenschluessel": "05120000000000408", "bezeichnung": "Bungestraße" }, "geometry": { "type": "Point", "coordinates": [ 7.197428509159999, 51.179206067153146 ] } },
{ "type": "Feature", "properties": { "strassenschluessel": "05120000000000409", "bezeichnung": "Bornbacher Straße" }, "geometry": { "type": "Point", "coordinates": [ 7.263938449999753, 51.152133829289831 ] } },
{ "type": "Feature", "properties": { "strassenschluessel": "05120000000000410", "bezeichnung": "Birgdener Berg" }, "geometry": { "type": "Point", "coordinates": [ 7.203654957250801, 51.20283942360021 ] } },
{ "type": "Feature", "properties": { "strassenschluessel": "05120000000000411", "bezeichnung": "Birker Feld" }, "geometry": { "type": "Point", "coordinates": [ 7.227935947160288, 51.210441319632331 ] } },
{ "type": "Feature", "properties": { "strassenschluessel": "05120000000000501", "bezeichnung": "Carl-Friederichs-Straße" }, "geometry": { "type": "Point", "coordinates": [ 7.179241712501499, 51.184928250616821 ] } },
{ "type": "Feature", "properties": { "strassenschluessel": "05120000000000502", "bezeichnung": "Carl-Grüber-Weg" }, "geometry": { "type": "Point", "coordinates": [ 7.172413210821666, 51.185932521446567 ] } },
{ "type": "Feature", "properties": { "strassenschluessel": "05120000000000503", "bezeichnung": "Carl-Hessenbruch-Weg" }, "geometry": { "type": "Point", "coordinates": [ 7.163489368490718, 51.186163023552318 ] } },
{ "type": "Feature", "properties": { "strassenschluessel": "05120000000000504", "bezeichnung": "Carl-Klein-Straße" }, "geometry": { "type": "Point", "coordinates": [ 7.267926731912799, 51.184130452926773 ] } },
{ "type": "Feature", "properties": { "strassenschluessel": "05120000000000506", "bezeichnung": "Christhauser Straße" }, "geometry": { "type": "Point", "coordinates": [ 7.27581382989092, 51.191600961464964 ] } },
{ "type": "Feature", "properties": { "strassenschluessel": "05120000000000507", "bezeichnung": "Christian-Meyer-Straße" }, "geometry": { "type": "Point", "coordinates": [ 7.277869691116287, 51.185365419217185 ] } },
{ "type": "Feature", "properties": { "strassenschluessel": "05120000000000508", "bezeichnung": "Christianstraße" }, "geometry": { "type": "Point", "coordinates": [ 7.182726638022824, 51.185067477616798 ] } },
{ "type": "Feature", "properties": { "strassenschluessel": "05120000000000509", "bezeichnung": "Cleffstraße" }, "geometry": { "type": "Point", "coordinates": [ 7.165655807942671, 51.197167765072891 ] } },
{ "type": "Feature", "properties": { "strassenschluessel": "05120000000000510", "bezeichnung": "Clemenshammer" }, "geometry": { "type": "Point", "coordinates": [ 7.166460453759329, 51.202190640828789 ] } },
{ "type": "Feature", "properties": { "strassenschluessel": "05120000000000511", "bezeichnung": "Claudiusweg" }, "geometry": { "type": "Point", "coordinates": [ 7.273348074172351, 51.192603165350185 ] } },
{ "type": "Feature", "properties": { "strassenschluessel": "05120000000000601", "bezeichnung": "Carl-Borchardt-Straße" }, "geometry": { "type": "Point", "coordinates": [ 7.218426926654721, 51.170793756769086 ] } },
{ "type": "Feature", "properties": { "strassenschluessel": "05120000000000701", "bezeichnung": "Dachsweg" }, "geometry": { "type": "Point", "coordinates": [ 7.23222174092219, 51.216105245695537 ] } },
{ "type": "Feature", "properties": { "strassenschluessel": "05120000000000702", "bezeichnung": "Dahlienweg" }, "geometry": { "type": "Point", "coordinates": [ 7.238487882192316, 51.215941152231927 ] } },
{ "type": "Feature", "properties": { "strassenschluessel": "05120000000000703", "bezeichnung": "Damaschkestraße" }, "geometry": { "type": "Point", "coordinates": [ 7.235438791495162, 51.179581022708355 ] } },
{ "type": "Feature", "properties": { "strassenschluessel": "05120000000000704", "bezeichnung": "Dammstraße" }, "geometry": { "type": "Point", "coordinates": [ 7.165029933926784, 51.175736334448658 ] } },
{ "type": "Feature", "properties": { "strassenschluessel": "05120000000000705", "bezeichnung": "Daniel-Schürmann-Straße" }, "geometry": { "type": "Point", "coordinates": [ 7.185645267392354, 51.180029122484001 ] } },
{ "type": "Feature", "properties": { "strassenschluessel": "05120000000000706", "bezeichnung": "Danielshammer" }, "geometry": { "type": "Point", "coordinates": [ 7.212137305972893, 51.193478377524045 ] } },
{ "type": "Feature", "properties": { "strassenschluessel": "05120000000000707", "bezeichnung": "David-Dominicus-Straße" }, "geometry": { "type": "Point", "coordinates": [ 7.161079241146942, 51.183830819838732 ] } },
{ "type": "Feature", "properties": { "strassenschluessel": "05120000000000708", "bezeichnung": "Dicke Eiche" }, "geometry": { "type": "Point", "coordinates": [ 7.191347882240989, 51.168842715361265 ] } },
{ "type": "Feature", "properties": { "strassenschluessel": "05120000000000709", "bezeichnung": "Diederichsstraße" }, "geometry": { "type": "Point", "coordinates": [ 7.189315329337809, 51.194031983559675 ] } },
{ "type": "Feature", "properties": { "strassenschluessel": "05120000000000710", "bezeichnung": "Diepmannsbach" }, "geometry": { "type": "Point", "coordinates": [ 7.232274626097023, 51.192472463957891 ] } },
{ "type": "Feature", "properties": { "strassenschluessel": "05120000000000711", "bezeichnung": "Diepmannsbacher Straße" }, "geometry": { "type": "Point", "coordinates": [ 7.234102202259403, 51.19310169842182 ] } },
{ "type": "Feature", "properties": { "strassenschluessel": "05120000000000712", "bezeichnung": "Doddestraße" }, "geometry": { "type": "Point", "coordinates": [ 7.231106248368925, 51.174732092568476 ] } },
{ "type": "Feature", "properties": { "strassenschluessel": "05120000000000713", "bezeichnung": "Dorfmühler Straße" }, "geometry": { "type": "Point", "coordinates": [ 7.200872856663143, 51.181548732931724 ] } },
{ "type": "Feature", "properties": { "strassenschluessel": "05120000000000714", "bezeichnung": "Dorfmüllershammer" }, "geometry": { "type": "Point", "coordinates": [ 7.212091745406817, 51.157559046421362 ] } },
{ "type": "Feature", "properties": { "strassenschluessel": "05120000000000715", "bezeichnung": "Dowidatsiedlung" }, "geometry": { "type": "Point", "coordinates": [ 7.217097917678327, 51.202242511383055 ] } },
{ "type": "Feature", "properties": { "strassenschluessel": "05120000000000716", "bezeichnung": "Dreherstraße" }, "geometry": { "type": "Point", "coordinates": [ 7.230554829781132, 51.222453003514801 ] } },
{ "type": "Feature", "properties": { "strassenschluessel": "05120000000000717", "bezeichnung": "Dreiangelstraße" }, "geometry": { "type": "Point", "coordinates": [ 7.161854593911158, 51.198862251630814 ] } },
{ "type": "Feature", "properties": { "strassenschluessel": "05120000000000718", "bezeichnung": "Dresdner Straße" }, "geometry": { "type": "Point", "coordinates": [ 7.222082119045433, 51.17549550385398 ] } },
{ "type": "Feature", "properties": { "strassenschluessel": "05120000000000719", "bezeichnung": "Düppelstraße" }, "geometry": { "type": "Point", "coordinates": [ 7.191040232245104, 51.192780698284658 ] } },
{ "type": "Feature", "properties": { "strassenschluessel": "05120000000000720", "bezeichnung": "Düringer Straße" }, "geometry": { "type": "Point", "coordinates": [ 7.24196543022981, 51.212682558797397 ] } },
{ "type": "Feature", "properties": { "strassenschluessel": "05120000000000721", "bezeichnung": "Düstergasse" }, "geometry": { "type": "Point", "coordinates": [ 7.254672961411625, 51.18989792554062 ] } },
{ "type": "Feature", "properties": { "strassenschluessel": "05120000000000722", "bezeichnung": "Durchsholz" }, "geometry": { "type": "Point", "coordinates": [ 7.295726677160759, 51.195884573547858 ] } },
{ "type": "Feature", "properties": { "strassenschluessel": "05120000000000723", "bezeichnung": "Danziger Straße" }, "geometry": { "type": "Point", "coordinates": [ 7.273313798574275, 51.155609457452933 ] } },
{ "type": "Feature", "properties": { "strassenschluessel": "05120000000000724", "bezeichnung": "Dr.-Walther-Hartmann-Straße" }, "geometry": { "type": "Point", "coordinates": [ 7.189339461173442, 51.165973025193772 ] } },
{ "type": "Feature", "properties": { "strassenschluessel": "05120000000000725", "bezeichnung": "Dr.-Walter-Lorenz-Weg" }, "geometry": { "type": "Point", "coordinates": [ 7.175497059753418, 51.161037116768362 ] } },
{ "type": "Feature", "properties": { "strassenschluessel": "05120000000000801", "bezeichnung": "Dörrenberg" }, "geometry": { "type": "Point", "coordinates": [ 7.225464180046816, 51.213557714750969 ] } },
{ "type": "Feature", "properties": { "strassenschluessel": "05120000000000802", "bezeichnung": "Dörpe" }, "geometry": { "type": "Point", "coordinates": [ 7.295119436393168, 51.149019801114491 ] } },
{ "type": "Feature", "properties": { "strassenschluessel": "05120000000000803", "bezeichnung": "Dörperhöhe" }, "geometry": { "type": "Point", "coordinates": [ 7.300591345468516, 51.178012229705836 ] } },
{ "type": "Feature", "properties": { "strassenschluessel": "05120000000000804", "bezeichnung": "Dörpholz" }, "geometry": { "type": "Point", "coordinates": [ 7.290622805055317, 51.174457862930026 ] } },
{ "type": "Feature", "properties": { "strassenschluessel": "05120000000000805", "bezeichnung": "Dörpmühle" }, "geometry": { "type": "Point", "coordinates": [ 7.299173101589123, 51.164798759252882 ] } },
{ "type": "Feature", "properties": { "strassenschluessel": "05120000000000806", "bezeichnung": "Dorfstraße" }, "geometry": { "type": "Point", "coordinates": [ 7.281535183687526, 51.201568193690001 ] } },
{ "type": "Feature", "properties": { "strassenschluessel": "05120000000000807", "bezeichnung": "Dörpersteeg" }, "geometry": { "type": "Point", "coordinates": [ 7.295936992079877, 51.151520543429427 ] } },
{ "type": "Feature", "properties": { "strassenschluessel": "05120000000000901", "bezeichnung": "Eberhardstraße" }, "geometry": { "type": "Point", "coordinates": [ 7.175751353480142, 51.189337578472035 ] } },
{ "type": "Feature", "properties": { "strassenschluessel": "05120000000000902", "bezeichnung": "Edelhoffstraße" }, "geometry": { "type": "Point", "coordinates": [ 7.162879970513651, 51.190024422273162 ] } },
{ "type": "Feature", "properties": { "strassenschluessel": "05120000000000903", "bezeichnung": "Eduardstraße" }, "geometry": { "type": "Point", "coordinates": [ 7.171407158382996, 51.194087609661132 ] } },
{ "type": "Feature", "properties": { "strassenschluessel": "05120000000000904", "bezeichnung": "Ehringhausen" }, "geometry": { "type": "Point", "coordinates": [ 7.176182726595009, 51.160845644619997 ] } },
{ "type": "Feature", "properties": { "strassenschluessel": "05120000000000906", "bezeichnung": "Eichendorffweg" }, "geometry": { "type": "Point", "coordinates": [ 7.219880819604269, 51.175710951196308 ] } },
{ "type": "Feature", "properties": { "strassenschluessel": "05120000000000907", "bezeichnung": "Eichenstraße" }, "geometry": { "type": "Point", "coordinates": [ 7.207267842548926, 51.178717466224988 ] } },
{ "type": "Feature", "properties": { "strassenschluessel": "05120000000000908", "bezeichnung": "Einigkeitstraße" }, "geometry": null },
{ "type": "Feature", "properties": { "strassenschluessel": "05120000000000909", "bezeichnung": "Eisenstraße" }, "geometry": { "type": "Point", "coordinates": [ 7.212168054352956, 51.174487670849274 ] } },
{ "type": "Feature", "properties": { "strassenschluessel": "05120000000000910", "bezeichnung": "Eisernsteinstraße" }, "geometry": { "type": "Point", "coordinates": [ 7.239884041098837, 51.213623361781345 ] } },
{ "type": "Feature", "properties": { "strassenschluessel": "05120000000000911", "bezeichnung": "Elberfelder Straße" }, "geometry": { "type": "Point", "coordinates": [ 7.192726935706075, 51.181781131170773 ] } },
{ "type": "Feature", "properties": { "strassenschluessel": "05120000000000912", "bezeichnung": "Elbersstraße" }, "geometry": { "type": "Point", "coordinates": [ 7.23525103782425, 51.207405623630237 ] } },
{ "type": "Feature", "properties": { "strassenschluessel": "05120000000000913", "bezeichnung": "Elisabethplatz" }, "geometry": { "type": "Point", "coordinates": [ 7.231738006692969, 51.176704848359996 ] } },
{ "type": "Feature", "properties": { "strassenschluessel": "05120000000000914", "bezeichnung": "Elisabethstraße" }, "geometry": { "type": "Point", "coordinates": [ 7.201896128150331, 51.17208103486945 ] } },
{ "type": "Feature", "properties": { "strassenschluessel": "05120000000000916", "bezeichnung": "Emilienstraße" }, "geometry": { "type": "Point", "coordinates": [ 7.176345807373005, 51.188090959244661 ] } },
{ "type": "Feature", "properties": { "strassenschluessel": "05120000000000917", "bezeichnung": "Emil-Nohl-Straße" }, "geometry": { "type": "Point", "coordinates": [ 7.271520506228595, 51.185632103946382 ] } },
{ "type": "Feature", "properties": { "strassenschluessel": "05120000000000918", "bezeichnung": "Emil-Rittershaus-Straße" }, "geometry": { "type": "Point", "coordinates": [ 7.176158047084945, 51.182402908045283 ] } },
{ "type": "Feature", "properties": { "strassenschluessel": "05120000000000919", "bezeichnung": "Endringhausen" }, "geometry": { "type": "Point", "coordinates": [ 7.243497165384346, 51.19544227853531 ] } },
{ "type": "Feature", "properties": { "strassenschluessel": "05120000000000920", "bezeichnung": "Endringhauser Straße" }, "geometry": { "type": "Point", "coordinates": [ 7.250359055965826, 51.195407725488003 ] } },
{ "type": "Feature", "properties": { "strassenschluessel": "05120000000000921", "bezeichnung": "Engelbertstraße" }, "geometry": { "type": "Point", "coordinates": [ 7.213184129240028, 51.171739194279333 ] } },
{ "type": "Feature", "properties": { "strassenschluessel": "05120000000000922", "bezeichnung": "Engelsberg" }, "geometry": { "type": "Point", "coordinates": [ 7.180894973154855, 51.168301539403068 ] } },
{ "type": "Feature", "properties": { "strassenschluessel": "05120000000000923", "bezeichnung": "Erdelenstraße" }, "geometry": { "type": "Point", "coordinates": [ 7.18983153619388, 51.19135608983477 ] } },
{ "type": "Feature", "properties": { "strassenschluessel": "05120000000000924", "bezeichnung": "Erholungstraße" }, "geometry": { "type": "Point", "coordinates": [ 7.189828501182146, 51.179949778978745 ] } },
{ "type": "Feature", "properties": { "strassenschluessel": "05120000000000925", "bezeichnung": "Erlenstraße" }, "geometry": { "type": "Point", "coordinates": [ 7.206317430473509, 51.18288600954385 ] } },
{ "type": "Feature", "properties": { "strassenschluessel": "05120000000000926", "bezeichnung": "Ernststraße" }, "geometry": { "type": "Point", "coordinates": [ 7.186560483878414, 51.173568356368243 ] } },
{ "type": "Feature", "properties": { "strassenschluessel": "05120000000000927", "bezeichnung": "Eschbachtal" }, "geometry": { "type": "Point", "coordinates": [ 7.218903880653212, 51.16100328820238 ] } },
{ "type": "Feature", "properties": { "strassenschluessel": "05120000000000928", "bezeichnung": "Eschenstraße" }, "geometry": { "type": "Point", "coordinates": [ 7.208358985833968, 51.184725310094521 ] } },
{ "type": "Feature", "properties": { "strassenschluessel": "05120000000000929", "bezeichnung": "Eugenstraße" }, "geometry": { "type": "Point", "coordinates": [ 7.2559396384918, 51.185502141812648 ] } },
{ "type": "Feature", "properties": { "strassenschluessel": "05120000000000930", "bezeichnung": "Ewaldstraße" }, "geometry": { "type": "Point", "coordinates": [ 7.206248809068391, 51.172272761510662 ] } },
{ "type": "Feature", "properties": { "strassenschluessel": "05120000000000931", "bezeichnung": "Erich-Thienes-Straße" }, "geometry": { "type": "Point", "coordinates": [ 7.224693846180524, 51.172182682234954 ] } },
{ "type": "Feature", "properties": { "strassenschluessel": "05120000000000932", "bezeichnung": "Engelspassage" }, "geometry": { "type": "Point", "coordinates": [ 7.192434895936985, 51.180550731696485 ] } },
{ "type": "Feature", "properties": { "strassenschluessel": "05120000000001001", "bezeichnung": "Eichendahler Hof" }, "geometry": { "type": "Point", "coordinates": [ 7.269967286839627, 51.168918514613019 ] } },
{ "type": "Feature", "properties": { "strassenschluessel": "05120000000001002", "bezeichnung": "Eichenhof" }, "geometry": { "type": "Point", "coordinates": [ 7.270052701118886, 51.17233977654373 ] } },
{ "type": "Feature", "properties": { "strassenschluessel": "05120000000001003", "bezeichnung": "Engelsburg" }, "geometry": { "type": "Point", "coordinates": [ 7.273215017609515, 51.167589908651479 ] } },
{ "type": "Feature", "properties": { "strassenschluessel": "05120000000001004", "bezeichnung": "Eversbergweg" }, "geometry": null },
{ "type": "Feature", "properties": { "strassenschluessel": "05120000000001005", "bezeichnung": "Erwin-Stursberg-Weg" }, "geometry": { "type": "Point", "coordinates": [ 7.220503923643739, 51.200047818973644 ] } },
{ "type": "Feature", "properties": { "strassenschluessel": "05120000000001006", "bezeichnung": "Eibenweg" }, "geometry": { "type": "Point", "coordinates": [ 7.253919723988505, 51.199242071965209 ] } },
{ "type": "Feature", "properties": { "strassenschluessel": "05120000000001007", "bezeichnung": "Emil-von-Bernuth-Straße" }, "geometry": { "type": "Point", "coordinates": [ 7.278596659833599, 51.195095770318446 ] } },
{ "type": "Feature", "properties": { "strassenschluessel": "05120000000001101", "bezeichnung": "Fachschulstraße" }, "geometry": { "type": "Point", "coordinates": [ 7.182963222415076, 51.184699240193268 ] } },
{ "type": "Feature", "properties": { "strassenschluessel": "05120000000001102", "bezeichnung": "Falkenberg" }, "geometry": { "type": "Point", "coordinates": [ 7.210855135653338, 51.161980293954571 ] } },
{ "type": "Feature", "properties": { "strassenschluessel": "05120000000001103", "bezeichnung": "Falkenberger Straße" }, "geometry": { "type": "Point", "coordinates": [ 7.212891825426859, 51.168012527470779 ] } },
{ "type": "Feature", "properties": { "strassenschluessel": "05120000000001104", "bezeichnung": "Farrenbracken" }, "geometry": { "type": "Point", "coordinates": [ 7.198917455312588, 51.202517659329075 ] } },
{ "type": "Feature", "properties": { "strassenschluessel": "05120000000001105", "bezeichnung": "Fasanenweg" }, "geometry": { "type": "Point", "coordinates": [ 7.15015747795667, 51.150785878419995 ] } },
{ "type": "Feature", "properties": { "strassenschluessel": "05120000000001106", "bezeichnung": "Fastenrathstraße" }, "geometry": { "type": "Point", "coordinates": [ 7.184847142826419, 51.181749023848326 ] } },
{ "type": "Feature", "properties": { "strassenschluessel": "05120000000001107", "bezeichnung": "Feilenhauerweg" }, "geometry": { "type": "Point", "coordinates": [ 7.199913321718663, 51.173173026339562 ] } },
{ "type": "Feature", "properties": { "strassenschluessel": "05120000000001108", "bezeichnung": "Felder Höhe" }, "geometry": { "type": "Point", "coordinates": [ 7.242854665469461, 51.204415652779559 ] } },
{ "type": "Feature", "properties": { "strassenschluessel": "05120000000001109", "bezeichnung": "Felder Hof" }, "geometry": { "type": "Point", "coordinates": [ 7.240072646209057, 51.205202969516158 ] } },
{ "type": "Feature", "properties": { "strassenschluessel": "05120000000001110", "bezeichnung": "Feldstraße" }, "geometry": { "type": "Point", "coordinates": [ 7.238248726452979, 51.208113415569592 ] } },
{ "type": "Feature", "properties": { "strassenschluessel": "05120000000001111", "bezeichnung": "Ferdinand-Lassalle-Straße" }, "geometry": { "type": "Point", "coordinates": [ 7.176623916050737, 51.19058351899367 ] } },
{ "type": "Feature", "properties": { "strassenschluessel": "05120000000001112", "bezeichnung": "Fichtenstraße" }, "geometry": { "type": "Point", "coordinates": [ 7.205195164153374, 51.183004536706385 ] } },
{ "type": "Feature", "properties": { "strassenschluessel": "05120000000001113", "bezeichnung": "Finkengasse" }, "geometry": { "type": "Point", "coordinates": [ 7.181849911409773, 51.180762278674862 ] } },
{ "type": "Feature", "properties": { "strassenschluessel": "05120000000001114", "bezeichnung": "Fischerstraße" }, "geometry": { "type": "Point", "coordinates": [ 7.205244211414858, 51.172516838646416 ] } },
{ "type": "Feature", "properties": { "strassenschluessel": "05120000000001115", "bezeichnung": "Fliederweg" }, "geometry": { "type": "Point", "coordinates": [ 7.228866854836946, 51.210467503114302 ] } },
{ "type": "Feature", "properties": { "strassenschluessel": "05120000000001116", "bezeichnung": "Flügel" }, "geometry": { "type": "Point", "coordinates": [ 7.205074053666817, 51.209458437780043 ] } },
{ "type": "Feature", "properties": { "strassenschluessel": "05120000000001117", "bezeichnung": "Flurstraße" }, "geometry": { "type": "Point", "coordinates": [ 7.193409087687466, 51.166606661395477 ] } },
{ "type": "Feature", "properties": { "strassenschluessel": "05120000000001118", "bezeichnung": "Flurweg" }, "geometry": { "type": "Point", "coordinates": [ 7.255637216006313, 51.180692660439419 ] } },
{ "type": "Feature", "properties": { "strassenschluessel": "05120000000001119", "bezeichnung": "Föhrenstraße" }, "geometry": { "type": "Point", "coordinates": [ 7.205139724912665, 51.181395798935093 ] } },
{ "type": "Feature", "properties": { "strassenschluessel": "05120000000001120", "bezeichnung": "Frantzengäßchen" }, "geometry": { "type": "Point", "coordinates": [ 7.185149687291127, 51.178216474527183 ] } },
{ "type": "Feature", "properties": { "strassenschluessel": "05120000000001121", "bezeichnung": "Franz-Heinrich-Straße" }, "geometry": { "type": "Point", "coordinates": [ 7.261116297517893, 51.189025924685289 ] } },
{ "type": "Feature", "properties": { "strassenschluessel": "05120000000001122", "bezeichnung": "Franzstraße" }, "geometry": { "type": "Point", "coordinates": [ 7.164973319899977, 51.194697667884249 ] } },
{ "type": "Feature", "properties": { "strassenschluessel": "05120000000001123", "bezeichnung": "Franz-Vogt-Straße" }, "geometry": { "type": "Point", "coordinates": [ 7.255529911098061, 51.183216117990348 ] } },
{ "type": "Feature", "properties": { "strassenschluessel": "05120000000001124", "bezeichnung": "Freiheitstraße" }, "geometry": { "type": "Point", "coordinates": [ 7.189958668136739, 51.178008987702462 ] } },
{ "type": "Feature", "properties": { "strassenschluessel": "05120000000001125", "bezeichnung": "Freiherr-vom-Stein-Straße" }, "geometry": { "type": "Point", "coordinates": [ 7.183591999293946, 51.178986455132154 ] } },
{ "type": "Feature", "properties": { "strassenschluessel": "05120000000001126", "bezeichnung": "Friedensstraße" }, "geometry": { "type": "Point", "coordinates": [ 7.202024016354383, 51.162469701023269 ] } },
{ "type": "Feature", "properties": { "strassenschluessel": "05120000000001127", "bezeichnung": "Friedhofstraße" }, "geometry": { "type": "Point", "coordinates": [ 7.239093468665089, 51.207425598923066 ] } },
{ "type": "Feature", "properties": { "strassenschluessel": "05120000000001128", "bezeichnung": "Friedrich-Ebert-Platz" }, "geometry": { "type": "Point", "coordinates": [ 7.191517483335986, 51.18122794554214 ] } },
{ "type": "Feature", "properties": { "strassenschluessel": "05120000000001129", "bezeichnung": "Friedrichstraße" }, "geometry": { "type": "Point", "coordinates": [ 7.261905816148016, 51.188720373492544 ] } },
{ "type": "Feature", "properties": { "strassenschluessel": "05120000000001130", "bezeichnung": "Fritz-Reuter-Straße" }, "geometry": { "type": "Point", "coordinates": [ 7.26997907197678, 51.194062570392056 ] } },
{ "type": "Feature", "properties": { "strassenschluessel": "05120000000001131", "bezeichnung": "Fuchsweg" }, "geometry": { "type": "Point", "coordinates": [ 7.235374246535065, 51.216187091200169 ] } },
{ "type": "Feature", "properties": { "strassenschluessel": "05120000000001132", "bezeichnung": "Fürberg" }, "geometry": { "type": "Point", "coordinates": [ 7.154432538031587, 51.184851271154642 ] } },
{ "type": "Feature", "properties": { "strassenschluessel": "05120000000001133", "bezeichnung": "Fürberger Land" }, "geometry": { "type": "Point", "coordinates": [ 7.153285064124561, 51.182484132420448 ] } },
{ "type": "Feature", "properties": { "strassenschluessel": "05120000000001134", "bezeichnung": "Fürberger Straße" }, "geometry": { "type": "Point", "coordinates": [ 7.161015155923489, 51.182131706169073 ] } },
{ "type": "Feature", "properties": { "strassenschluessel": "05120000000001135", "bezeichnung": "Franckestraße" }, "geometry": { "type": "Point", "coordinates": [ 7.28160295210237, 51.200494231338077 ] } },
{ "type": "Feature", "properties": { "strassenschluessel": "05120000000001136", "bezeichnung": "Fritz-Ruhrmann-Straße" }, "geometry": { "type": "Point", "coordinates": [ 7.221102829752232, 51.214931717098104 ] } },
{ "type": "Feature", "properties": { "strassenschluessel": "05120000000001202", "bezeichnung": "Forsten" }, "geometry": { "type": "Point", "coordinates": [ 7.284069045796515, 51.164975567725669 ] } },
{ "type": "Feature", "properties": { "strassenschluessel": "05120000000001203", "bezeichnung": "Färberweg" }, "geometry": { "type": "Point", "coordinates": [ 7.265933631856858, 51.186900201990049 ] } },
{ "type": "Feature", "properties": { "strassenschluessel": "05120000000001204", "bezeichnung": "Friedrich-Naumann-Weg" }, "geometry": { "type": "Point", "coordinates": [ 7.228355585507614, 51.213356581364408 ] } },
{ "type": "Feature", "properties": { "strassenschluessel": "05120000000001205", "bezeichnung": "Fritz-Figge-Weg" }, "geometry": { "type": "Point", "coordinates": [ 7.259497358138401, 51.193117849757144 ] } },
{ "type": "Feature", "properties": { "strassenschluessel": "05120000000001206", "bezeichnung": "Fontanestraße" }, "geometry": { "type": "Point", "coordinates": [ 7.270511901029088, 51.192005692775631 ] } },
{ "type": "Feature", "properties": { "strassenschluessel": "05120000000001207", "bezeichnung": "Fritz-Schultz-Straße" }, "geometry": { "type": "Point", "coordinates": [ 7.27730617318062, 51.195524726740807 ] } },
{ "type": "Feature", "properties": { "strassenschluessel": "05120000000001301", "bezeichnung": "Gabelsbergerstraße" }, "geometry": { "type": "Point", "coordinates": [ 7.176828555815247, 51.182280145440252 ] } },
{ "type": "Feature", "properties": { "strassenschluessel": "05120000000001302", "bezeichnung": "Gänsemarkt" }, "geometry": { "type": "Point", "coordinates": [ 7.257526798777572, 51.193881101031508 ] } },
{ "type": "Feature", "properties": { "strassenschluessel": "05120000000001303", "bezeichnung": "Garnixhäuschen" }, "geometry": { "type": "Point", "coordinates": [ 7.262270273134011, 51.20198559368913 ] } },
{ "type": "Feature", "properties": { "strassenschluessel": "05120000000001304", "bezeichnung": "Garschager Heide" }, "geometry": { "type": "Point", "coordinates": [ 7.24941960116604, 51.208211021811252 ] } },
{ "type": "Feature", "properties": { "strassenschluessel": "05120000000001305", "bezeichnung": "Garschager Straße" }, "geometry": { "type": "Point", "coordinates": [ 7.246457298931858, 51.206533181420987 ] } },
{ "type": "Feature", "properties": { "strassenschluessel": "05120000000001306", "bezeichnung": "Gartenstraße" }, "geometry": { "type": "Point", "coordinates": [ 7.253831762490218, 51.194068698547561 ] } },
{ "type": "Feature", "properties": { "strassenschluessel": "05120000000001307", "bezeichnung": "Geibelstraße" }, "geometry": { "type": "Point", "coordinates": [ 7.173179086148023, 51.182749339881241 ] } },
{ "type": "Feature", "properties": { "strassenschluessel": "05120000000001308", "bezeichnung": "Gerberstraße" }, "geometry": { "type": "Point", "coordinates": [ 7.235735296102929, 51.208297128381929 ] } },
{ "type": "Feature", "properties": { "strassenschluessel": "05120000000001309", "bezeichnung": "Gerdastraße" }, "geometry": { "type": "Point", "coordinates": [ 7.25075139020096, 51.1858040061284 ] } },
{ "type": "Feature", "properties": { "strassenschluessel": "05120000000001310", "bezeichnung": "Gerhart-Hauptmann-Straße" }, "geometry": { "type": "Point", "coordinates": [ 7.220585788228753, 51.17592563441471 ] } },
{ "type": "Feature", "properties": { "strassenschluessel": "05120000000001311", "bezeichnung": "Gerstau" }, "geometry": { "type": "Point", "coordinates": [ 7.157380001053353, 51.200710541097095 ] } },
{ "type": "Feature", "properties": { "strassenschluessel": "05120000000001312", "bezeichnung": "Gertenbachstraße" }, "geometry": { "type": "Point", "coordinates": [ 7.239020087332682, 51.210261480671925 ] } },
{ "type": "Feature", "properties": { "strassenschluessel": "05120000000001313", "bezeichnung": "Geschwister-Scholl-Straße" }, "geometry": { "type": "Point", "coordinates": [ 7.265919429761436, 51.188910171688647 ] } },
{ "type": "Feature", "properties": { "strassenschluessel": "05120000000001314", "bezeichnung": "Gesundheitstraße" }, "geometry": { "type": "Point", "coordinates": [ 7.194336281260643, 51.185876448230722 ] } },
{ "type": "Feature", "properties": { "strassenschluessel": "05120000000001315", "bezeichnung": "Gewerbeschulstraße" }, "geometry": { "type": "Point", "coordinates": [ 7.1802780934679, 51.183057959751856 ] } },
{ "type": "Feature", "properties": { "strassenschluessel": "05120000000001316", "bezeichnung": "Gneisenaustraße" }, "geometry": { "type": "Point", "coordinates": [ 7.236979537214698, 51.209655738989603 ] } },
{ "type": "Feature", "properties": { "strassenschluessel": "05120000000001317", "bezeichnung": "Goethestraße" }, "geometry": { "type": "Point", "coordinates": [ 7.174928425638393, 51.182227587937831 ] } },
{ "type": "Feature", "properties": { "strassenschluessel": "05120000000001318", "bezeichnung": "Goetheweg" }, "geometry": { "type": "Point", "coordinates": [ 7.238788356307394, 51.209933243052745 ] } },
{ "type": "Feature", "properties": { "strassenschluessel": "05120000000001319", "bezeichnung": "Goldenberger Kirchweg" }, "geometry": { "type": "Point", "coordinates": [ 7.20029045447197, 51.197650254162362 ] } },
{ "type": "Feature", "properties": { "strassenschluessel": "05120000000001320", "bezeichnung": "Grenzwall" }, "geometry": { "type": "Point", "coordinates": [ 7.240910069242436, 51.171307881859114 ] } },
{ "type": "Feature", "properties": { "strassenschluessel": "05120000000001321", "bezeichnung": "Greuel" }, "geometry": { "type": "Point", "coordinates": [ 7.244271792268275, 51.179165546972875 ] } },
{ "type": "Feature", "properties": { "strassenschluessel": "05120000000001322", "bezeichnung": "Greuelgasse" }, "geometry": { "type": "Point", "coordinates": [ 7.25594467082352, 51.192474979208548 ] } },
{ "type": "Feature", "properties": { "strassenschluessel": "05120000000001323", "bezeichnung": "Greulingstraße" }, "geometry": { "type": "Point", "coordinates": [ 7.210464393595377, 51.174684187852769 ] } },
{ "type": "Feature", "properties": { "strassenschluessel": "05120000000001324", "bezeichnung": "Großberghausen" }, "geometry": { "type": "Point", "coordinates": [ 7.223639545938939, 51.162115880608873 ] } },
{ "type": "Feature", "properties": { "strassenschluessel": "05120000000001325", "bezeichnung": "Großhülsberg" }, "geometry": { "type": "Point", "coordinates": [ 7.228657616872434, 51.221578461090083 ] } },
{ "type": "Feature", "properties": { "strassenschluessel": "05120000000001326", "bezeichnung": "Gründerhammer" }, "geometry": { "type": "Point", "coordinates": [ 7.178734949036755, 51.200446471990361 ] } },
{ "type": "Feature", "properties": { "strassenschluessel": "05120000000001327", "bezeichnung": "Grüne" }, "geometry": { "type": "Point", "coordinates": [ 7.197288891218096, 51.209235555143195 ] } },
{ "type": "Feature", "properties": { "strassenschluessel": "05120000000001328", "bezeichnung": "Grünenplatz" }, "geometry": { "type": "Point", "coordinates": [ 7.243250385827526, 51.223088119161119 ] } },
{ "type": "Feature", "properties": { "strassenschluessel": "05120000000001329", "bezeichnung": "Grünenplatzstraße" }, "geometry": { "type": "Point", "coordinates": [ 7.239216420691218, 51.223139022436463 ] } },
{ "type": "Feature", "properties": { "strassenschluessel": "05120000000001330", "bezeichnung": "Grünental" }, "geometry": { "type": "Point", "coordinates": [ 7.231411577250562, 51.165267049417217 ] } },
{ "type": "Feature", "properties": { "strassenschluessel": "05120000000001331", "bezeichnung": "Grünstraße" }, "geometry": { "type": "Point", "coordinates": [ 7.209539580276537, 51.172783501265641 ] } },
{ "type": "Feature", "properties": { "strassenschluessel": "05120000000001332", "bezeichnung": "Grund" }, "geometry": { "type": "Point", "coordinates": [ 7.185479277092527, 51.207656039728882 ] } },
{ "type": "Feature", "properties": { "strassenschluessel": "05120000000001333", "bezeichnung": "Grunerstraße" }, "geometry": { "type": "Point", "coordinates": [ 7.170927250528321, 51.181259749646237 ] } },
{ "type": "Feature", "properties": { "strassenschluessel": "05120000000001334", "bezeichnung": "Güldenwerth" }, "geometry": { "type": "Point", "coordinates": [ 7.163056081260444, 51.167705359336956 ] } },
{ "type": "Feature", "properties": { "strassenschluessel": "05120000000001335", "bezeichnung": "Güldenwerther Bahnhofstraße" }, "geometry": { "type": "Point", "coordinates": [ 7.163150952271383, 51.170735550959478 ] } },
{ "type": "Feature", "properties": { "strassenschluessel": "05120000000001336", "bezeichnung": "Güterstraße" }, "geometry": { "type": "Point", "coordinates": [ 7.205372261186869, 51.168548721109751 ] } },
{ "type": "Feature", "properties": { "strassenschluessel": "05120000000001337", "bezeichnung": "Gustav-Hermann-Halbach-Straße" }, "geometry": { "type": "Point", "coordinates": [ 7.206403391361644, 51.17364830858628 ] } },
{ "type": "Feature", "properties": { "strassenschluessel": "05120000000001338", "bezeichnung": "Gustavstraße" }, "geometry": { "type": "Point", "coordinates": [ 7.171326589496648, 51.192938244805475 ] } },
{ "type": "Feature", "properties": { "strassenschluessel": "05120000000001339", "bezeichnung": "Georg-Schirmer-Straße" }, "geometry": { "type": "Point", "coordinates": [ 7.242189368350577, 51.212335895028751 ] } },
{ "type": "Feature", "properties": { "strassenschluessel": "05120000000001340", "bezeichnung": "Gustav-Theill-Straße" }, "geometry": { "type": "Point", "coordinates": [ 7.195389169068987, 51.181528267869773 ] } },
{ "type": "Feature", "properties": { "strassenschluessel": "05120000000001341", "bezeichnung": "Gustav-Michel-Weg" }, "geometry": { "type": "Point", "coordinates": [ 7.228833741342046, 51.177086891433007 ] } },
{ "type": "Feature", "properties": { "strassenschluessel": "05120000000001342", "bezeichnung": "Goldenberg" }, "geometry": { "type": "Point", "coordinates": [ 7.206353428319609, 51.197032333367474 ] } },
{ "type": "Feature", "properties": { "strassenschluessel": "05120000000001401", "bezeichnung": "Gockelshütte" }, "geometry": { "type": "Point", "coordinates": [ 7.148617861534125, 51.171717986182458 ] } },
{ "type": "Feature", "properties": { "strassenschluessel": "05120000000001404", "bezeichnung": "Glassiepen" }, "geometry": { "type": "Point", "coordinates": [ 7.19364453175519, 51.185409633963133 ] } },
{ "type": "Feature", "properties": { "strassenschluessel": "05120000000001405", "bezeichnung": "Grunder Schulweg" }, "geometry": { "type": "Point", "coordinates": [ 7.183284064918978, 51.205645833718968 ] } },
{ "type": "Feature", "properties": { "strassenschluessel": "05120000000001406", "bezeichnung": "Glockenstahlstraße" }, "geometry": { "type": "Point", "coordinates": [ 7.174916684640973, 51.192962488004881 ] } },
{ "type": "Feature", "properties": { "strassenschluessel": "05120000000001501", "bezeichnung": "Hackenberg" }, "geometry": { "type": "Point", "coordinates": [ 7.281683957681257, 51.202757848735651 ] } },
{ "type": "Feature", "properties": { "strassenschluessel": "05120000000001502", "bezeichnung": "Hackenberger Straße" }, "geometry": { "type": "Point", "coordinates": [ 7.27509187409309, 51.19876872087513 ] } },
{ "type": "Feature", "properties": { "strassenschluessel": "05120000000001503", "bezeichnung": "Haddenbacher Straße" }, "geometry": { "type": "Point", "coordinates": [ 7.201023365226823, 51.182795728860206 ] } },
{ "type": "Feature", "properties": { "strassenschluessel": "05120000000001504", "bezeichnung": "Haddenbrocker Straße" }, "geometry": { "type": "Point", "coordinates": [ 7.184645046507517, 51.187199116873138 ] } },
{ "type": "Feature", "properties": { "strassenschluessel": "05120000000001505", "bezeichnung": "Hägener Mühle" }, "geometry": { "type": "Point", "coordinates": [ 7.199447263846866, 51.19108577864047 ] } },
{ "type": "Feature", "properties": { "strassenschluessel": "05120000000001506", "bezeichnung": "Hägener Straße" }, "geometry": { "type": "Point", "coordinates": [ 7.193072634145097, 51.188821342164481 ] } },
{ "type": "Feature", "properties": { "strassenschluessel": "05120000000001507", "bezeichnung": "Hagedornweg" }, "geometry": { "type": "Point", "coordinates": [ 7.152792638270382, 51.16464732765008 ] } },
{ "type": "Feature", "properties": { "strassenschluessel": "05120000000001508", "bezeichnung": "Hainstraße" }, "geometry": { "type": "Point", "coordinates": [ 7.192653010314979, 51.166670989855866 ] } },
{ "type": "Feature", "properties": { "strassenschluessel": "05120000000001509", "bezeichnung": "Halbach" }, "geometry": { "type": "Point", "coordinates": [ 7.21188975856948, 51.205513802957483 ] } },
{ "type": "Feature", "properties": { "strassenschluessel": "05120000000001510", "bezeichnung": "Halle" }, "geometry": { "type": "Point", "coordinates": [ 7.290263985129247, 51.208812876551242 ] } },
{ "type": "Feature", "properties": { "strassenschluessel": "05120000000001511", "bezeichnung": "Halskestraße" }, "geometry": { "type": "Point", "coordinates": [ 7.184906821103661, 51.17073608967808 ] } },
{ "type": "Feature", "properties": { "strassenschluessel": "05120000000001512", "bezeichnung": "Hammerstraße" }, "geometry": { "type": "Point", "coordinates": [ 7.155576076365657, 51.175931231540538 ] } },
{ "type": "Feature", "properties": { "strassenschluessel": "05120000000001513", "bezeichnung": "Hammertal" }, "geometry": { "type": "Point", "coordinates": [ 7.169503378505092, 51.165459777625763 ] } },
{ "type": "Feature", "properties": { "strassenschluessel": "05120000000001514", "bezeichnung": "Hammesberger Straße" }, "geometry": { "type": "Point", "coordinates": [ 7.175557485756848, 51.191340375621913 ] } },
{ "type": "Feature", "properties": { "strassenschluessel": "05120000000001515", "bezeichnung": "Hangweg" }, "geometry": { "type": "Point", "coordinates": [ 7.237137520262569, 51.208289497393721 ] } },
{ "type": "Feature", "properties": { "strassenschluessel": "05120000000001516", "bezeichnung": "Hans-Böckler-Straße" }, "geometry": { "type": "Point", "coordinates": [ 7.227180490028696, 51.216849494715866 ] } },
{ "type": "Feature", "properties": { "strassenschluessel": "05120000000001517", "bezeichnung": "Heinrich-Geißler-Straße" }, "geometry": { "type": "Point", "coordinates": [ 7.274384091685635, 51.202672297083836 ] } },
{ "type": "Feature", "properties": { "strassenschluessel": "05120000000001518", "bezeichnung": "Hardtstraße" }, "geometry": { "type": "Point", "coordinates": [ 7.260115350172285, 51.192779820148125 ] } },
{ "type": "Feature", "properties": { "strassenschluessel": "05120000000001519", "bezeichnung": "Hasenberger Weg" }, "geometry": { "type": "Point", "coordinates": [ 7.269362145200839, 51.185974949711628 ] } },
{ "type": "Feature", "properties": { "strassenschluessel": "05120000000001520", "bezeichnung": "Hasencleverstraße" }, "geometry": { "type": "Point", "coordinates": [ 7.169826262426216, 51.16205884570816 ] } },
{ "type": "Feature", "properties": { "strassenschluessel": "05120000000001521", "bezeichnung": "Hastener Straße" }, "geometry": { "type": "Point", "coordinates": [ 7.162393365117512, 51.198486248909283 ] } },
{ "type": "Feature", "properties": { "strassenschluessel": "05120000000001522", "bezeichnung": "Haster Aue" }, "geometry": { "type": "Point", "coordinates": [ 7.15691874476664, 51.195378218404962 ] } },
{ "type": "Feature", "properties": { "strassenschluessel": "05120000000001523", "bezeichnung": "Hatzelangk" }, "geometry": { "type": "Point", "coordinates": [ 7.223404774605449, 51.166209429886607 ] } },
{ "type": "Feature", "properties": { "strassenschluessel": "05120000000001524", "bezeichnung": "Heidmannstraße" }, "geometry": { "type": "Point", "coordinates": [ 7.190277822323258, 51.189081780292966 ] } },
{ "type": "Feature", "properties": { "strassenschluessel": "05120000000001525", "bezeichnung": "Heienbrucher Hammer" }, "geometry": { "type": "Point", "coordinates": [ 7.180199590185524, 51.153273201357401 ] } },
{ "type": "Feature", "properties": { "strassenschluessel": "05120000000001526", "bezeichnung": "Heinrich-Hertz-Straße" }, "geometry": { "type": "Point", "coordinates": [ 7.257443784995791, 51.198404196163708 ] } },
{ "type": "Feature", "properties": { "strassenschluessel": "05120000000001527", "bezeichnung": "Heintjeshammer" }, "geometry": { "type": "Point", "coordinates": [ 7.189196109878619, 51.153896686887258 ] } },
{ "type": "Feature", "properties": { "strassenschluessel": "05120000000001528", "bezeichnung": "Henkelshof" }, "geometry": { "type": "Point", "coordinates": [ 7.273595719704498, 51.196603323665727 ] } },
{ "type": "Feature", "properties": { "strassenschluessel": "05120000000001530", "bezeichnung": "Hentzenallee" }, "geometry": { "type": "Point", "coordinates": [ 7.268997350475086, 51.191625671517571 ] } },
{ "type": "Feature", "properties": { "strassenschluessel": "05120000000001531", "bezeichnung": "Herbringhauser Straße" }, "geometry": { "type": "Point", "coordinates": [ 7.247025820105159, 51.216769211191092 ] } },
{ "type": "Feature", "properties": { "strassenschluessel": "05120000000001532", "bezeichnung": "Herderstraße" }, "geometry": { "type": "Point", "coordinates": [ 7.1682845840064, 51.187607186626806 ] } },
{ "type": "Feature", "properties": { "strassenschluessel": "05120000000001533", "bezeichnung": "Hermann-Löns-Straße" }, "geometry": { "type": "Point", "coordinates": [ 7.183939542143819, 51.189472386410642 ] } },
{ "type": "Feature", "properties": { "strassenschluessel": "05120000000001534", "bezeichnung": "Hermannsmühle" }, "geometry": { "type": "Point", "coordinates": [ 7.226040621247179, 51.193882773650614 ] } },
{ "type": "Feature", "properties": { "strassenschluessel": "05120000000001535", "bezeichnung": "Hermannstraße" }, "geometry": { "type": "Point", "coordinates": [ 7.258645805100644, 51.186235315834004 ] } },
{ "type": "Feature", "properties": { "strassenschluessel": "05120000000001536", "bezeichnung": "Heusiepen" }, "geometry": { "type": "Point", "coordinates": [ 7.180867339883276, 51.212304306623523 ] } },
{ "type": "Feature", "properties": { "strassenschluessel": "05120000000001537", "bezeichnung": "Hildegardstraße" }, "geometry": { "type": "Point", "coordinates": [ 7.24858256533546, 51.183455744669978 ] } },
{ "type": "Feature", "properties": { "strassenschluessel": "05120000000001538", "bezeichnung": "Hindemithstraße" }, "geometry": { "type": "Point", "coordinates": [ 7.149593125401092, 51.158386486047505 ] } },
{ "type": "Feature", "properties": { "strassenschluessel": "05120000000001539", "bezeichnung": "Hindenburgstraße" }, "geometry": { "type": "Point", "coordinates": [ 7.1739500768701, 51.184891686241514 ] } },
{ "type": "Feature", "properties": { "strassenschluessel": "05120000000001540", "bezeichnung": "Hinter dem Anger" }, "geometry": { "type": "Point", "coordinates": [ 7.227331482160513, 51.183032798567652 ] } },
{ "type": "Feature", "properties": { "strassenschluessel": "05120000000001541", "bezeichnung": "Hochstraße" }, "geometry": { "type": "Point", "coordinates": [ 7.184106203258238, 51.181847869187834 ] } },
{ "type": "Feature", "properties": { "strassenschluessel": "05120000000001542", "bezeichnung": "Höhenweg" }, "geometry": { "type": "Point", "coordinates": [ 7.256608356713395, 51.1777491345456 ] } },
{ "type": "Feature", "properties": { "strassenschluessel": "05120000000001543", "bezeichnung": "Hölkenstraße" }, "geometry": { "type": "Point", "coordinates": [ 7.234346646889847, 51.210805656296543 ] } },
{ "type": "Feature", "properties": { "strassenschluessel": "05120000000001544", "bezeichnung": "Hittorfstraße" }, "geometry": { "type": "Point", "coordinates": [ 7.272654184450635, 51.202205702331185 ] } },
{ "type": "Feature", "properties": { "strassenschluessel": "05120000000001545", "bezeichnung": "Hoffeldstraße" }, "geometry": { "type": "Point", "coordinates": [ 7.214372480145304, 51.167334638541625 ] } },
{ "type": "Feature", "properties": { "strassenschluessel": "05120000000001546", "bezeichnung": "Hoffmeisterstraße" }, "geometry": { "type": "Point", "coordinates": [ 7.170732190994655, 51.175703711921834 ] } },
{ "type": "Feature", "properties": { "strassenschluessel": "05120000000001547", "bezeichnung": "Hof Güldenwerth" }, "geometry": { "type": "Point", "coordinates": [ 7.158528594102024, 51.16761365302343 ] } },
{ "type": "Feature", "properties": { "strassenschluessel": "05120000000001548", "bezeichnung": "Hof Heidhof" }, "geometry": { "type": "Point", "coordinates": [ 7.184821943646107, 51.189353802567084 ] } },
{ "type": "Feature", "properties": { "strassenschluessel": "05120000000001549", "bezeichnung": "Hofstraße" }, "geometry": { "type": "Point", "coordinates": [ 7.195623493854979, 51.181022455825293 ] } },
{ "type": "Feature", "properties": { "strassenschluessel": "05120000000001550", "bezeichnung": "Hof Vieringhausen" }, "geometry": { "type": "Point", "coordinates": [ 7.164262272216662, 51.175805091857548 ] } },
{ "type": "Feature", "properties": { "strassenschluessel": "05120000000001551", "bezeichnung": "Hohenbirke" }, "geometry": { "type": "Point", "coordinates": [ 7.169508273820401, 51.198564715181391 ] } },
{ "type": "Feature", "properties": { "strassenschluessel": "05120000000001552", "bezeichnung": "Hohenbirker Straße" }, "geometry": { "type": "Point", "coordinates": [ 7.167520348551462, 51.198709893034874 ] } },
{ "type": "Feature", "properties": { "strassenschluessel": "05120000000001553", "bezeichnung": "Hohenhagen" }, "geometry": { "type": "Point", "coordinates": [ 7.221444070779892, 51.185616742873805 ] } },
{ "type": "Feature", "properties": { "strassenschluessel": "05120000000001554", "bezeichnung": "Hohenhagener Straße" }, "geometry": { "type": "Point", "coordinates": [ 7.217414125886142, 51.184938745356561 ] } },
{ "type": "Feature", "properties": { "strassenschluessel": "05120000000001555", "bezeichnung": "Holz" }, "geometry": { "type": "Point", "coordinates": [ 7.14962291250828, 51.189008440878254 ] } },
{ "type": "Feature", "properties": { "strassenschluessel": "05120000000001556", "bezeichnung": "Holzer Straße" }, "geometry": { "type": "Point", "coordinates": [ 7.161207432422213, 51.188703435928602 ] } },
{ "type": "Feature", "properties": { "strassenschluessel": "05120000000001557", "bezeichnung": "Honsberger Straße" }, "geometry": { "type": "Point", "coordinates": [ 7.18140799020261, 51.169242904602065 ] } },
{ "type": "Feature", "properties": { "strassenschluessel": "05120000000001558", "bezeichnung": "Honsberg Sonnenbad" }, "geometry": { "type": "Point", "coordinates": [ 7.17963535467517, 51.166455257604774 ] } },
{ "type": "Feature", "properties": { "strassenschluessel": "05120000000001559", "bezeichnung": "Holunderweg" }, "geometry": { "type": "Point", "coordinates": [ 7.255719299628671, 51.200228633535936 ] } },
{ "type": "Feature", "properties": { "strassenschluessel": "05120000000001560", "bezeichnung": "Hügelstraße" }, "geometry": { "type": "Point", "coordinates": [ 7.20286794087926, 51.176208999685073 ] } },
{ "type": "Feature", "properties": { "strassenschluessel": "05120000000001561", "bezeichnung": "Hülsberger Straße" }, "geometry": { "type": "Point", "coordinates": [ 7.232361889676513, 51.214709559015908 ] } },
{ "type": "Feature", "properties": { "strassenschluessel": "05120000000001562", "bezeichnung": "Hüttenhammer" }, "geometry": null },
{ "type": "Feature", "properties": { "strassenschluessel": "05120000000001563", "bezeichnung": "Hüttenstraße" }, "geometry": { "type": "Point", "coordinates": [ 7.172367174572962, 51.181699335999497 ] } },
{ "type": "Feature", "properties": { "strassenschluessel": "05120000000001564", "bezeichnung": "Hütz" }, "geometry": { "type": "Point", "coordinates": [ 7.159763116556299, 51.194134690035796 ] } },
{ "type": "Feature", "properties": { "strassenschluessel": "05120000000001565", "bezeichnung": "Humboldtstraße" }, "geometry": { "type": "Point", "coordinates": [ 7.18311912890086, 51.170908349036274 ] } },
{ "type": "Feature", "properties": { "strassenschluessel": "05120000000001566", "bezeichnung": "Hof Glassiepen" }, "geometry": { "type": "Point", "coordinates": [ 7.18950134178451, 51.184214153814857 ] } },
{ "type": "Feature", "properties": { "strassenschluessel": "05120000000001567", "bezeichnung": "Hugo-Paul-Straße" }, "geometry": { "type": "Point", "coordinates": [ 7.163304206234438, 51.199175635987558 ] } },
{ "type": "Feature", "properties": { "strassenschluessel": "05120000000001568", "bezeichnung": "Hans-Bertram-Weg" }, "geometry": { "type": "Point", "coordinates": [ 7.215510329191215, 51.183741443304932 ] } },
{ "type": "Feature", "properties": { "strassenschluessel": "05120000000001601", "bezeichnung": "Hebbelstraße" }, "geometry": { "type": "Point", "coordinates": [ 7.253074885295862, 51.197004766695969 ] } },
{ "type": "Feature", "properties": { "strassenschluessel": "05120000000001602", "bezeichnung": "Hans-Potyka-Straße" }, "geometry": { "type": "Point", "coordinates": [ 7.274373906027312, 51.198175444503661 ] } },
{ "type": "Feature", "properties": { "strassenschluessel": "05120000000001603", "bezeichnung": "Hangberger Mühle" }, "geometry": { "type": "Point", "coordinates": [ 7.298186182345596, 51.167792176387223 ] } },
{ "type": "Feature", "properties": { "strassenschluessel": "05120000000001604", "bezeichnung": "Haselnußweg" }, "geometry": { "type": "Point", "coordinates": [ 7.255669689961461, 51.19961431377191 ] } },
{ "type": "Feature", "properties": { "strassenschluessel": "05120000000001605", "bezeichnung": "Heydt" }, "geometry": { "type": "Point", "coordinates": [ 7.271474182048323, 51.166160421849781 ] } },
{ "type": "Feature", "properties": { "strassenschluessel": "05120000000001606", "bezeichnung": "Heidestraße" }, "geometry": { "type": "Point", "coordinates": [ 7.284697552667405, 51.199628039604931 ] } },
{ "type": "Feature", "properties": { "strassenschluessel": "05120000000001607", "bezeichnung": "Horrenbeek" }, "geometry": { "type": "Point", "coordinates": [ 7.185479129571156, 51.195450718081212 ] } },
{ "type": "Feature", "properties": { "strassenschluessel": "05120000000001608", "bezeichnung": "Handelsweg" }, "geometry": { "type": "Point", "coordinates": [ 7.245605786156329, 51.176713507012472 ] } },
{ "type": "Feature", "properties": { "strassenschluessel": "05120000000001609", "bezeichnung": "Hammertalweg" }, "geometry": { "type": "Point", "coordinates": [ 7.169623552722983, 51.159645722071289 ] } },
{ "type": "Feature", "properties": { "strassenschluessel": "05120000000001610", "bezeichnung": "Herbert-Goerlich-Platz" }, "geometry": null },
{ "type": "Feature", "properties": { "strassenschluessel": "05120000000001701", "bezeichnung": "Ibacher Mühle" }, "geometry": { "type": "Point", "coordinates": [ 7.178641298762956, 51.196400355771573 ] } },
{ "type": "Feature", "properties": { "strassenschluessel": "05120000000001702", "bezeichnung": "Ibacher Straße" }, "geometry": { "type": "Point", "coordinates": [ 7.181292648436218, 51.19923519943282 ] } },
{ "type": "Feature", "properties": { "strassenschluessel": "05120000000001703", "bezeichnung": "Ibrucher Straße" }, "geometry": { "type": "Point", "coordinates": [ 7.171980139779619, 51.1903990909451 ] } },
{ "type": "Feature", "properties": { "strassenschluessel": "05120000000001704", "bezeichnung": "Im Alten Berge" }, "geometry": { "type": "Point", "coordinates": [ 7.245123857774401, 51.174114457731825 ] } },
{ "type": "Feature", "properties": { "strassenschluessel": "05120000000001705", "bezeichnung": "Im Haddenbruch" }, "geometry": { "type": "Point", "coordinates": [ 7.188420206028471, 51.188214349152652 ] } },
{ "type": "Feature", "properties": { "strassenschluessel": "05120000000001706", "bezeichnung": "Im Laspert" }, "geometry": { "type": "Point", "coordinates": [ 7.190565296845761, 51.187027583789508 ] } },
{ "type": "Feature", "properties": { "strassenschluessel": "05120000000001707", "bezeichnung": "Im Loborn" }, "geometry": { "type": "Point", "coordinates": [ 7.204475821253844, 51.175076804190532 ] } },
{ "type": "Feature", "properties": { "strassenschluessel": "05120000000001708", "bezeichnung": "Im Loh" }, "geometry": { "type": "Point", "coordinates": [ 7.173858942234427, 51.160760205560514 ] } },
{ "type": "Feature", "properties": { "strassenschluessel": "05120000000001709", "bezeichnung": "Im Mittenfeld" }, "geometry": { "type": "Point", "coordinates": [ 7.213704489294933, 51.16607046564809 ] } },
{ "type": "Feature", "properties": { "strassenschluessel": "05120000000001710", "bezeichnung": "Im Rosenhof" }, "geometry": { "type": "Point", "coordinates": [ 7.196669075737303, 51.163450236195779 ] } },
{ "type": "Feature", "properties": { "strassenschluessel": "05120000000001711", "bezeichnung": "Im Schmittenhof" }, "geometry": { "type": "Point", "coordinates": [ 7.224530167528948, 51.202148733073003 ] } },
{ "type": "Feature", "properties": { "strassenschluessel": "05120000000001712", "bezeichnung": "In der Lehmkuhle" }, "geometry": { "type": "Point", "coordinates": [ 7.255231093184761, 51.178746420142858 ] } },
{ "type": "Feature", "properties": { "strassenschluessel": "05120000000001713", "bezeichnung": "Industriehof Trecknase" }, "geometry": { "type": "Point", "coordinates": [ 7.252154567983, 51.179471825919315 ] } },
{ "type": "Feature", "properties": { "strassenschluessel": "05120000000001714", "bezeichnung": "Industriestraße" }, "geometry": { "type": "Point", "coordinates": [ 7.209127605571791, 51.175787521353215 ] } },
{ "type": "Feature", "properties": { "strassenschluessel": "05120000000001715", "bezeichnung": "Intzeplatz" }, "geometry": { "type": "Point", "coordinates": [ 7.216137828040414, 51.174441114505477 ] } },
{ "type": "Feature", "properties": { "strassenschluessel": "05120000000001716", "bezeichnung": "Intzestraße" }, "geometry": { "type": "Point", "coordinates": [ 7.216548052543991, 51.172786783629391 ] } },
{ "type": "Feature", "properties": { "strassenschluessel": "05120000000001801", "bezeichnung": "Im Ziegelfeld" }, "geometry": { "type": "Point", "coordinates": [ 7.247124917458611, 51.207286275827556 ] } },
{ "type": "Feature", "properties": { "strassenschluessel": "05120000000001802", "bezeichnung": "Ibacher Feld" }, "geometry": { "type": "Point", "coordinates": [ 7.179865999454482, 51.195813072056261 ] } },
{ "type": "Feature", "properties": { "strassenschluessel": "05120000000001803", "bezeichnung": "In der Kasch" }, "geometry": { "type": "Point", "coordinates": [ 7.257939725494527, 51.177590098778957 ] } },
{ "type": "Feature", "properties": { "strassenschluessel": "05120000000001804", "bezeichnung": "In der Fleute" }, "geometry": { "type": "Point", "coordinates": [ 7.271069361205207, 51.150245274992244 ] } },
{ "type": "Feature", "properties": { "strassenschluessel": "05120000000001901", "bezeichnung": "Jacobsmühle" }, "geometry": { "type": "Point", "coordinates": [ 7.286677778921415, 51.187509592506636 ] } },
{ "type": "Feature", "properties": { "strassenschluessel": "05120000000001902", "bezeichnung": "Jägergasse" }, "geometry": null },
{ "type": "Feature", "properties": { "strassenschluessel": "05120000000001903", "bezeichnung": "Johann-Scheibler-Straße" }, "geometry": { "type": "Point", "coordinates": [ 7.281137761304369, 51.200402421772139 ] } },
{ "type": "Feature", "properties": { "strassenschluessel": "05120000000001904", "bezeichnung": "Jagenbergshammer" }, "geometry": null },
{ "type": "Feature", "properties": { "strassenschluessel": "05120000000001905", "bezeichnung": "Jahnstraße" }, "geometry": { "type": "Point", "coordinates": [ 7.198510029292886, 51.180432869170026 ] } },
{ "type": "Feature", "properties": { "strassenschluessel": "05120000000001906", "bezeichnung": "Jammertal" }, "geometry": { "type": "Point", "coordinates": [ 7.278137275510869, 51.19223088624026 ] } },
{ "type": "Feature", "properties": { "strassenschluessel": "05120000000001907", "bezeichnung": "Jan-Wellem-Straße" }, "geometry": { "type": "Point", "coordinates": [ 7.212542296703607, 51.172860780972854 ] } },
{ "type": "Feature", "properties": { "strassenschluessel": "05120000000001908", "bezeichnung": "Joachimstraße" }, "geometry": { "type": "Point", "coordinates": [ 7.218953214155817, 51.174429783678079 ] } },
{ "type": "Feature", "properties": { "strassenschluessel": "05120000000001909", "bezeichnung": "Jöstingstraße" }, "geometry": { "type": "Point", "coordinates": [ 7.173810327090499, 51.193797459151888 ] } },
{ "type": "Feature", "properties": { "strassenschluessel": "05120000000001910", "bezeichnung": "Johann-Daniel-Fuhrmann-Straße" }, "geometry": { "type": "Point", "coordinates": [ 7.26855745902991, 51.182879526016606 ] } },
{ "type": "Feature", "properties": { "strassenschluessel": "05120000000001911", "bezeichnung": "Johannesstraße" }, "geometry": { "type": "Point", "coordinates": [ 7.196466864241998, 51.178245574414007 ] } },
{ "type": "Feature", "properties": { "strassenschluessel": "05120000000001913", "bezeichnung": "Johann-Peter-Frohn-Straße" }, "geometry": { "type": "Point", "coordinates": [ 7.183097449927443, 51.190662083003332 ] } },
{ "type": "Feature", "properties": { "strassenschluessel": "05120000000001914", "bezeichnung": "Johanniterstraße" }, "geometry": { "type": "Point", "coordinates": [ 7.19551006318411, 51.179125898296029 ] } },
{ "type": "Feature", "properties": { "strassenschluessel": "05120000000001915", "bezeichnung": "Johann-Sebastian-Bach-Straße" }, "geometry": { "type": "Point", "coordinates": [ 7.176600279121113, 51.183649738985935 ] } },
{ "type": "Feature", "properties": { "strassenschluessel": "05120000000001916", "bezeichnung": "Josefstraße" }, "geometry": { "type": "Point", "coordinates": [ 7.204514134358527, 51.172376041237868 ] } },
{ "type": "Feature", "properties": { "strassenschluessel": "05120000000001917", "bezeichnung": "Julius-Cäsar-Straße" }, "geometry": { "type": "Point", "coordinates": [ 7.26707549981328, 51.184956801399537 ] } },
{ "type": "Feature", "properties": { "strassenschluessel": "05120000000001919", "bezeichnung": "Julius-Leber-Straße" }, "geometry": { "type": "Point", "coordinates": [ 7.164135441986567, 51.171843091706585 ] } },
{ "type": "Feature", "properties": { "strassenschluessel": "05120000000001920", "bezeichnung": "Julius-Lindenberg-Straße" }, "geometry": { "type": "Point", "coordinates": [ 7.170739206990467, 51.198099868052822 ] } },
{ "type": "Feature", "properties": { "strassenschluessel": "05120000000001921", "bezeichnung": "Julius-Spriestersbach-Straße" }, "geometry": { "type": "Point", "coordinates": [ 7.184834497308458, 51.179477284338319 ] } },
{ "type": "Feature", "properties": { "strassenschluessel": "05120000000001922", "bezeichnung": "Justus-von-Liebig-Straße" }, "geometry": { "type": "Point", "coordinates": [ 7.270675208015986, 51.196172179934194 ] } },
{ "type": "Feature", "properties": { "strassenschluessel": "05120000000001923", "bezeichnung": "Julius-Landsberg-Straße" }, "geometry": { "type": "Point", "coordinates": [ 7.268645525219766, 51.18337835449217 ] } },
{ "type": "Feature", "properties": { "strassenschluessel": "05120000000001924", "bezeichnung": "Johann-Vaillant-Platz" }, "geometry": { "type": "Point", "coordinates": [ 7.209630473161473, 51.17363566434711 ] } },
{ "type": "Feature", "properties": { "strassenschluessel": "05120000000002001", "bezeichnung": "Julius-Plücker-Straße" }, "geometry": { "type": "Point", "coordinates": [ 7.278116615847786, 51.202211767648514 ] } },
{ "type": "Feature", "properties": { "strassenschluessel": "05120000000002002", "bezeichnung": "Jägerwald" }, "geometry": { "type": "Point", "coordinates": [ 7.248926108747154, 51.181990586088027 ] } },
{ "type": "Feature", "properties": { "strassenschluessel": "05120000000002102", "bezeichnung": "Kaiser-Wilhelm-Straße" }, "geometry": { "type": "Point", "coordinates": [ 7.167289340734135, 51.196897512024655 ] } },
{ "type": "Feature", "properties": { "strassenschluessel": "05120000000002103", "bezeichnung": "Kantstraße" }, "geometry": { "type": "Point", "coordinates": [ 7.21953248607526, 51.175083547583327 ] } },
{ "type": "Feature", "properties": { "strassenschluessel": "05120000000002104", "bezeichnung": "Karl-Arnold-Straße" }, "geometry": { "type": "Point", "coordinates": [ 7.226368290982691, 51.2146188411743 ] } },
{ "type": "Feature", "properties": { "strassenschluessel": "05120000000002105", "bezeichnung": "Karl-Dowidat-Straße" }, "geometry": { "type": "Point", "coordinates": [ 7.218947503738222, 51.201249732981019 ] } },
{ "type": "Feature", "properties": { "strassenschluessel": "05120000000002106", "bezeichnung": "Karl-Evang-Straße" }, "geometry": { "type": "Point", "coordinates": [ 7.278035455744863, 51.190620257083133 ] } },
{ "type": "Feature", "properties": { "strassenschluessel": "05120000000002107", "bezeichnung": "Karl-Lips-Straße" }, "geometry": { "type": "Point", "coordinates": [ 7.274024225486261, 51.182210063963105 ] } },
{ "type": "Feature", "properties": { "strassenschluessel": "05120000000002108", "bezeichnung": "Karlstraße" }, "geometry": { "type": "Point", "coordinates": [ 7.251740765280196, 51.188990692638981 ] } },
{ "type": "Feature", "properties": { "strassenschluessel": "05120000000002110", "bezeichnung": "Kastanienstraße" }, "geometry": { "type": "Point", "coordinates": [ 7.207088306290836, 51.183499767482225 ] } },
{ "type": "Feature", "properties": { "strassenschluessel": "05120000000002111", "bezeichnung": "Keiperstraße" }, "geometry": { "type": "Point", "coordinates": [ 7.166898910277975, 51.197753597438521 ] } },
{ "type": "Feature", "properties": { "strassenschluessel": "05120000000002112", "bezeichnung": "Kellershammer" }, "geometry": { "type": "Point", "coordinates": [ 7.161012221548028, 51.155155157803804 ] } },
{ "type": "Feature", "properties": { "strassenschluessel": "05120000000002113", "bezeichnung": "Kimmenau" }, "geometry": { "type": "Point", "coordinates": [ 7.250443737319712, 51.187708542442053 ] } },
{ "type": "Feature", "properties": { "strassenschluessel": "05120000000002114", "bezeichnung": "Kimmenauer Weg" }, "geometry": { "type": "Point", "coordinates": [ 7.250369911750999, 51.190103156022538 ] } },
{ "type": "Feature", "properties": { "strassenschluessel": "05120000000002115", "bezeichnung": "Kippdorfstraße" }, "geometry": { "type": "Point", "coordinates": [ 7.170268705299956, 51.171914925577752 ] } },
{ "type": "Feature", "properties": { "strassenschluessel": "05120000000002116", "bezeichnung": "Kipperstraße" }, "geometry": { "type": "Point", "coordinates": [ 7.200849776240069, 51.179995842629779 ] } },
{ "type": "Feature", "properties": { "strassenschluessel": "05120000000002117", "bezeichnung": "Kippshütte" }, "geometry": { "type": "Point", "coordinates": [ 7.17982674559082, 51.175300416087175 ] } },
{ "type": "Feature", "properties": { "strassenschluessel": "05120000000002118", "bezeichnung": "Kirchgasse" }, "geometry": { "type": "Point", "coordinates": [ 7.257760904237553, 51.192451907816846 ] } },
{ "type": "Feature", "properties": { "strassenschluessel": "05120000000002119", "bezeichnung": "Kirchhofstraße" }, "geometry": { "type": "Point", "coordinates": [ 7.198166164384261, 51.181235545648704 ] } },
{ "type": "Feature", "properties": { "strassenschluessel": "05120000000002120", "bezeichnung": "Kirchplatz" }, "geometry": { "type": "Point", "coordinates": [ 7.257617749700652, 51.192605365053325 ] } },
{ "type": "Feature", "properties": { "strassenschluessel": "05120000000002121", "bezeichnung": "Klausen" }, "geometry": { "type": "Point", "coordinates": [ 7.224483548199859, 51.214238488525368 ] } },
{ "type": "Feature", "properties": { "strassenschluessel": "05120000000002122", "bezeichnung": "Klausener Straße" }, "geometry": { "type": "Point", "coordinates": [ 7.22112005772174, 51.216517461927133 ] } },
{ "type": "Feature", "properties": { "strassenschluessel": "05120000000002123", "bezeichnung": "Klauser Delle" }, "geometry": { "type": "Point", "coordinates": [ 7.221889562401795, 51.214787673410818 ] } },
{ "type": "Feature", "properties": { "strassenschluessel": "05120000000002124", "bezeichnung": "Klauser Feld" }, "geometry": { "type": "Point", "coordinates": [ 7.223917560194502, 51.211988179376775 ] } },
{ "type": "Feature", "properties": { "strassenschluessel": "05120000000002125", "bezeichnung": "Kleebach" }, "geometry": { "type": "Point", "coordinates": [ 7.285750503174953, 51.19042600220078 ] } },
{ "type": "Feature", "properties": { "strassenschluessel": "05120000000002126", "bezeichnung": "Klein-Becker-Straße" }, "geometry": { "type": "Point", "coordinates": [ 7.183377911375675, 51.177942303507315 ] } },