{
"type": "FeatureCollection",
"features": [
{ "type": "Feature", "properties": { "strassenschluessel": "05382000004829002", "bezeichnung": "Aachener Straße" }, "geometry": { "type": "Point", "coordinates": [ 6.944133929906081, 50.629932963938494 ] } },
{ "type": "Feature", "properties": { "strassenschluessel": "05382000004829003", "bezeichnung": "Ahornweg" }, "geometry": { "type": "Point", "coordinates": [ 6.956218853141047, 50.619470211418999 ] } },
{ "type": "Feature", "properties": { "strassenschluessel": "05382000004829004", "bezeichnung": "Akazienweg" }, "geometry": { "type": "Point", "coordinates": [ 6.956241632706393, 50.620382479169074 ] } },
{ "type": "Feature", "properties": { "strassenschluessel": "05382000004829005", "bezeichnung": "Am Bürgerhaus" }, "geometry": { "type": "Point", "coordinates": [ 6.950910768431529, 50.625449603604778 ] } },
{ "type": "Feature", "properties": { "strassenschluessel": "05382000004829006", "bezeichnung": "Asternweg" }, "geometry": { "type": "Point", "coordinates": [ 6.934584727076333, 50.626380928672084 ] } },
{ "type": "Feature", "properties": { "strassenschluessel": "05382000004829007", "bezeichnung": "Bachstraße" }, "geometry": { "type": "Point", "coordinates": [ 6.950203821385059, 50.624671433836838 ] } },
{ "type": "Feature", "properties": { "strassenschluessel": "05382000004829008", "bezeichnung": "Bahnhofgasse" }, "geometry": { "type": "Point", "coordinates": [ 6.947252088332626, 50.627640528393933 ] } },
{ "type": "Feature", "properties": { "strassenschluessel": "05382000004829009", "bezeichnung": "Bahnhofstraße" }, "geometry": { "type": "Point", "coordinates": [ 6.946960091801817, 50.628137842763273 ] } },
{ "type": "Feature", "properties": { "strassenschluessel": "05382000004829010", "bezeichnung": "Beethovenstraße" }, "geometry": { "type": "Point", "coordinates": [ 6.940638647932869, 50.624595502574458 ] } },
{ "type": "Feature", "properties": { "strassenschluessel": "05382000004829011", "bezeichnung": "Bei den Birken" }, "geometry": { "type": "Point", "coordinates": [ 6.956772648900013, 50.621827737928925 ] } },
{ "type": "Feature", "properties": { "strassenschluessel": "05382000004829012", "bezeichnung": "Berliner Straße" }, "geometry": { "type": "Point", "coordinates": [ 6.938970752182639, 50.617335206181096 ] } },
{ "type": "Feature", "properties": { "strassenschluessel": "05382000004829013", "bezeichnung": "Blindgasse" }, "geometry": { "type": "Point", "coordinates": [ 6.950077722203069, 50.624923498548178 ] } },
{ "type": "Feature", "properties": { "strassenschluessel": "05382000004829014", "bezeichnung": "Brahmsstraße" }, "geometry": { "type": "Point", "coordinates": [ 6.943269238665032, 50.621820852702619 ] } },
{ "type": "Feature", "properties": { "strassenschluessel": "05382000004829015", "bezeichnung": "Breslauer Straße" }, "geometry": { "type": "Point", "coordinates": [ 6.941817323301064, 50.617730888432931 ] } },
{ "type": "Feature", "properties": { "strassenschluessel": "05382000004829016", "bezeichnung": "Brucknerweg" }, "geometry": { "type": "Point", "coordinates": [ 6.938225779212246, 50.622978556976868 ] } },
{ "type": "Feature", "properties": { "strassenschluessel": "05382000004829017", "bezeichnung": "Buchenweg" }, "geometry": { "type": "Point", "coordinates": [ 6.959174891930711, 50.622933041824126 ] } },
{ "type": "Feature", "properties": { "strassenschluessel": "05382000004829018", "bezeichnung": "Bungert" }, "geometry": { "type": "Point", "coordinates": [ 6.951047732366788, 50.624320857670384 ] } },
{ "type": "Feature", "properties": { "strassenschluessel": "05382000004829019", "bezeichnung": "Burgacker" }, "geometry": { "type": "Point", "coordinates": [ 6.939462419755701, 50.617017352821762 ] } },
{ "type": "Feature", "properties": { "strassenschluessel": "05382000004829020", "bezeichnung": "Dahlienstraße" }, "geometry": { "type": "Point", "coordinates": [ 6.936981653179194, 50.625344706400007 ] } },
{ "type": "Feature", "properties": { "strassenschluessel": "05382000004829021", "bezeichnung": "Danziger Straße" }, "geometry": { "type": "Point", "coordinates": [ 6.943447650349975, 50.619042839413247 ] } },
{ "type": "Feature", "properties": { "strassenschluessel": "05382000004829022", "bezeichnung": "Dederichsgraben" }, "geometry": { "type": "Point", "coordinates": [ 6.941176033124494, 50.621016384100116 ] } },
{ "type": "Feature", "properties": { "strassenschluessel": "05382000004829023", "bezeichnung": "Dreeser Weg" }, "geometry": { "type": "Point", "coordinates": [ 6.941472261646366, 50.632154830189187 ] } },
{ "type": "Feature", "properties": { "strassenschluessel": "05382000004829024", "bezeichnung": "Dresdener Straße" }, "geometry": { "type": "Point", "coordinates": [ 6.937814105617757, 50.619372097034301 ] } },
{ "type": "Feature", "properties": { "strassenschluessel": "05382000004829025", "bezeichnung": "Drosselweg" }, "geometry": { "type": "Point", "coordinates": [ 6.952938087788326, 50.622347752571947 ] } },
{ "type": "Feature", "properties": { "strassenschluessel": "05382000004829026", "bezeichnung": "Ebereschenweg" }, "geometry": { "type": "Point", "coordinates": [ 6.955132154564532, 50.619591032503173 ] } },
{ "type": "Feature", "properties": { "strassenschluessel": "05382000004829027", "bezeichnung": "Eichendorffweg" }, "geometry": { "type": "Point", "coordinates": [ 6.947482216158922, 50.621242482745089 ] } },
{ "type": "Feature", "properties": { "strassenschluessel": "05382000004829028", "bezeichnung": "Erlenweg" }, "geometry": { "type": "Point", "coordinates": [ 6.957929659448627, 50.620995236108342 ] } },
{ "type": "Feature", "properties": { "strassenschluessel": "05382000004829029", "bezeichnung": "Euskirchener Weg" }, "geometry": { "type": "Point", "coordinates": [ 6.942983348290025, 50.627595221226983 ] } },
{ "type": "Feature", "properties": { "strassenschluessel": "05382000004829030", "bezeichnung": "Fliederstraße" }, "geometry": { "type": "Point", "coordinates": [ 6.936153305446367, 50.625218556762505 ] } },
{ "type": "Feature", "properties": { "strassenschluessel": "05382000004829031", "bezeichnung": "Gablonzer Straße" }, "geometry": { "type": "Point", "coordinates": [ 6.943451036007493, 50.618446105986401 ] } },
{ "type": "Feature", "properties": { "strassenschluessel": "05382000004829032", "bezeichnung": "Gartenstraße" }, "geometry": { "type": "Point", "coordinates": [ 6.958766378146964, 50.622623030463863 ] } },
{ "type": "Feature", "properties": { "strassenschluessel": "05382000004829033", "bezeichnung": "Gerbergasse" }, "geometry": { "type": "Point", "coordinates": [ 6.952245606014404, 50.626673994009209 ] } },
{ "type": "Feature", "properties": { "strassenschluessel": "05382000004829034", "bezeichnung": "Grabenstraße" }, "geometry": { "type": "Point", "coordinates": [ 6.950721602039073, 50.627298054803049 ] } },
{ "type": "Feature", "properties": { "strassenschluessel": "05382000004829035", "bezeichnung": "Gräbbachweg" }, "geometry": { "type": "Point", "coordinates": [ 6.956891598597291, 50.626265365401544 ] } },
{ "type": "Feature", "properties": { "strassenschluessel": "05382000004829036", "bezeichnung": "Gut Waldau" }, "geometry": { "type": "Point", "coordinates": [ 6.915801219727822, 50.615047680417575 ] } },
{ "type": "Feature", "properties": { "strassenschluessel": "05382000004829037", "bezeichnung": "Gymnasiumstraße" }, "geometry": { "type": "Point", "coordinates": [ 6.953410071128742, 50.626322749155932 ] } },
{ "type": "Feature", "properties": { "strassenschluessel": "05382000004829038", "bezeichnung": "Händelstraße" }, "geometry": { "type": "Point", "coordinates": [ 6.938581760332791, 50.617712761714117 ] } },
{ "type": "Feature", "properties": { "strassenschluessel": "05382000004829039", "bezeichnung": "Haidaer Straße" }, "geometry": { "type": "Point", "coordinates": [ 6.943079737804746, 50.616930337216083 ] } },
{ "type": "Feature", "properties": { "strassenschluessel": "05382000004829040", "bezeichnung": "Hauptstraße" }, "geometry": { "type": "Point", "coordinates": [ 6.950118616269713, 50.625833630813453 ] } },
{ "type": "Feature", "properties": { "strassenschluessel": "05382000004829041", "bezeichnung": "Haydnweg" }, "geometry": { "type": "Point", "coordinates": [ 6.938172273844494, 50.623326423465507 ] } },
{ "type": "Feature", "properties": { "strassenschluessel": "05382000004829042", "bezeichnung": "Heeg" }, "geometry": { "type": "Point", "coordinates": [ 6.957692867381538, 50.625919776504396 ] } },
{ "type": "Feature", "properties": { "strassenschluessel": "05382000004829043", "bezeichnung": "Himmeroder Wall" }, "geometry": { "type": "Point", "coordinates": [ 6.949199985937205, 50.623805699380291 ] } },
{ "type": "Feature", "properties": { "strassenschluessel": "05382000004829044", "bezeichnung": "Holunderweg" }, "geometry": { "type": "Point", "coordinates": [ 6.955857811110419, 50.623887150032196 ] } },
{ "type": "Feature", "properties": { "strassenschluessel": "05382000004829045", "bezeichnung": "In dem Busch" }, "geometry": { "type": "Point", "coordinates": [ 6.941545601650255, 50.623454142298392 ] } },
{ "type": "Feature", "properties": { "strassenschluessel": "05382000004829046", "bezeichnung": "Industriestraße" }, "geometry": { "type": "Point", "coordinates": [ 6.957814674219764, 50.634476200447672 ] } },
{ "type": "Feature", "properties": { "strassenschluessel": "05382000004829047", "bezeichnung": "Jahnstraße" }, "geometry": { "type": "Point", "coordinates": [ 6.954618337288788, 50.622208883259823 ] } },
{ "type": "Feature", "properties": { "strassenschluessel": "05382000004829048", "bezeichnung": "Junkergasse" }, "geometry": { "type": "Point", "coordinates": [ 6.947573655213634, 50.625194978745526 ] } },
{ "type": "Feature", "properties": { "strassenschluessel": "05382000004829049", "bezeichnung": "KAB-Ring" }, "geometry": { "type": "Point", "coordinates": [ 6.94491440674853, 50.632856045363894 ] } },
{ "type": "Feature", "properties": { "strassenschluessel": "05382000004829050", "bezeichnung": "Kallenturm" }, "geometry": { "type": "Point", "coordinates": [ 6.951057105749269, 50.626373687585357 ] } },
{ "type": "Feature", "properties": { "strassenschluessel": "05382000004829051", "bezeichnung": "Keramikerstraße" }, "geometry": { "type": "Point", "coordinates": [ 6.949333956270934, 50.631602519644119 ] } },
{ "type": "Feature", "properties": { "strassenschluessel": "05382000004829052", "bezeichnung": "Kettelerstraße" }, "geometry": { "type": "Point", "coordinates": [ 6.946929590758717, 50.630253280144629 ] } },
{ "type": "Feature", "properties": { "strassenschluessel": "05382000004829053", "bezeichnung": "Kiefernweg" }, "geometry": { "type": "Point", "coordinates": [ 6.956772383781074, 50.619954223744344 ] } },
{ "type": "Feature", "properties": { "strassenschluessel": "05382000004829054", "bezeichnung": "Kleine Heeg" }, "geometry": { "type": "Point", "coordinates": [ 6.960447401729106, 50.627181359866277 ] } },
{ "type": "Feature", "properties": { "strassenschluessel": "05382000004829055", "bezeichnung": "Koblenzer Straße" }, "geometry": { "type": "Point", "coordinates": [ 6.956141474533541, 50.625466939631302 ] } },
{ "type": "Feature", "properties": { "strassenschluessel": "05382000004829056", "bezeichnung": "Königsberger Straße" }, "geometry": { "type": "Point", "coordinates": [ 6.943799647909711, 50.619787587426885 ] } },
{ "type": "Feature", "properties": { "strassenschluessel": "05382000004829057", "bezeichnung": "Kolpingstraße" }, "geometry": { "type": "Point", "coordinates": [ 6.941930003474408, 50.632286661335918 ] } },
{ "type": "Feature", "properties": { "strassenschluessel": "05382000004829058", "bezeichnung": "Kriegerstraße" }, "geometry": { "type": "Point", "coordinates": [ 6.952655513690379, 50.627354010812518 ] } },
{ "type": "Feature", "properties": { "strassenschluessel": "05382000004829059", "bezeichnung": "Ladestraße" }, "geometry": null },
{ "type": "Feature", "properties": { "strassenschluessel": "05382000004829060", "bezeichnung": "Langgasse" }, "geometry": { "type": "Point", "coordinates": [ 6.949001848504992, 50.626016187072416 ] } },
{ "type": "Feature", "properties": { "strassenschluessel": "05382000004829061", "bezeichnung": "Leberstraße" }, "geometry": { "type": "Point", "coordinates": [ 6.944964567775876, 50.630550440577672 ] } },
{ "type": "Feature", "properties": { "strassenschluessel": "05382000004829062", "bezeichnung": "Leipziger Straße" }, "geometry": { "type": "Point", "coordinates": [ 6.941289324436432, 50.618246045224971 ] } },
{ "type": "Feature", "properties": { "strassenschluessel": "05382000004829063", "bezeichnung": "Lessingweg" }, "geometry": { "type": "Point", "coordinates": [ 6.946169046304762, 50.620178604125577 ] } },
{ "type": "Feature", "properties": { "strassenschluessel": "05382000004829064", "bezeichnung": "Lilienweg" }, "geometry": { "type": "Point", "coordinates": [ 6.934996227843541, 50.625223294395653 ] } },
{ "type": "Feature", "properties": { "strassenschluessel": "05382000004829065", "bezeichnung": "Lindenplatz" }, "geometry": { "type": "Point", "coordinates": [ 6.949915310255221, 50.625701516370363 ] } },
{ "type": "Feature", "properties": { "strassenschluessel": "05382000004829066", "bezeichnung": "Lisztweg" }, "geometry": { "type": "Point", "coordinates": [ 6.937692107266711, 50.62270857298175 ] } },
{ "type": "Feature", "properties": { "strassenschluessel": "05382000004829067", "bezeichnung": "Löherstraße" }, "geometry": { "type": "Point", "coordinates": [ 6.951723841752694, 50.625961671134149 ] } },
{ "type": "Feature", "properties": { "strassenschluessel": "05382000004829068", "bezeichnung": "Lönsweg" }, "geometry": { "type": "Point", "coordinates": [ 6.948226361003624, 50.621143823496432 ] } },
{ "type": "Feature", "properties": { "strassenschluessel": "05382000004829069", "bezeichnung": "Lortzingstraße" }, "geometry": { "type": "Point", "coordinates": [ 6.938605000466363, 50.618552702747508 ] } },
{ "type": "Feature", "properties": { "strassenschluessel": "05382000004829070", "bezeichnung": "Lurheck" }, "geometry": { "type": "Point", "coordinates": [ 6.955512384068843, 50.621908632579405 ] } },
{ "type": "Feature", "properties": { "strassenschluessel": "05382000004829071", "bezeichnung": "Martinsallee" }, "geometry": { "type": "Point", "coordinates": [ 6.946519062785369, 50.624363466934916 ] } },
{ "type": "Feature", "properties": { "strassenschluessel": "05382000004829072", "bezeichnung": "Martinstraße" }, "geometry": { "type": "Point", "coordinates": [ 6.946066288487331, 50.624830278287384 ] } },
{ "type": "Feature", "properties": { "strassenschluessel": "05382000004829073", "bezeichnung": "Meckenheimer Straße" }, "geometry": { "type": "Point", "coordinates": [ 6.960599116613187, 50.624836803360431 ] } },
{ "type": "Feature", "properties": { "strassenschluessel": "05382000004829074", "bezeichnung": "Mittelweg" }, "geometry": { "type": "Point", "coordinates": [ 6.950117464945748, 50.622916836127693 ] } },
{ "type": "Feature", "properties": { "strassenschluessel": "05382000004829075", "bezeichnung": "Mörikeweg" }, "geometry": { "type": "Point", "coordinates": [ 6.945721044116695, 50.61601481828702 ] } },
{ "type": "Feature", "properties": { "strassenschluessel": "05382000004829076", "bezeichnung": "Mozartstraße" }, "geometry": { "type": "Point", "coordinates": [ 6.938839585951939, 50.62415595286339 ] } },
{ "type": "Feature", "properties": { "strassenschluessel": "05382000004829077", "bezeichnung": "Mühlengasse" }, "geometry": null },
{ "type": "Feature", "properties": { "strassenschluessel": "05382000004829078", "bezeichnung": "Münstereifeler Straße" }, "geometry": { "type": "Point", "coordinates": [ 6.943171740777148, 50.626792658524266 ] } },
{ "type": "Feature", "properties": { "strassenschluessel": "05382000004829079", "bezeichnung": "Münstergäßchen" }, "geometry": { "type": "Point", "coordinates": [ 6.944249993893023, 50.625715409249445 ] } },
{ "type": "Feature", "properties": { "strassenschluessel": "05382000004829080", "bezeichnung": "Nachtigallengrund" }, "geometry": { "type": "Point", "coordinates": [ 6.95420406303578, 50.622319719002768 ] } },
{ "type": "Feature", "properties": { "strassenschluessel": "05382000004829081", "bezeichnung": "Nelkenweg" }, "geometry": { "type": "Point", "coordinates": [ 6.934491369612829, 50.62708824209524 ] } },
{ "type": "Feature", "properties": { "strassenschluessel": "05382000004829082", "bezeichnung": "Neugartenstraße" }, "geometry": { "type": "Point", "coordinates": [ 6.948672095414635, 50.621851343342271 ] } },
{ "type": "Feature", "properties": { "strassenschluessel": "05382000004829083", "bezeichnung": "Neukirchener Weg" }, "geometry": { "type": "Point", "coordinates": [ 6.944056818723306, 50.614121561028725 ] } },
{ "type": "Feature", "properties": { "strassenschluessel": "05382000004829084", "bezeichnung": "Ölmühlenweg" }, "geometry": { "type": "Point", "coordinates": [ 6.943832420107985, 50.61306365641304 ] } },
{ "type": "Feature", "properties": { "strassenschluessel": "05382000004829085", "bezeichnung": "Oppelner Straße" }, "geometry": { "type": "Point", "coordinates": [ 6.941984622243507, 50.62100661546355 ] } },
{ "type": "Feature", "properties": { "strassenschluessel": "05382000004829086", "bezeichnung": "Pallottistraße" }, "geometry": { "type": "Point", "coordinates": [ 6.952513667438177, 50.625085150887159 ] } },
{ "type": "Feature", "properties": { "strassenschluessel": "05382000004829087", "bezeichnung": "Pfarrgasse" }, "geometry": { "type": "Point", "coordinates": [ 6.949816850011874, 50.625201459620676 ] } },
{ "type": "Feature", "properties": { "strassenschluessel": "05382000004829088", "bezeichnung": "Polligsstraße" }, "geometry": { "type": "Point", "coordinates": [ 6.949112165901339, 50.624541066000553 ] } },
{ "type": "Feature", "properties": { "strassenschluessel": "05382000004829089", "bezeichnung": "Prümer Wall" }, "geometry": { "type": "Point", "coordinates": [ 6.947435482671794, 50.624747348742119 ] } },
{ "type": "Feature", "properties": { "strassenschluessel": "05382000004829090", "bezeichnung": "Pützstraße" }, "geometry": { "type": "Point", "coordinates": [ 6.946769755674432, 50.625233425875557 ] } },
{ "type": "Feature", "properties": { "strassenschluessel": "05382000004829091", "bezeichnung": "Raiffeisenweg" }, "geometry": { "type": "Point", "coordinates": [ 6.941630024017587, 50.628639014432821 ] } },
{ "type": "Feature", "properties": { "strassenschluessel": "05382000004829092", "bezeichnung": "Ramershovener Straße" }, "geometry": { "type": "Point", "coordinates": [ 6.95461189352445, 50.627390847812876 ] } },
{ "type": "Feature", "properties": { "strassenschluessel": "05382000004829093", "bezeichnung": "Regerstraße" }, "geometry": { "type": "Point", "coordinates": [ 6.937928926169914, 50.620864967000351 ] } },
{ "type": "Feature", "properties": { "strassenschluessel": "05382000004829094", "bezeichnung": "Rodderfeld" }, "geometry": { "type": "Point", "coordinates": [ 6.939195008028331, 50.625710110181423 ] } },
{ "type": "Feature", "properties": { "strassenschluessel": "05382000004829095", "bezeichnung": "Römerkanal" }, "geometry": { "type": "Point", "coordinates": [ 6.957512907853832, 50.628416969426219 ] } },
{ "type": "Feature", "properties": { "strassenschluessel": "05382000004829096", "bezeichnung": "Roidestraße" }, "geometry": { "type": "Point", "coordinates": [ 6.939481670625023, 50.627363649729119 ] } },
{ "type": "Feature", "properties": { "strassenschluessel": "05382000004829097", "bezeichnung": "Rosenstraße" }, "geometry": { "type": "Point", "coordinates": [ 6.934315925593617, 50.627433944261689 ] } },
{ "type": "Feature", "properties": { "strassenschluessel": "05382000004829098", "bezeichnung": "Rotdorn" }, "geometry": { "type": "Point", "coordinates": [ 6.95714068953009, 50.620965426442595 ] } },
{ "type": "Feature", "properties": { "strassenschluessel": "05382000004829099", "bezeichnung": "Rotterbach" }, "geometry": { "type": "Point", "coordinates": [ 6.938417907509987, 50.629866828671666 ] } },
{ "type": "Feature", "properties": { "strassenschluessel": "05382000004829100", "bezeichnung": "Sassestraße" }, "geometry": { "type": "Point", "coordinates": [ 6.943423056478289, 50.632086568268456 ] } },
{ "type": "Feature", "properties": { "strassenschluessel": "05382000004829101", "bezeichnung": "Schornbuschweg" }, "geometry": { "type": "Point", "coordinates": [ 6.927976013754684, 50.623596147448417 ] } },
{ "type": "Feature", "properties": { "strassenschluessel": "05382000004829102", "bezeichnung": "Schubertstraße" }, "geometry": { "type": "Point", "coordinates": [ 6.937183675177375, 50.623806442316138 ] } },
{ "type": "Feature", "properties": { "strassenschluessel": "05382000004829103", "bezeichnung": "Schützenstraße" }, "geometry": { "type": "Point", "coordinates": [ 6.955375253434362, 50.623785032185438 ] } },
{ "type": "Feature", "properties": { "strassenschluessel": "05382000004829104", "bezeichnung": "Schumannstraße" }, "geometry": { "type": "Point", "coordinates": [ 6.943180328786632, 50.622638466379605 ] } },
{ "type": "Feature", "properties": { "strassenschluessel": "05382000004829105", "bezeichnung": "Schweigelstraße" }, "geometry": { "type": "Point", "coordinates": [ 6.94984417795599, 50.625915954198426 ] } },
{ "type": "Feature", "properties": { "strassenschluessel": "05382000004829106", "bezeichnung": "Segerstraße" }, "geometry": { "type": "Point", "coordinates": [ 6.960528290647512, 50.626238224802329 ] } },
{ "type": "Feature", "properties": { "strassenschluessel": "05382000004829107", "bezeichnung": "Sonnenscheinstraße" }, "geometry": { "type": "Point", "coordinates": [ 6.943741818620235, 50.631468952144935 ] } },
{ "type": "Feature", "properties": { "strassenschluessel": "05382000004829108", "bezeichnung": "Speckelsteinweg" }, "geometry": { "type": "Point", "coordinates": [ 6.940696842382131, 50.626925042417092 ] } },
{ "type": "Feature", "properties": { "strassenschluessel": "05382000004829109", "bezeichnung": "Stadtpark" }, "geometry": { "type": "Point", "coordinates": [ 6.95022088720387, 50.623555706705822 ] } },
{ "type": "Feature", "properties": { "strassenschluessel": "05382000004829110", "bezeichnung": "Stauffenbergstraße" }, "geometry": { "type": "Point", "coordinates": [ 6.947686913475989, 50.632060806715209 ] } },
{ "type": "Feature", "properties": { "strassenschluessel": "05382000004829111", "bezeichnung": "Stegerwaldweg" }, "geometry": { "type": "Point", "coordinates": [ 6.944487049720935, 50.631324015039482 ] } },
{ "type": "Feature", "properties": { "strassenschluessel": "05382000004829112", "bezeichnung": "Steinschönauer Straße" }, "geometry": { "type": "Point", "coordinates": [ 6.944278292951457, 50.617338115726213 ] } },
{ "type": "Feature", "properties": { "strassenschluessel": "05382000004829114", "bezeichnung": "Stifterweg" }, "geometry": { "type": "Point", "coordinates": [ 6.948580322452402, 50.620182605639847 ] } },
{ "type": "Feature", "properties": { "strassenschluessel": "05382000004829115", "bezeichnung": "Sürster Weg" }, "geometry": { "type": "Point", "coordinates": [ 6.943920272591417, 50.621482679686672 ] } },
{ "type": "Feature", "properties": { "strassenschluessel": "05382000004829116", "bezeichnung": "Tulpenweg" }, "geometry": { "type": "Point", "coordinates": [ 6.935399820760685, 50.627925070965844 ] } },
{ "type": "Feature", "properties": { "strassenschluessel": "05382000004829117", "bezeichnung": "Turmstraße" }, "geometry": { "type": "Point", "coordinates": [ 6.944100719036284, 50.624790778302128 ] } },
{ "type": "Feature", "properties": { "strassenschluessel": "05382000004829118", "bezeichnung": "Uhlandweg" }, "geometry": { "type": "Point", "coordinates": [ 6.946235428365286, 50.618967184085157 ] } },
{ "type": "Feature", "properties": { "strassenschluessel": "05382000004829119", "bezeichnung": "Unter Linden" }, "geometry": { "type": "Point", "coordinates": [ 6.955155238605212, 50.621417431447689 ] } },
{ "type": "Feature", "properties": { "strassenschluessel": "05382000004829120", "bezeichnung": "Villeneuver Straße" }, "geometry": { "type": "Point", "coordinates": [ 6.953945987756153, 50.618252747192393 ] } },
{ "type": "Feature", "properties": { "strassenschluessel": "05382000004829121", "bezeichnung": "Vor dem Dreeser Tor" }, "geometry": { "type": "Point", "coordinates": [ 6.945939096315817, 50.627218802391681 ] } },
{ "type": "Feature", "properties": { "strassenschluessel": "05382000004829122", "bezeichnung": "Vor dem Voigtstor" }, "geometry": { "type": "Point", "coordinates": [ 6.952869407967065, 50.625864203400994 ] } },
{ "type": "Feature", "properties": { "strassenschluessel": "05382000004829123", "bezeichnung": "Wagnerstraße" }, "geometry": { "type": "Point", "coordinates": [ 6.942043859800304, 50.624249608011198 ] } },
{ "type": "Feature", "properties": { "strassenschluessel": "05382000004829124", "bezeichnung": "Waldwinkel" }, "geometry": { "type": "Point", "coordinates": [ 6.9463913766828, 50.610905835159997 ] } },
{ "type": "Feature", "properties": { "strassenschluessel": "05382000004829125", "bezeichnung": "Weberstraße" }, "geometry": { "type": "Point", "coordinates": [ 6.938369678673562, 50.627307887285298 ] } },
{ "type": "Feature", "properties": { "strassenschluessel": "05382000004829126", "bezeichnung": "Weiherstraße" }, "geometry": { "type": "Point", "coordinates": [ 6.948173203921476, 50.625023553661471 ] } },
{ "type": "Feature", "properties": { "strassenschluessel": "05382000004829127", "bezeichnung": "Weilerweg" }, "geometry": { "type": "Point", "coordinates": [ 6.957070207345375, 50.623283469637805 ] } },
{ "type": "Feature", "properties": { "strassenschluessel": "05382000004829128", "bezeichnung": "Weimarer Straße" }, "geometry": { "type": "Point", "coordinates": [ 6.938577239803841, 50.621309506359637 ] } },
{ "type": "Feature", "properties": { "strassenschluessel": "05382000004829129", "bezeichnung": "Wilhelmsplatz" }, "geometry": { "type": "Point", "coordinates": [ 6.947274803702951, 50.626697374157295 ] } },
{ "type": "Feature", "properties": { "strassenschluessel": "05382000004829130", "bezeichnung": "Windthorstweg" }, "geometry": { "type": "Point", "coordinates": [ 6.945548782002231, 50.631066895198764 ] } },
{ "type": "Feature", "properties": { "strassenschluessel": "05382000004829131", "bezeichnung": "Wingchen" }, "geometry": { "type": "Point", "coordinates": [ 6.949580521446288, 50.623257097160653 ] } },
{ "type": "Feature", "properties": { "strassenschluessel": "05382000004829132", "bezeichnung": "Zu den Fichten" }, "geometry": { "type": "Point", "coordinates": [ 6.954709206579865, 50.6195286062446 ] } },
{ "type": "Feature", "properties": { "strassenschluessel": "05382000004829135", "bezeichnung": "Bonner Straße" }, "geometry": { "type": "Point", "coordinates": [ 6.985130472002142, 50.645158896915291 ] } },
{ "type": "Feature", "properties": { "strassenschluessel": "05382000004829136", "bezeichnung": "Burgstraße" }, "geometry": { "type": "Point", "coordinates": [ 6.988403322068768, 50.645700702631601 ] } },
{ "type": "Feature", "properties": { "strassenschluessel": "05382000004829137", "bezeichnung": "Fliesweg" }, "geometry": { "type": "Point", "coordinates": [ 6.988691361772296, 50.644835656022593 ] } },
{ "type": "Feature", "properties": { "strassenschluessel": "05382000004829138", "bezeichnung": "Gronauweg" }, "geometry": { "type": "Point", "coordinates": [ 6.991910170901326, 50.646185469669973 ] } },
{ "type": "Feature", "properties": { "strassenschluessel": "05382000004829139", "bezeichnung": "Hanfgasse" }, "geometry": { "type": "Point", "coordinates": [ 6.9870028985201, 50.645981250195554 ] } },
{ "type": "Feature", "properties": { "strassenschluessel": "05382000004829140", "bezeichnung": "Heisterbacher Straße" }, "geometry": { "type": "Point", "coordinates": [ 6.991969162199436, 50.648374909962605 ] } },
{ "type": "Feature", "properties": { "strassenschluessel": "05382000004829141", "bezeichnung": "Hommelsheimstraße" }, "geometry": { "type": "Point", "coordinates": [ 6.9821811095553, 50.648521686540157 ] } },
{ "type": "Feature", "properties": { "strassenschluessel": "05382000004829142", "bezeichnung": "Kottenforstweg" }, "geometry": { "type": "Point", "coordinates": [ 6.985108596459542, 50.653698659880732 ] } },
{ "type": "Feature", "properties": { "strassenschluessel": "05382000004829143", "bezeichnung": "Mönchstraße" }, "geometry": { "type": "Point", "coordinates": [ 6.984774915336321, 50.647835516523614 ] } },
{ "type": "Feature", "properties": { "strassenschluessel": "05382000004829144", "bezeichnung": "Nordstraße" }, "geometry": { "type": "Point", "coordinates": [ 6.985657474564428, 50.6503511757167 ] } },
{ "type": "Feature", "properties": { "strassenschluessel": "05382000004829145", "bezeichnung": "Nußbaumstraße" }, "geometry": { "type": "Point", "coordinates": [ 6.983577918178223, 50.649651773476521 ] } },
{ "type": "Feature", "properties": { "strassenschluessel": "05382000004829146", "bezeichnung": "Oststraße" }, "geometry": { "type": "Point", "coordinates": [ 6.987153526031228, 50.650679597448985 ] } },
{ "type": "Feature", "properties": { "strassenschluessel": "05382000004829147", "bezeichnung": "Rottstraße" }, "geometry": { "type": "Point", "coordinates": [ 6.986634008822145, 50.649331007561692 ] } },
{ "type": "Feature", "properties": { "strassenschluessel": "05382000004829148", "bezeichnung": "Schmidtstraße" }, "geometry": { "type": "Point", "coordinates": [ 6.985206848038403, 50.649810444774573 ] } },
{ "type": "Feature", "properties": { "strassenschluessel": "05382000004829149", "bezeichnung": "Swistbach" }, "geometry": { "type": "Point", "coordinates": [ 6.985965773514775, 50.64816069776402 ] } },
{ "type": "Feature", "properties": { "strassenschluessel": "05382000004829150", "bezeichnung": "Wasserweg" }, "geometry": { "type": "Point", "coordinates": [ 6.986915836268465, 50.643788118258257 ] } },
{ "type": "Feature", "properties": { "strassenschluessel": "05382000004829151", "bezeichnung": "Konrad-Adenauer-Straße" }, "geometry": { "type": "Point", "coordinates": [ 6.985831789676821, 50.649888878581471 ] } },
{ "type": "Feature", "properties": { "strassenschluessel": "05382000004829152", "bezeichnung": "Windmühlenweg" }, "geometry": { "type": "Point", "coordinates": [ 6.990105002550957, 50.648200816265032 ] } },
{ "type": "Feature", "properties": { "strassenschluessel": "05382000004829153", "bezeichnung": "Zippengasse" }, "geometry": { "type": "Point", "coordinates": [ 6.986133723240307, 50.647000489396042 ] } },
{ "type": "Feature", "properties": { "strassenschluessel": "05382000004829155", "bezeichnung": "An der Burg" }, "geometry": { "type": "Point", "coordinates": [ 6.968371405319473, 50.564138374076542 ] } },
{ "type": "Feature", "properties": { "strassenschluessel": "05382000004829156", "bezeichnung": "Auf dem Essig" }, "geometry": { "type": "Point", "coordinates": [ 6.963122941712375, 50.565299550366319 ] } },
{ "type": "Feature", "properties": { "strassenschluessel": "05382000004829157", "bezeichnung": "Eidbusch" }, "geometry": { "type": "Point", "coordinates": [ 6.967106629150198, 50.566097957105022 ] } },
{ "type": "Feature", "properties": { "strassenschluessel": "05382000004829158", "bezeichnung": "Brunnenstraße" }, "geometry": { "type": "Point", "coordinates": [ 6.964288994200961, 50.563816193811647 ] } },
{ "type": "Feature", "properties": { "strassenschluessel": "05382000004829159", "bezeichnung": "Dorfstraße" }, "geometry": { "type": "Point", "coordinates": [ 6.965942834526901, 50.564779290025498 ] } },
{ "type": "Feature", "properties": { "strassenschluessel": "05382000004829160", "bezeichnung": "Heidenfeld" }, "geometry": { "type": "Point", "coordinates": [ 6.967353774650181, 50.563487684969864 ] } },
{ "type": "Feature", "properties": { "strassenschluessel": "05382000004829161", "bezeichnung": "Hilberather Straße" }, "geometry": { "type": "Point", "coordinates": [ 6.966414064418731, 50.56391759682267 ] } },
{ "type": "Feature", "properties": { "strassenschluessel": "05382000004829162", "bezeichnung": "Höhe" }, "geometry": { "type": "Point", "coordinates": [ 6.968290311086599, 50.56305499394086 ] } },
{ "type": "Feature", "properties": { "strassenschluessel": "05382000004829163", "bezeichnung": "Kirchweg" }, "geometry": { "type": "Point", "coordinates": [ 6.965870593640945, 50.565456285327897 ] } },
{ "type": "Feature", "properties": { "strassenschluessel": "05382000004829164", "bezeichnung": "Nierenfeld" }, "geometry": { "type": "Point", "coordinates": [ 6.969846887074437, 50.56726182558225 ] } },
{ "type": "Feature", "properties": { "strassenschluessel": "05382000004829165", "bezeichnung": "Riepersheck" }, "geometry": { "type": "Point", "coordinates": [ 6.967972630504003, 50.567711256329382 ] } },
{ "type": "Feature", "properties": { "strassenschluessel": "05382000004829167", "bezeichnung": "Birzenhardt" }, "geometry": { "type": "Point", "coordinates": [ 6.92095829889248, 50.5856830719028 ] } },
{ "type": "Feature", "properties": { "strassenschluessel": "05382000004829168", "bezeichnung": "Bröckweg" }, "geometry": { "type": "Point", "coordinates": [ 6.928903320676965, 50.588376221754757 ] } },
{ "type": "Feature", "properties": { "strassenschluessel": "05382000004829169", "bezeichnung": "Eschenfeld" }, "geometry": { "type": "Point", "coordinates": [ 6.924383019000037, 50.586860568713185 ] } },
{ "type": "Feature", "properties": { "strassenschluessel": "05382000004829170", "bezeichnung": "Hilgersheck" }, "geometry": { "type": "Point", "coordinates": [ 6.930361084209437, 50.586822810410943 ] } },
{ "type": "Feature", "properties": { "strassenschluessel": "05382000004829171", "bezeichnung": "Hubertuskreuz" }, "geometry": { "type": "Point", "coordinates": [ 6.930278944003471, 50.592182322013535 ] } },
{ "type": "Feature", "properties": { "strassenschluessel": "05382000004829172", "bezeichnung": "Hüttenstraße" }, "geometry": { "type": "Point", "coordinates": [ 6.92580969423321, 50.588395483348883 ] } },
{ "type": "Feature", "properties": { "strassenschluessel": "05382000004829173", "bezeichnung": "Meerkatz" }, "geometry": { "type": "Point", "coordinates": [ 6.928805002051111, 50.585677350723138 ] } },
{ "type": "Feature", "properties": { "strassenschluessel": "05382000004829174", "bezeichnung": "Neukirchener Straße" }, "geometry": { "type": "Point", "coordinates": [ 6.928946423175526, 50.590428833582159 ] } },
{ "type": "Feature", "properties": { "strassenschluessel": "05382000004829177", "bezeichnung": "Alte Holzgasse" }, "geometry": { "type": "Point", "coordinates": [ 6.91814401657208, 50.649347303332405 ] } },
{ "type": "Feature", "properties": { "strassenschluessel": "05382000004829178", "bezeichnung": "Honighofgasse" }, "geometry": { "type": "Point", "coordinates": [ 6.919558901191968, 50.650736425614987 ] } },
{ "type": "Feature", "properties": { "strassenschluessel": "05382000004829179", "bezeichnung": "Im Hoog" }, "geometry": { "type": "Point", "coordinates": [ 6.913901286513717, 50.649630629903214 ] } },
{ "type": "Feature", "properties": { "strassenschluessel": "05382000004829180", "bezeichnung": "Kirchgasse" }, "geometry": { "type": "Point", "coordinates": [ 6.917676230735693, 50.650487681797948 ] } },
{ "type": "Feature", "properties": { "strassenschluessel": "05382000004829181", "bezeichnung": "Kreisstraße" }, "geometry": { "type": "Point", "coordinates": [ 6.918641312917521, 50.650122792567892 ] } },
{ "type": "Feature", "properties": { "strassenschluessel": "05382000004829182", "bezeichnung": "Kreuzburgweg" }, "geometry": { "type": "Point", "coordinates": [ 6.917206469272967, 50.649273871532841 ] } },
{ "type": "Feature", "properties": { "strassenschluessel": "05382000004829183", "bezeichnung": "Lerchenweg" }, "geometry": { "type": "Point", "coordinates": [ 6.915589283976593, 50.648640741659094 ] } },
{ "type": "Feature", "properties": { "strassenschluessel": "05382000004829184", "bezeichnung": "Niederdreeser Straße" }, "geometry": { "type": "Point", "coordinates": [ 6.918204515610197, 50.651508854592038 ] } },
{ "type": "Feature", "properties": { "strassenschluessel": "05382000004829185", "bezeichnung": "Schwalbenweg" }, "geometry": { "type": "Point", "coordinates": [ 6.915811912611089, 50.650334214556928 ] } },
{ "type": "Feature", "properties": { "strassenschluessel": "05382000004829187", "bezeichnung": "Annastraße" }, "geometry": { "type": "Point", "coordinates": [ 6.922127713851565, 50.641149897200918 ] } },
{ "type": "Feature", "properties": { "strassenschluessel": "05382000004829188", "bezeichnung": "Buschfeld" }, "geometry": { "type": "Point", "coordinates": [ 6.916682217004718, 50.638269486729293 ] } },
{ "type": "Feature", "properties": { "strassenschluessel": "05382000004829189", "bezeichnung": "Bundesstraße" }, "geometry": { "type": "Point", "coordinates": [ 6.921200514023062, 50.641775594211424 ] } },
{ "type": "Feature", "properties": { "strassenschluessel": "05382000004829190", "bezeichnung": "Burggraben" }, "geometry": { "type": "Point", "coordinates": [ 6.918513094556054, 50.64008760657218 ] } },
{ "type": "Feature", "properties": { "strassenschluessel": "05382000004829191", "bezeichnung": "Feldstraße" }, "geometry": { "type": "Point", "coordinates": [ 6.916999776473233, 50.639035204478652 ] } },
{ "type": "Feature", "properties": { "strassenschluessel": "05382000004829192", "bezeichnung": "Flamersheimer Weg" }, "geometry": { "type": "Point", "coordinates": [ 6.905697131685921, 50.639258031394149 ] } },
{ "type": "Feature", "properties": { "strassenschluessel": "05382000004829193", "bezeichnung": "Frankenstraße" }, "geometry": { "type": "Point", "coordinates": [ 6.916036395023561, 50.638624232584981 ] } },
{ "type": "Feature", "properties": { "strassenschluessel": "05382000004829195", "bezeichnung": "Greesgraben" }, "geometry": { "type": "Point", "coordinates": [ 6.920257163355641, 50.638234399675348 ] } },
{ "type": "Feature", "properties": { "strassenschluessel": "05382000004829196", "bezeichnung": "Hüllengarten" }, "geometry": { "type": "Point", "coordinates": [ 6.921943970121267, 50.640079357376145 ] } },
{ "type": "Feature", "properties": { "strassenschluessel": "05382000004829197", "bezeichnung": "Kannengasse" }, "geometry": { "type": "Point", "coordinates": [ 6.920877754024055, 50.639373002253279 ] } },
{ "type": "Feature", "properties": { "strassenschluessel": "05382000004829198", "bezeichnung": "Locher Weg" }, "geometry": { "type": "Point", "coordinates": [ 6.918165326338325, 50.636459483116347 ] } },
{ "type": "Feature", "properties": { "strassenschluessel": "05382000004829198", "bezeichnung": "Locher Weg" }, "geometry": { "type": "Point", "coordinates": [ 6.918165326338325, 50.636459483116347 ] } },
{ "type": "Feature", "properties": { "strassenschluessel": "05382000004829199", "bezeichnung": "Marienstraße" }, "geometry": { "type": "Point", "coordinates": [ 6.920362158408681, 50.63935224044716 ] } },
{ "type": "Feature", "properties": { "strassenschluessel": "05382000004829200", "bezeichnung": "Mausmaar" }, "geometry": { "type": "Point", "coordinates": [ 6.920875667749168, 50.637316905593792 ] } },
{ "type": "Feature", "properties": { "strassenschluessel": "05382000004829201", "bezeichnung": "Mieler Straße" }, "geometry": { "type": "Point", "coordinates": [ 6.920283552765077, 50.644447325296319 ] } },
{ "type": "Feature", "properties": { "strassenschluessel": "05382000004829202", "bezeichnung": "Oberdreeser Straße" }, "geometry": { "type": "Point", "coordinates": [ 6.919578079287216, 50.639783857288769 ] } },
{ "type": "Feature", "properties": { "strassenschluessel": "05382000004829203", "bezeichnung": "Odinstraße" }, "geometry": { "type": "Point", "coordinates": [ 6.917072532656936, 50.639842144553732 ] } },
{ "type": "Feature", "properties": { "strassenschluessel": "05382000004829204", "bezeichnung": "Rotterpfad" }, "geometry": { "type": "Point", "coordinates": [ 6.92260507346617, 50.638681630922484 ] } },
{ "type": "Feature", "properties": { "strassenschluessel": "05382000004829205", "bezeichnung": "Schornbusch" }, "geometry": { "type": "Point", "coordinates": [ 6.913059246203503, 50.639143547056165 ] } },
{ "type": "Feature", "properties": { "strassenschluessel": "05382000004829206", "bezeichnung": "Schornbuschweg" }, "geometry": { "type": "Point", "coordinates": [ 6.917868947606969, 50.626305990066292 ] } },
{ "type": "Feature", "properties": { "strassenschluessel": "05382000004829207", "bezeichnung": "Schulstraße" }, "geometry": { "type": "Point", "coordinates": [ 6.922334621446953, 50.639669930040135 ] } },
{ "type": "Feature", "properties": { "strassenschluessel": "05382000004829208", "bezeichnung": "Stolpstraße" }, "geometry": { "type": "Point", "coordinates": [ 6.923134257949615, 50.637749571435442 ] } },
{ "type": "Feature", "properties": { "strassenschluessel": "05382000004829209", "bezeichnung": "Bahnposten" }, "geometry": null },
{ "type": "Feature", "properties": { "strassenschluessel": "05382000004829211", "bezeichnung": "Alte Höhle" }, "geometry": { "type": "Point", "coordinates": [ 6.890500405538754, 50.595121862192713 ] } },
{ "type": "Feature", "properties": { "strassenschluessel": "05382000004829212", "bezeichnung": "Eichener Weg" }, "geometry": { "type": "Point", "coordinates": [ 6.89104760646906, 50.592135266443627 ] } },
{ "type": "Feature", "properties": { "strassenschluessel": "05382000004829213", "bezeichnung": "Kaulengasse" }, "geometry": { "type": "Point", "coordinates": [ 6.886691174151278, 50.593530198200057 ] } },
{ "type": "Feature", "properties": { "strassenschluessel": "05382000004829214", "bezeichnung": "Madbachstraße" }, "geometry": { "type": "Point", "coordinates": [ 6.891031374986667, 50.594101703947032 ] } },
{ "type": "Feature", "properties": { "strassenschluessel": "05382000004829215", "bezeichnung": "Queckenberger Straße" }, "geometry": { "type": "Point", "coordinates": [ 6.894062343628051, 50.592907296492804 ] } },
{ "type": "Feature", "properties": { "strassenschluessel": "05382000004829216", "bezeichnung": "Stuppenkreuz" }, "geometry": { "type": "Point", "coordinates": [ 6.893461617058678, 50.593183888342963 ] } },
{ "type": "Feature", "properties": { "strassenschluessel": "05382000004829218", "bezeichnung": "Eichenstraße" }, "geometry": { "type": "Point", "coordinates": [ 6.964692742147852, 50.643488336798292 ] } },
{ "type": "Feature", "properties": { "strassenschluessel": "05382000004829219", "bezeichnung": "Flerzheimer Straße" }, "geometry": { "type": "Point", "coordinates": [ 6.96627435862572, 50.641192679572285 ] } },
{ "type": "Feature", "properties": { "strassenschluessel": "05382000004829220", "bezeichnung": "Heerstraße" }, "geometry": { "type": "Point", "coordinates": [ 6.962342723466336, 50.64032998315416 ] } },
{ "type": "Feature", "properties": { "strassenschluessel": "05382000004829221", "bezeichnung": "Hochbachweg" }, "geometry": { "type": "Point", "coordinates": [ 6.961678671508453, 50.643588517286993 ] } },
{ "type": "Feature", "properties": { "strassenschluessel": "05382000004829222", "bezeichnung": "Peppenhovener Straße" }, "geometry": { "type": "Point", "coordinates": [ 6.963247516274075, 50.641956419142474 ] } },
{ "type": "Feature", "properties": { "strassenschluessel": "05382000004829223", "bezeichnung": "Schmidtheimer Straße" }, "geometry": { "type": "Point", "coordinates": [ 6.965779601672498, 50.643308541949892 ] } },
{ "type": "Feature", "properties": { "strassenschluessel": "05382000004829225", "bezeichnung": "Birk" }, "geometry": { "type": "Point", "coordinates": [ 6.950586044534413, 50.577617343237122 ] } },
{ "type": "Feature", "properties": { "strassenschluessel": "05382000004829226", "bezeichnung": "Hügel" }, "geometry": { "type": "Point", "coordinates": [ 6.947777235826317, 50.577866721642714 ] } },
{ "type": "Feature", "properties": { "strassenschluessel": "05382000004829227", "bezeichnung": "Kirchstraße" }, "geometry": { "type": "Point", "coordinates": [ 6.947215172246286, 50.577494991991308 ] } },
{ "type": "Feature", "properties": { "strassenschluessel": "05382000004829228", "bezeichnung": "Kreuzfeld" }, "geometry": { "type": "Point", "coordinates": [ 6.9477353761657, 50.577114683691065 ] } },
{ "type": "Feature", "properties": { "strassenschluessel": "05382000004829229", "bezeichnung": "Landskronweg" }, "geometry": { "type": "Point", "coordinates": [ 6.951497119432771, 50.57754166175696 ] } },
{ "type": "Feature", "properties": { "strassenschluessel": "05382000004829230", "bezeichnung": "Pützhardt" }, "geometry": { "type": "Point", "coordinates": [ 6.95007837495535, 50.578758133942969 ] } },
{ "type": "Feature", "properties": { "strassenschluessel": "05382000004829231", "bezeichnung": "Todenfelder Straße" }, "geometry": { "type": "Point", "coordinates": [ 6.945815629837433, 50.578960712697871 ] } },
{ "type": "Feature", "properties": { "strassenschluessel": "05382000004829232", "bezeichnung": "Zur Tomburg" }, "geometry": { "type": "Point", "coordinates": [ 6.947435272324247, 50.578129388435421 ] } },
{ "type": "Feature", "properties": { "strassenschluessel": "05382000004829234", "bezeichnung": "Ahrweg" }, "geometry": { "type": "Point", "coordinates": [ 6.985682640720927, 50.603416536168872 ] } },
{ "type": "Feature", "properties": { "strassenschluessel": "05382000004829235", "bezeichnung": "Beienbruch" }, "geometry": { "type": "Point", "coordinates": [ 6.986394802069089, 50.603553970433893 ] } },
{ "type": "Feature", "properties": { "strassenschluessel": "05382000004829236", "bezeichnung": "Beierweg" }, "geometry": { "type": "Point", "coordinates": [ 6.987330135452806, 50.599142415582307 ] } },
{ "type": "Feature", "properties": { "strassenschluessel": "05382000004829237", "bezeichnung": "Brückenhofstraße" }, "geometry": { "type": "Point", "coordinates": [ 6.987071707561806, 50.606250446717759 ] } },
{ "type": "Feature", "properties": { "strassenschluessel": "05382000004829238", "bezeichnung": "Burgweg" }, "geometry": { "type": "Point", "coordinates": [ 6.993722279425312, 50.599857415011471 ] } },
{ "type": "Feature", "properties": { "strassenschluessel": "05382000004829239", "bezeichnung": "Ellig" }, "geometry": { "type": "Point", "coordinates": [ 6.988554549266459, 50.606048946650432 ] } },
{ "type": "Feature", "properties": { "strassenschluessel": "05382000004829240", "bezeichnung": "Ezzostraße" }, "geometry": { "type": "Point", "coordinates": [ 6.982878214585365, 50.600736922043268 ] } },
{ "type": "Feature", "properties": { "strassenschluessel": "05382000004829241", "bezeichnung": "Floßstraße" }, "geometry": { "type": "Point", "coordinates": [ 6.990138749629419, 50.600180249080609 ] } },
{ "type": "Feature", "properties": { "strassenschluessel": "05382000004829243", "bezeichnung": "Hellergasse" }, "geometry": { "type": "Point", "coordinates": [ 6.988708515984344, 50.602298727478235 ] } },
{ "type": "Feature", "properties": { "strassenschluessel": "05382000004829244", "bezeichnung": "In den Gärten" }, "geometry": { "type": "Point", "coordinates": [ 6.989957100943977, 50.607932584206949 ] } },
{ "type": "Feature", "properties": { "strassenschluessel": "05382000004829245", "bezeichnung": "Ipplendorfer Straße" }, "geometry": { "type": "Point", "coordinates": [ 6.990573232157134, 50.60321296021673 ] } },
{ "type": "Feature", "properties": { "strassenschluessel": "05382000004829246", "bezeichnung": "Kantenberg" }, "geometry": { "type": "Point", "coordinates": [ 6.991876702131544, 50.60597903880906 ] } },
{ "type": "Feature", "properties": { "strassenschluessel": "05382000004829247", "bezeichnung": "Klostergasse" }, "geometry": { "type": "Point", "coordinates": [ 6.986890907194151, 50.606972666564985 ] } },
{ "type": "Feature", "properties": { "strassenschluessel": "05382000004829248", "bezeichnung": "Krüllstraße" }, "geometry": { "type": "Point", "coordinates": [ 6.984706403709362, 50.602080971476113 ] } },
{ "type": "Feature", "properties": { "strassenschluessel": "05382000004829249", "bezeichnung": "Küppe" }, "geometry": { "type": "Point", "coordinates": [ 6.991369360169997, 50.604633178237918 ] } },
{ "type": "Feature", "properties": { "strassenschluessel": "05382000004829250", "bezeichnung": "Latzstraße" }, "geometry": { "type": "Point", "coordinates": [ 6.983331204383436, 50.602517802443195 ] } },
{ "type": "Feature", "properties": { "strassenschluessel": "05382000004829251", "bezeichnung": "Martinusstraße" }, "geometry": { "type": "Point", "coordinates": [ 6.987246337536816, 50.604024093876149 ] } },
{ "type": "Feature", "properties": { "strassenschluessel": "05382000004829252", "bezeichnung": "Mathildestraße" }, "geometry": { "type": "Point", "coordinates": [ 6.984523808238165, 50.601339909702574 ] } },
{ "type": "Feature", "properties": { "strassenschluessel": "05382000004829253", "bezeichnung": "Mörmelsbach" }, "geometry": { "type": "Point", "coordinates": [ 6.991054594478936, 50.603333998252928 ] } },
{ "type": "Feature", "properties": { "strassenschluessel": "05382000004829254", "bezeichnung": "Mühlenweg" }, "geometry": { "type": "Point", "coordinates": [ 6.992929818598719, 50.60663693141349 ] } },
{ "type": "Feature", "properties": { "strassenschluessel": "05382000004829255", "bezeichnung": "Pelmig" }, "geometry": { "type": "Point", "coordinates": [ 6.986623113602247, 50.608149908926428 ] } },
{ "type": "Feature", "properties": { "strassenschluessel": "05382000004829256", "bezeichnung": "Richezastraße" }, "geometry": { "type": "Point", "coordinates": [ 6.982903438343875, 50.601513585145803 ] } },
{ "type": "Feature", "properties": { "strassenschluessel": "05382000004829257", "bezeichnung": "Schützenplatz" }, "geometry": { "type": "Point", "coordinates": [ 6.98473545794652, 50.602389957125986 ] } },
{ "type": "Feature", "properties": { "strassenschluessel": "05382000004829258", "bezeichnung": "Tomberger Straße" }, "geometry": { "type": "Point", "coordinates": [ 6.989767437399983, 50.605293493434793 ] } },
{ "type": "Feature", "properties": { "strassenschluessel": "05382000004829259", "bezeichnung": "Unterdorf" }, "geometry": { "type": "Point", "coordinates": [ 6.990521764804306, 50.607119766029633 ] } },
{ "type": "Feature", "properties": { "strassenschluessel": "05382000004829260", "bezeichnung": "Weidengraben" }, "geometry": { "type": "Point", "coordinates": [ 6.993372942139925, 50.60873882564406 ] } },
{ "type": "Feature", "properties": { "strassenschluessel": "05382000004829261", "bezeichnung": "Weidenfeld" }, "geometry": { "type": "Point", "coordinates": [ 6.991794487198899, 50.603148060155533 ] } },
{ "type": "Feature", "properties": { "strassenschluessel": "05382000004829262", "bezeichnung": "Wormersdorfer Straße" }, "geometry": { "type": "Point", "coordinates": [ 6.987694536068744, 50.60754981622695 ] } },
{ "type": "Feature", "properties": { "strassenschluessel": "05382000004829263", "bezeichnung": "Berscheid" }, "geometry": { "type": "Point", "coordinates": [ 6.928330382110352, 50.578942353658555 ] } },
{ "type": "Feature", "properties": { "strassenschluessel": "05382000004829264", "bezeichnung": "Eichen" }, "geometry": { "type": "Point", "coordinates": [ 6.899805260898442, 50.583065170761486 ] } },
{ "type": "Feature", "properties": { "strassenschluessel": "05382000004829265", "bezeichnung": "Groß Schlebach" }, "geometry": { "type": "Point", "coordinates": [ 6.921118039574647, 50.603696577987108 ] } },
{ "type": "Feature", "properties": { "strassenschluessel": "05382000004829266", "bezeichnung": "Emma-Karoline-Weg" }, "geometry": { "type": "Point", "coordinates": [ 6.899972309555548, 50.591293072415496 ] } },
{ "type": "Feature", "properties": { "strassenschluessel": "05382000004829267", "bezeichnung": "Hardt" }, "geometry": { "type": "Point", "coordinates": [ 6.900204790006286, 50.588120288349216 ] } },
{ "type": "Feature", "properties": { "strassenschluessel": "05382000004829268", "bezeichnung": "Hubertusstraße" }, "geometry": { "type": "Point", "coordinates": [ 6.928403240365358, 50.592500292151996 ] } },
{ "type": "Feature", "properties": { "strassenschluessel": "05382000004829269", "bezeichnung": "Irlenbuscher Straße" }, "geometry": { "type": "Point", "coordinates": [ 6.924980126769204, 50.591263557037607 ] } },
{ "type": "Feature", "properties": { "strassenschluessel": "05382000004829270", "bezeichnung": "Köppche" }, "geometry": { "type": "Point", "coordinates": [ 6.92692839546239, 50.593226738734685 ] } },
{ "type": "Feature", "properties": { "strassenschluessel": "05382000004829271", "bezeichnung": "Nachtigallenweg" }, "geometry": { "type": "Point", "coordinates": [ 6.924804659160385, 50.592335218653076 ] } },
{ "type": "Feature", "properties": { "strassenschluessel": "05382000004829272", "bezeichnung": "Paffenhöhe" }, "geometry": { "type": "Point", "coordinates": [ 6.927049615353387, 50.591295470564305 ] } },
{ "type": "Feature", "properties": { "strassenschluessel": "05382000004829273", "bezeichnung": "Meisenweg" }, "geometry": { "type": "Point", "coordinates": [ 6.928220106901876, 50.6033875007777 ] } },
{ "type": "Feature", "properties": { "strassenschluessel": "05382000004829274", "bezeichnung": "Schlebacher Straße" }, "geometry": { "type": "Point", "coordinates": [ 6.923044642072688, 50.60260701485894 ] } },
{ "type": "Feature", "properties": { "strassenschluessel": "05382000004829275", "bezeichnung": "Klein Altendorf" }, "geometry": { "type": "Point", "coordinates": [ 6.992966681969619, 50.612521915667735 ] } },
{ "type": "Feature", "properties": { "strassenschluessel": "05382000004829276", "bezeichnung": "Krahforst" }, "geometry": { "type": "Point", "coordinates": [ 6.911821670170354, 50.59640082788237 ] } },
{ "type": "Feature", "properties": { "strassenschluessel": "05382000004829277", "bezeichnung": "Kurtenberg" }, "geometry": { "type": "Point", "coordinates": [ 6.912979909007724, 50.579719113262612 ] } },
{ "type": "Feature", "properties": { "strassenschluessel": "05382000004829278", "bezeichnung": "Freudenblick" }, "geometry": { "type": "Point", "coordinates": [ 6.895970749724839, 50.597884271627578 ] } },
{ "type": "Feature", "properties": { "strassenschluessel": "05382000004829279", "bezeichnung": "Kapellenweg" }, "geometry": { "type": "Point", "coordinates": [ 6.895012771946884, 50.596895394103889 ] } },
{ "type": "Feature", "properties": { "strassenschluessel": "05382000004829280", "bezeichnung": "Locher Straße" }, "geometry": { "type": "Point", "coordinates": [ 6.895771429645302, 50.596904060172456 ] } },
{ "type": "Feature", "properties": { "strassenschluessel": "05382000004829281", "bezeichnung": "Amselweg" }, "geometry": { "type": "Point", "coordinates": [ 6.93166165230937, 50.602644636988963 ] } },
{ "type": "Feature", "properties": { "strassenschluessel": "05382000004829282", "bezeichnung": "Barkingstraße" }, "geometry": { "type": "Point", "coordinates": [ 6.930634135360227, 50.60095554693369 ] } },
{ "type": "Feature", "properties": { "strassenschluessel": "05382000004829283", "bezeichnung": "Bendenweg" }, "geometry": { "type": "Point", "coordinates": [ 6.934039633155902, 50.601082373831311 ] } },
{ "type": "Feature", "properties": { "strassenschluessel": "05382000004829284", "bezeichnung": "Bergstraße" }, "geometry": { "type": "Point", "coordinates": [ 6.931733520678071, 50.600482274166296 ] } },
{ "type": "Feature", "properties": { "strassenschluessel": "05382000004829285", "bezeichnung": "Birkenweg" }, "geometry": { "type": "Point", "coordinates": [ 6.934648963594452, 50.603396258573426 ] } },
{ "type": "Feature", "properties": { "strassenschluessel": "05382000004829286", "bezeichnung": "Blumenstraße" }, "geometry": { "type": "Point", "coordinates": [ 6.93499523843946, 50.601198170237268 ] } },
{ "type": "Feature", "properties": { "strassenschluessel": "05382000004829287", "bezeichnung": "Falkenweg" }, "geometry": { "type": "Point", "coordinates": [ 6.9319033654725, 50.601919676038335 ] } },
{ "type": "Feature", "properties": { "strassenschluessel": "05382000004829288", "bezeichnung": "Finkenweg" }, "geometry": { "type": "Point", "coordinates": [ 6.928224942265929, 50.602410648911416 ] } },
{ "type": "Feature", "properties": { "strassenschluessel": "05382000004829289", "bezeichnung": "Freiheit" }, "geometry": { "type": "Point", "coordinates": [ 6.934023870931918, 50.599224619372777 ] } },
{ "type": "Feature", "properties": { "strassenschluessel": "05382000004829290", "bezeichnung": "Grüner Weg" }, "geometry": { "type": "Point", "coordinates": [ 6.929746517434732, 50.602426880158973 ] } },
{ "type": "Feature", "properties": { "strassenschluessel": "05382000004829291", "bezeichnung": "Hochstraße" }, "geometry": { "type": "Point", "coordinates": [ 6.925805477724208, 50.600442232144836 ] } },
{ "type": "Feature", "properties": { "strassenschluessel": "05382000004829292", "bezeichnung": "Merzbacher Straße" }, "geometry": { "type": "Point", "coordinates": [ 6.933670473135859, 50.602588251956519 ] } },
{ "type": "Feature", "properties": { "strassenschluessel": "05382000004829293", "bezeichnung": "Neustraße" }, "geometry": { "type": "Point", "coordinates": [ 6.926053610644551, 50.601344674438593 ] } },
{ "type": "Feature", "properties": { "strassenschluessel": "05382000004829294", "bezeichnung": "Rheinbacher Weg" }, "geometry": { "type": "Point", "coordinates": [ 6.931634738041646, 50.602979932309346 ] } },
{ "type": "Feature", "properties": { "strassenschluessel": "05382000004829295", "bezeichnung": "Schöne Aussicht" }, "geometry": { "type": "Point", "coordinates": [ 6.928489478549479, 50.60185485099155 ] } },
{ "type": "Feature", "properties": { "strassenschluessel": "05382000004829296", "bezeichnung": "Stöcken" }, "geometry": { "type": "Point", "coordinates": [ 6.92790212333951, 50.602017288775514 ] } },
{ "type": "Feature", "properties": { "strassenschluessel": "05382000004829297", "bezeichnung": "Talweg" }, "geometry": { "type": "Point", "coordinates": [ 6.933566725304512, 50.601113431725338 ] } },
{ "type": "Feature", "properties": { "strassenschluessel": "05382000004829298", "bezeichnung": "Waldblick" }, "geometry": { "type": "Point", "coordinates": [ 6.927370030857136, 50.599957470663789 ] } },
{ "type": "Feature", "properties": { "strassenschluessel": "05382000004829299", "bezeichnung": "Weidenstraße" }, "geometry": { "type": "Point", "coordinates": [ 6.935175320602979, 50.598384714950377 ] } },
{ "type": "Feature", "properties": { "strassenschluessel": "05382000004829300", "bezeichnung": "Wiesengrund" }, "geometry": { "type": "Point", "coordinates": [ 6.931501054430606, 50.599921751535526 ] } },
{ "type": "Feature", "properties": { "strassenschluessel": "05382000004829301", "bezeichnung": "Nußbaum" }, "geometry": { "type": "Point", "coordinates": [ 6.919774559030007, 50.588205936116736 ] } },
{ "type": "Feature", "properties": { "strassenschluessel": "05382000004829302", "bezeichnung": "Peppenhoven" }, "geometry": { "type": "Point", "coordinates": [ 6.949743994495211, 50.647477595737548 ] } },
{ "type": "Feature", "properties": { "strassenschluessel": "05382000004829303", "bezeichnung": "Scherbach" }, "geometry": { "type": "Point", "coordinates": [ 6.914956011463637, 50.600774955173002 ] } },
{ "type": "Feature", "properties": { "strassenschluessel": "05382000004829304", "bezeichnung": "Sürst" }, "geometry": { "type": "Point", "coordinates": [ 6.898816756098477, 50.586221455664329 ] } },
{ "type": "Feature", "properties": { "strassenschluessel": "05382000004829305", "bezeichnung": "Vogelsang" }, "geometry": { "type": "Point", "coordinates": [ 6.919069726110847, 50.590458902706906 ] } },
{ "type": "Feature", "properties": { "strassenschluessel": "05382000004829306", "bezeichnung": "Winterburg" }, "geometry": null },
{ "type": "Feature", "properties": { "strassenschluessel": "05382000004829307", "bezeichnung": "Gansweide" }, "geometry": { "type": "Point", "coordinates": [ 6.955764010366798, 50.626227061160115 ] } },
{ "type": "Feature", "properties": { "strassenschluessel": "05382000004829308", "bezeichnung": "Ulmenweg" }, "geometry": { "type": "Point", "coordinates": [ 6.960186693139604, 50.623555787909908 ] } },
{ "type": "Feature", "properties": { "strassenschluessel": "05382000004829309", "bezeichnung": "Wurstberg" }, "geometry": { "type": "Point", "coordinates": [ 6.927816025718366, 50.589417193998422 ] } },
{ "type": "Feature", "properties": { "strassenschluessel": "05382000004829310", "bezeichnung": "Freislebenstraße" }, "geometry": { "type": "Point", "coordinates": [ 6.921919698370317, 50.64033200346185 ] } },
{ "type": "Feature", "properties": { "strassenschluessel": "05382000004829313", "bezeichnung": "Alte Höhle" }, "geometry": null },
{ "type": "Feature", "properties": { "strassenschluessel": "05382000004829314", "bezeichnung": "Emma-Karoline-Weg" }, "geometry": null },
{ "type": "Feature", "properties": { "strassenschluessel": "05382000004829315", "bezeichnung": "Madbachstraße" }, "geometry": null },
{ "type": "Feature", "properties": { "strassenschluessel": "05382000004829317", "bezeichnung": "Schlebacher Straße" }, "geometry": { "type": "Point", "coordinates": [ 6.930862175680346, 50.604129623088212 ] } },
{ "type": "Feature", "properties": { "strassenschluessel": "05382000004829318", "bezeichnung": "Neustraße" }, "geometry": { "type": "Point", "coordinates": [ 6.926074314996336, 50.60079664522037 ] } },
{ "type": "Feature", "properties": { "strassenschluessel": "05382000004829319", "bezeichnung": "Geranienweg" }, "geometry": { "type": "Point", "coordinates": [ 6.936440429618227, 50.628233359697582 ] } },
{ "type": "Feature", "properties": { "strassenschluessel": "05382000004829320", "bezeichnung": "Narzissenweg" }, "geometry": { "type": "Point", "coordinates": [ 6.936827853274383, 50.627895996656811 ] } },
{ "type": "Feature", "properties": { "strassenschluessel": "05382000004829321", "bezeichnung": "Witthecke" }, "geometry": { "type": "Point", "coordinates": [ 6.929956806732384, 50.602809501355921 ] } },
{ "type": "Feature", "properties": { "strassenschluessel": "05382000004829322", "bezeichnung": "Tannenhofstraße" }, "geometry": null },
{ "type": "Feature", "properties": { "strassenschluessel": "05382000004829323", "bezeichnung": "Zingsbach" }, "geometry": null },
{ "type": "Feature", "properties": { "strassenschluessel": "05382000004829324", "bezeichnung": "Am Sportplatz" }, "geometry": { "type": "Point", "coordinates": [ 6.982781288506678, 50.605246101573464 ] } },
{ "type": "Feature", "properties": { "strassenschluessel": "05382000004829325", "bezeichnung": "Hornstraße" }, "geometry": { "type": "Point", "coordinates": [ 6.987167618701225, 50.605225508056265 ] } },
{ "type": "Feature", "properties": { "strassenschluessel": "05382000004829326", "bezeichnung": "Im Gässchen" }, "geometry": { "type": "Point", "coordinates": [ 6.988771651980304, 50.604745526370095 ] } },
{ "type": "Feature", "properties": { "strassenschluessel": "05382000004829327", "bezeichnung": "Kannenbäckerstraße" }, "geometry": { "type": "Point", "coordinates": [ 6.985401903280289, 50.607325501105734 ] } },
{ "type": "Feature", "properties": { "strassenschluessel": "05382000004829328", "bezeichnung": "Lohestraße" }, "geometry": { "type": "Point", "coordinates": [ 6.98464730048725, 50.606403231406425 ] } },
{ "type": "Feature", "properties": { "strassenschluessel": "05382000004829330", "bezeichnung": "Josef-Rhein-Straße" }, "geometry": { "type": "Point", "coordinates": [ 6.983962365669032, 50.648733569966495 ] } },
{ "type": "Feature", "properties": { "strassenschluessel": "05382000004829331", "bezeichnung": "Steingasse" }, "geometry": { "type": "Point", "coordinates": [ 6.965851485823443, 50.643843672471597 ] } },
{ "type": "Feature", "properties": { "strassenschluessel": "05382000004829332", "bezeichnung": "Linckeweg" }, "geometry": { "type": "Point", "coordinates": [ 6.944081658254162, 50.622131330973438 ] } },
{ "type": "Feature", "properties": { "strassenschluessel": "05382000004829333", "bezeichnung": "Offenbachstraße" }, "geometry": { "type": "Point", "coordinates": [ 6.941749235156188, 50.622520598175676 ] } },
{ "type": "Feature", "properties": { "strassenschluessel": "05382000004829334", "bezeichnung": "Telemannstraße" }, "geometry": { "type": "Point", "coordinates": [ 6.94021007707378, 50.624307529455976 ] } },
{ "type": "Feature", "properties": { "strassenschluessel": "05382000004829335", "bezeichnung": "Am neuen Wasserwerk" }, "geometry": { "type": "Point", "coordinates": [ 6.951377061135447, 50.63006469588742 ] } },
{ "type": "Feature", "properties": { "strassenschluessel": "05382000004829336", "bezeichnung": "Am alten Flutgraben" }, "geometry": { "type": "Point", "coordinates": [ 6.949882760791951, 50.630747514903852 ] } },
{ "type": "Feature", "properties": { "strassenschluessel": "05382000004829337", "bezeichnung": "Auf der Suse" }, "geometry": null },
{ "type": "Feature", "properties": { "strassenschluessel": "05382000004829338", "bezeichnung": "Aegidiusstraße" }, "geometry": { "type": "Point", "coordinates": [ 6.920397518368037, 50.641050754203079 ] } },
{ "type": "Feature", "properties": { "strassenschluessel": "05382000004829339", "bezeichnung": "Turmblick" }, "geometry": { "type": "Point", "coordinates": [ 6.944666466207901, 50.625043157199869 ] } },
{ "type": "Feature", "properties": { "strassenschluessel": "05382000004829340", "bezeichnung": "Deinzer Platz" }, "geometry": { "type": "Point", "coordinates": [ 6.949023665762279, 50.626429458992895 ] } },
{ "type": "Feature", "properties": { "strassenschluessel": "05382000004829342", "bezeichnung": "Hohnsgasse" }, "geometry": { "type": "Point", "coordinates": [ 6.9878509009489, 50.649346069926516 ] } },
{ "type": "Feature", "properties": { "strassenschluessel": "05382000004829343", "bezeichnung": "Prälat-Koch-Straße" }, "geometry": { "type": "Point", "coordinates": [ 6.988670421067465, 50.648714219353003 ] } },
{ "type": "Feature", "properties": { "strassenschluessel": "05382000004829344", "bezeichnung": "Klosteraue" }, "geometry": { "type": "Point", "coordinates": [ 6.991236951605854, 50.648011146568578 ] } },
{ "type": "Feature", "properties": { "strassenschluessel": "05382000004829345", "bezeichnung": "Am jüdischen Friedhof" }, "geometry": { "type": "Point", "coordinates": [ 6.947114270797234, 50.628636545431334 ] } },
{ "type": "Feature", "properties": { "strassenschluessel": "05382000004829346", "bezeichnung": "Fritz-Knoll-Ring" }, "geometry": { "type": "Point", "coordinates": [ 6.931260329201447, 50.626791399861006 ] } },
{ "type": "Feature", "properties": { "strassenschluessel": "05382000004829347", "bezeichnung": "Lambertweg" }, "geometry": { "type": "Point", "coordinates": [ 6.932302316523068, 50.62517216354253 ] } },
{ "type": "Feature", "properties": { "strassenschluessel": "05382000004829348", "bezeichnung": "Von-Imhoff-Weg" }, "geometry": { "type": "Point", "coordinates": [ 6.93041879393038, 50.627028080892963 ] } },
{ "type": "Feature", "properties": { "strassenschluessel": "05382000004829349", "bezeichnung": "Röm. Wasserleitung" }, "geometry": { "type": "Point", "coordinates": [ 6.932705262090233, 50.626178448108156 ] } },
{ "type": "Feature", "properties": { "strassenschluessel": "05382000004829350", "bezeichnung": "Jordansweg" }, "geometry": { "type": "Point", "coordinates": [ 6.931460672368503, 50.626131769431595 ] } },
{ "type": "Feature", "properties": { "strassenschluessel": "05382000004829351", "bezeichnung": "Am alten Viehwege" }, "geometry": { "type": "Point", "coordinates": [ 6.931086556165245, 50.624591133152073 ] } },
{ "type": "Feature", "properties": { "strassenschluessel": "05382000004829352", "bezeichnung": "Hirschmannstraße" }, "geometry": { "type": "Point", "coordinates": [ 6.931328861830496, 50.625399286609763 ] } },
{ "type": "Feature", "properties": { "strassenschluessel": "05382000004829353", "bezeichnung": "Wolffweg" }, "geometry": { "type": "Point", "coordinates": [ 6.930619096022439, 50.62566835002314 ] } },
{ "type": "Feature", "properties": { "strassenschluessel": "05382000004829354", "bezeichnung": "Von-Groote-Ring" }, "geometry": { "type": "Point", "coordinates": [ 6.933607907224751, 50.626430051600515 ] } },
{ "type": "Feature", "properties": { "strassenschluessel": "05382000004829355", "bezeichnung": "Egermannstraße" }, "geometry": { "type": "Point", "coordinates": [ 6.952890414385758, 50.63409766562917 ] } },
{ "type": "Feature", "properties": { "strassenschluessel": "05382000004829356", "bezeichnung": "Am Reuterpfad" }, "geometry": { "type": "Point", "coordinates": [ 6.930595182807449, 50.62788893065742 ] } },
{ "type": "Feature", "properties": { "strassenschluessel": "05382000004829357", "bezeichnung": "Eulenbach" }, "geometry": { "type": "Point", "coordinates": [ 6.962518979664134, 50.626175172788791 ] } },
{ "type": "Feature", "properties": { "strassenschluessel": "05382000004829358", "bezeichnung": "Lohmarkt" }, "geometry": { "type": "Point", "coordinates": [ 6.949388201097279, 50.626511365916507 ] } },
{ "type": "Feature", "properties": { "strassenschluessel": "05382000004829359", "bezeichnung": "Rotkehlchenweg" }, "geometry": { "type": "Point", "coordinates": [ 6.953543556262892, 50.622518993197524 ] } },
{ "type": "Feature", "properties": { "strassenschluessel": "05382000004829360", "bezeichnung": "Enkelsfeld" }, "geometry": { "type": "Point", "coordinates": [ 6.944024739908244, 50.576717690477224 ] } },
{ "type": "Feature", "properties": { "strassenschluessel": "05382000004829363", "bezeichnung": "Orffweg" }, "geometry": { "type": "Point", "coordinates": [ 6.940879920223382, 50.6225815660965 ] } },
{ "type": "Feature", "properties": { "strassenschluessel": "05382000004829364", "bezeichnung": "Sauerbenden" }, "geometry": { "type": "Point", "coordinates": [ 6.936050809053371, 50.603068556310944 ] } },
{ "type": "Feature", "properties": { "strassenschluessel": "05382000004829365", "bezeichnung": "Schlehenweg" }, "geometry": { "type": "Point", "coordinates": [ 6.935053372479979, 50.601381982232468 ] } },
{ "type": "Feature", "properties": { "strassenschluessel": "05382000004829366", "bezeichnung": "Tannenweg" }, "geometry": { "type": "Point", "coordinates": [ 6.935542958764235, 50.601925325797211 ] } },
{ "type": "Feature", "properties": { "strassenschluessel": "05382000004829367", "bezeichnung": "Commeßmannstraße" }, "geometry": { "type": "Point", "coordinates": [ 6.933082284367277, 50.628298726207568 ] } },
{ "type": "Feature", "properties": { "strassenschluessel": "05382000004829368", "bezeichnung": "Thilmannweg" }, "geometry": { "type": "Point", "coordinates": [ 6.931131297911908, 50.628926889475295 ] } },
{ "type": "Feature", "properties": { "strassenschluessel": "05382000004829369", "bezeichnung": "Landgraben" }, "geometry": { "type": "Point", "coordinates": [ 6.915743385178155, 50.639925193354905 ] } },
{ "type": "Feature", "properties": { "strassenschluessel": "05382000004829370", "bezeichnung": "Spechtweg" }, "geometry": { "type": "Point", "coordinates": [ 6.923971885826573, 50.591537674628682 ] } },
{ "type": "Feature", "properties": { "strassenschluessel": "05382000004829371", "bezeichnung": "Am Getreidespeicher" }, "geometry": { "type": "Point", "coordinates": [ 6.952260034842618, 50.628437541508092 ] } },
{ "type": "Feature", "properties": { "strassenschluessel": "05382000004829372", "bezeichnung": "Im Mainzertal" }, "geometry": { "type": "Point", "coordinates": [ 6.982396406973457, 50.647252727682705 ] } },
{ "type": "Feature", "properties": { "strassenschluessel": "05382000004829373", "bezeichnung": "Elsternweg" }, "geometry": { "type": "Point", "coordinates": [ 6.929087632719004, 50.591931175414047 ] } },
{ "type": "Feature", "properties": { "strassenschluessel": "05382000004829374", "bezeichnung": "Altstadtplatz" }, "geometry": null },
{ "type": "Feature", "properties": { "strassenschluessel": "05382000004829375", "bezeichnung": "Swistaue" }, "geometry": { "type": "Point", "coordinates": [ 6.992920795132174, 50.64432458037065 ] } },
{ "type": "Feature", "properties": { "strassenschluessel": "05382000004829376", "bezeichnung": "Heerstraßenbenden" }, "geometry": { "type": "Point", "coordinates": [ 6.949746070503303, 50.636801237931202 ] } },
{ "type": "Feature", "properties": { "strassenschluessel": "05382000004829377", "bezeichnung": "Im Broich" }, "geometry": { "type": "Point", "coordinates": [ 6.922312399580957, 50.643934874977276 ] } },
{ "type": "Feature", "properties": { "strassenschluessel": "05382000004829378", "bezeichnung": "Auf dem Berggarten" }, "geometry": { "type": "Point", "coordinates": [ 6.918524888475028, 50.640837251224781 ] } },
{ "type": "Feature", "properties": { "strassenschluessel": "05382000004829379", "bezeichnung": "Marie-Curie-Straße" }, "geometry": { "type": "Point", "coordinates": [ 6.950912629928204, 50.634152498263866 ] } },
{ "type": "Feature", "properties": { "strassenschluessel": "05382000004829380", "bezeichnung": "An der alten Molkerei" }, "geometry": null },
{ "type": "Feature", "properties": { "strassenschluessel": "05382000004829381", "bezeichnung": "Am Grindel" }, "geometry": { "type": "Point", "coordinates": [ 6.9448463004155, 50.626291236474486 ] } },
{ "type": "Feature", "properties": { "strassenschluessel": "05382000004829382", "bezeichnung": "Dr.-Engels-Straße" }, "geometry": { "type": "Point", "coordinates": [ 6.928694961971242, 50.591077911397747 ] } },
{ "type": "Feature", "properties": { "strassenschluessel": "05382000004829383", "bezeichnung": "Zeissstraße" }, "geometry": { "type": "Point", "coordinates": [ 6.950209992584846, 50.639139948421963 ] } },
{ "type": "Feature", "properties": { "strassenschluessel": "05382000004829384", "bezeichnung": "Juchaczstraße" }, "geometry": { "type": "Point", "coordinates": [ 6.941671611112259, 50.633400506035194 ] } },
{ "type": "Feature", "properties": { "strassenschluessel": "05382000004829385", "bezeichnung": "Am Blümlingspfad" }, "geometry": { "type": "Point", "coordinates": [ 6.946210841674143, 50.633672640648868 ] } },
{ "type": "Feature", "properties": { "strassenschluessel": "05382000004829386", "bezeichnung": "Delpstraße" }, "geometry": { "type": "Point", "coordinates": [ 6.943984093309759, 50.633588861942656 ] } },
{ "type": "Feature", "properties": { "strassenschluessel": "05382000004829387", "bezeichnung": "Heuss-Knapp-Straße" }, "geometry": { "type": "Point", "coordinates": [ 6.948038500735223, 50.63475936727739 ] } },
{ "type": "Feature", "properties": { "strassenschluessel": "05382000004829388", "bezeichnung": "von-Galen-Straße" }, "geometry": { "type": "Point", "coordinates": [ 6.946963118964599, 50.634591419924867 ] } },
{ "type": "Feature", "properties": { "strassenschluessel": "05382000004829390", "bezeichnung": "Boschstraße" }, "geometry": { "type": "Point", "coordinates": [ 6.960049878084641, 50.633719446389215 ] } },
{ "type": "Feature", "properties": { "strassenschluessel": "05382000004829391", "bezeichnung": "Dunantstraße" }, "geometry": { "type": "Point", "coordinates": [ 6.946094010280127, 50.634293329451502 ] } },
{ "type": "Feature", "properties": { "strassenschluessel": "05382000004829392", "bezeichnung": "Gutenbergstraße" }, "geometry": { "type": "Point", "coordinates": [ 6.960906099339847, 50.634845426306981 ] } },
{ "type": "Feature", "properties": { "strassenschluessel": "05382000004829393", "bezeichnung": "Hollerithstraße" }, "geometry": { "type": "Point", "coordinates": [ 6.95118081989914, 50.630635343385102 ] } },
{ "type": "Feature", "properties": { "strassenschluessel": "05382000004829395", "bezeichnung": "Lise-Meitner-Straße" }, "geometry": { "type": "Point", "coordinates": [ 6.950576668880072, 50.633097586402251 ] } },
{ "type": "Feature", "properties": { "strassenschluessel": "05382000004829396", "bezeichnung": "von-Liebig-Straße" }, "geometry": { "type": "Point", "coordinates": [ 6.952667908091363, 50.632461570899473 ] } },
{ "type": "Feature", "properties": { "strassenschluessel": "05382000004829397", "bezeichnung": "Von-Wrangell-Straße" }, "geometry": { "type": "Point", "coordinates": [ 6.953983584767705, 50.630635790254509 ] } },
{ "type": "Feature", "properties": { "strassenschluessel": "05382000004829400", "bezeichnung": "An den Märkten" }, "geometry": { "type": "Point", "coordinates": [ 6.963878246173945, 50.624421071376112 ] } },
{ "type": "Feature", "properties": { "strassenschluessel": "05382000004829401", "bezeichnung": "An der Glasfachschule" }, "geometry": { "type": "Point", "coordinates": [ 6.960881905191244, 50.618181230792615 ] } },
{ "type": "Feature", "properties": { "strassenschluessel": "05382000004829403", "bezeichnung": "Alte Töpferei" }, "geometry": { "type": "Point", "coordinates": [ 6.958727095239072, 50.626133494515187 ] } },
{ "type": "Feature", "properties": { "strassenschluessel": "05382000004829404", "bezeichnung": "Heisenbergstraße" }, "geometry": { "type": "Point", "coordinates": [ 6.956091395023267, 50.633373831561165 ] } },
{ "type": "Feature", "properties": { "strassenschluessel": "05382000004829405", "bezeichnung": "Kleinaltendorferweg" }, "geometry": { "type": "Point", "coordinates": [ 6.965699379935883, 50.621409872913567 ] } },
{ "type": "Feature", "properties": { "strassenschluessel": "05382000004829406", "bezeichnung": "Meistermannweg" }, "geometry": { "type": "Point", "coordinates": [ 6.960759954263574, 50.619674137947605 ] } },
{ "type": "Feature", "properties": { "strassenschluessel": "05382000004829407", "bezeichnung": "Rilkeweg" }, "geometry": { "type": "Point", "coordinates": [ 6.946194674279981, 50.620665409007955 ] } },
{ "type": "Feature", "properties": { "strassenschluessel": "05382000004829408", "bezeichnung": "Spickermannweg" }, "geometry": { "type": "Point", "coordinates": [ 6.959078533929899, 50.619663978020945 ] } },
{ "type": "Feature", "properties": { "strassenschluessel": "05382000004829409", "bezeichnung": "Kollwitzweg" }, "geometry": { "type": "Point", "coordinates": [ 6.96161612851549, 50.621781283048271 ] } },
{ "type": "Feature", "properties": { "strassenschluessel": "05382000004829410", "bezeichnung": "Koenenweg" }, "geometry": { "type": "Point", "coordinates": [ 6.95968218981836, 50.621038605489638 ] } },
{ "type": "Feature", "properties": { "strassenschluessel": "05382000004829411", "bezeichnung": "Zingsheimstraße" }, "geometry": { "type": "Point", "coordinates": [ 6.962097357357449, 50.621553282999329 ] } },
{ "type": "Feature", "properties": { "strassenschluessel": "05382000004829412", "bezeichnung": "Schweitzerstraße" }, "geometry": { "type": "Point", "coordinates": [ 6.943931779820782, 50.63460029807954 ] } },
{ "type": "Feature", "properties": { "strassenschluessel": "05382000004829413", "bezeichnung": "Flerzheimer Heide" }, "geometry": null },
{ "type": "Feature", "properties": { "strassenschluessel": "05382000004829414", "bezeichnung": "Dahlemstraße" }, "geometry": { "type": "Point", "coordinates": [ 6.987128067034113, 50.599706141884418 ] } },
{ "type": "Feature", "properties": { "strassenschluessel": "05382000004829416", "bezeichnung": "Josef-Geisel-Straße" }, "geometry": { "type": "Point", "coordinates": [ 6.955777360153723, 50.622265379540501 ] } },
{ "type": "Feature", "properties": { "strassenschluessel": "05382000004829418", "bezeichnung": "Worringer Weg" }, "geometry": { "type": "Point", "coordinates": [ 6.964504226758487, 50.620672154646115 ] } },
{ "type": "Feature", "properties": { "strassenschluessel": "05382000004829419", "bezeichnung": "Sankt-Joseph-Weg" }, "geometry": { "type": "Point", "coordinates": [ 6.95441553354994, 50.619248567782826 ] } },
{ "type": "Feature", "properties": { "strassenschluessel": "05382000004829420", "bezeichnung": "Maria-Schmelz-Weg" }, "geometry": { "type": "Point", "coordinates": [ 6.980898662919437, 50.647548065808266 ] } },
{ "type": "Feature", "properties": { "strassenschluessel": "05382000004829421", "bezeichnung": "Franz-Josef-Reuter-Straße" }, "geometry": { "type": "Point", "coordinates": [ 6.980999583483778, 50.646480951785634 ] } },
{ "type": "Feature", "properties": { "strassenschluessel": "05382000004829422", "bezeichnung": "Franz-Wendler-Straße" }, "geometry": { "type": "Point", "coordinates": [ 6.944536932720174, 50.620452835143922 ] } },
{ "type": "Feature", "properties": { "strassenschluessel": "05382000004829423", "bezeichnung": "Christoph-Palme-Ring" }, "geometry": { "type": "Point", "coordinates": [ 6.959078283809832, 50.624087228621391 ] } },
{ "type": "Feature", "properties": { "strassenschluessel": "05382000004829424", "bezeichnung": "Brückenacker" }, "geometry": { "type": "Point", "coordinates": [ 6.98352547654411, 50.608135160523645 ] } },
{ "type": "Feature", "properties": { "strassenschluessel": "05382000004829425", "bezeichnung": "Wadenheimweg" }, "geometry": { "type": "Point", "coordinates": [ 6.982755473219101, 50.607257933593843 ] } },
{ "type": "Feature", "properties": { "strassenschluessel": "05382000004829426", "bezeichnung": "Neue Heeg" }, "geometry": { "type": "Point", "coordinates": [ 6.959610578089749, 50.627305330671504 ] } },
{ "type": "Feature", "properties": { "strassenschluessel": "05382000004829427", "bezeichnung": "Siemensstraße" }, "geometry": { "type": "Point", "coordinates": [ 6.96804002869052, 50.627945151748172 ] } },
{ "type": "Feature", "properties": { "strassenschluessel": "05382000004829428", "bezeichnung": "Campus Klein-Altendorf" }, "geometry": { "type": "Point", "coordinates": [ 6.988062152165683, 50.625738665827491 ] } },
{ "type": "Feature", "properties": { "strassenschluessel": "05382000004829461", "bezeichnung": "Julie-Billiart-Weg" }, "geometry": null },
{ "type": "Feature", "properties": { "strassenschluessel": "05382000004829462", "bezeichnung": "Katharina-Kasper-Weg" }, "geometry": null },
{ "type": "Feature", "properties": { "strassenschluessel": "05382000004829463", "bezeichnung": "Majolikaweg" }, "geometry": null },
{ "type": "Feature", "properties": { "strassenschluessel": "05382000004829464", "bezeichnung": "Vor der Küpp" }, "geometry": null },
{ "type": "Feature", "properties": { "strassenschluessel": "05382000004899990", "bezeichnung": "Am alten Bahndamm" }, "geometry": { "type": "Point", "coordinates": [ 6.924889291852332, 50.640225683806783 ] } },
{ "type": "Feature", "properties": { "strassenschluessel": "05382000004899991", "bezeichnung": "Wolbersacker" }, "geometry": { "type": "Point", "coordinates": [ 6.970259734462447, 50.624357825417846 ] } },
{ "type": "Feature", "properties": { "strassenschluessel": "05382000004899992", "bezeichnung": "Rudolf-Diesel-Straße" }, "geometry": { "type": "Point", "coordinates": [ 6.968772346549124, 50.621983586147181 ] } },
{ "type": "Feature", "properties": { "strassenschluessel": "05382000004899993", "bezeichnung": "Reinhard-Selten-Straße" }, "geometry": { "type": "Point", "coordinates": [ 6.970819652344788, 50.62472701610141 ] } },
{ "type": "Feature", "properties": { "strassenschluessel": "05382000004899994", "bezeichnung": "Emmy-Noether-Straße" }, "geometry": null },
{ "type": "Feature", "properties": { "strassenschluessel": "05382000004899995", "bezeichnung": "Maria-Goeppert-Mayer-Straße" }, "geometry": null },
{ "type": "Feature", "properties": { "strassenschluessel": "05382000004899996", "bezeichnung": "Platz der Deutschen Einheit" }, "geometry": null },
{ "type": "Feature", "properties": { "strassenschluessel": "05382000004899998", "bezeichnung": "Cäcilie-Fröhlich-Straße" }, "geometry": { "type": "Point", "coordinates": [ 6.972161323908624, 50.624971046272641 ] } },
{ "type": "Feature", "properties": { "strassenschluessel": "05382000004899999", "bezeichnung": "Rheinbach, 99999" }, "geometry": { "type": "Point", "coordinates": [ 6.944426384974302, 50.580878218648415 ] } }
]
}
