{
"type": "FeatureCollection",
"features": [
{ "type": "Feature", "properties": { "strassenschluessel": "05754000003201005", "bezeichnung": "Adlerweg" }, "geometry": { "type": "Point", "coordinates": [ 8.449473730773565, 51.839388827506347 ] } },
{ "type": "Feature", "properties": { "strassenschluessel": "05754000003201010", "bezeichnung": "Agathastraße" }, "geometry": { "type": "Point", "coordinates": [ 8.375727953457011, 51.802814316342577 ] } },
{ "type": "Feature", "properties": { "strassenschluessel": "05754000003201020", "bezeichnung": "Agethenstraße" }, "geometry": { "type": "Point", "coordinates": [ 8.417770571791769, 51.805602811922761 ] } },
{ "type": "Feature", "properties": { "strassenschluessel": "05754000003201030", "bezeichnung": "Ahornweg" }, "geometry": { "type": "Point", "coordinates": [ 8.377068815798431, 51.733701424456989 ] } },
{ "type": "Feature", "properties": { "strassenschluessel": "05754000003201035", "bezeichnung": "Akazienweg" }, "geometry": { "type": "Point", "coordinates": [ 8.377069761105084, 51.734336264672109 ] } },
{ "type": "Feature", "properties": { "strassenschluessel": "05754000003201040", "bezeichnung": "Aldehoffstraße" }, "geometry": { "type": "Point", "coordinates": [ 8.424196093849028, 51.805700185673295 ] } },
{ "type": "Feature", "properties": { "strassenschluessel": "05754000003201045", "bezeichnung": "Allensteiner Straße" }, "geometry": { "type": "Point", "coordinates": [ 8.443110539602628, 51.813631466158022 ] } },
{ "type": "Feature", "properties": { "strassenschluessel": "05754000003201047", "bezeichnung": "Alter Postweg" }, "geometry": { "type": "Point", "coordinates": [ 8.481574605921184, 51.832576957184763 ] } },
{ "type": "Feature", "properties": { "strassenschluessel": "05754000003201049", "bezeichnung": "Alte Mühle" }, "geometry": { "type": "Point", "coordinates": [ 8.388194910343316, 51.757295706410083 ] } },
{ "type": "Feature", "properties": { "strassenschluessel": "05754000003201050", "bezeichnung": "Alte Landstraße" }, "geometry": { "type": "Point", "coordinates": [ 8.396282724999665, 51.75656425884852 ] } },
{ "type": "Feature", "properties": { "strassenschluessel": "05754000003201051", "bezeichnung": "Alter Markt" }, "geometry": { "type": "Point", "coordinates": [ 8.392146588634619, 51.75592968097655 ] } },
{ "type": "Feature", "properties": { "strassenschluessel": "05754000003201052", "bezeichnung": "Alter Kamp" }, "geometry": { "type": "Point", "coordinates": [ 8.382059361836088, 51.753393860181156 ] } },
{ "type": "Feature", "properties": { "strassenschluessel": "05754000003201053", "bezeichnung": "Am Balkan" }, "geometry": { "type": "Point", "coordinates": [ 8.428870313463769, 51.811247476781681 ] } },
{ "type": "Feature", "properties": { "strassenschluessel": "05754000003201054", "bezeichnung": "Alter Schulweg" }, "geometry": { "type": "Point", "coordinates": [ 8.442915044436212, 51.832130958127856 ] } },
{ "type": "Feature", "properties": { "strassenschluessel": "05754000003201055", "bezeichnung": "Am Baumhof" }, "geometry": { "type": "Point", "coordinates": [ 8.431950523530782, 51.85815462853958 ] } },
{ "type": "Feature", "properties": { "strassenschluessel": "05754000003201056", "bezeichnung": "Altes Feld" }, "geometry": null },
{ "type": "Feature", "properties": { "strassenschluessel": "05754000003201057", "bezeichnung": "Am Bahnhof" }, "geometry": { "type": "Point", "coordinates": [ 8.430497668897123, 51.81845757276227 ] } },
{ "type": "Feature", "properties": { "strassenschluessel": "05754000003201058", "bezeichnung": "Alt Hammoor" }, "geometry": { "type": "Point", "coordinates": [ 8.366189881942503, 51.778496344394242 ] } },
{ "type": "Feature", "properties": { "strassenschluessel": "05754000003201060", "bezeichnung": "Am Blanken" }, "geometry": { "type": "Point", "coordinates": [ 8.371190976397695, 51.768205385597518 ] } },
{ "type": "Feature", "properties": { "strassenschluessel": "05754000003201061", "bezeichnung": "Alter Schützenplatz" }, "geometry": { "type": "Point", "coordinates": [ 8.415434753720296, 51.806029903619837 ] } },
{ "type": "Feature", "properties": { "strassenschluessel": "05754000003201070", "bezeichnung": "Am Blumenkamp" }, "geometry": { "type": "Point", "coordinates": [ 8.424321079833097, 51.817250075795222 ] } },
{ "type": "Feature", "properties": { "strassenschluessel": "05754000003201080", "bezeichnung": "Am Brockfeld" }, "geometry": { "type": "Point", "coordinates": [ 8.449725935947953, 51.847163505377743 ] } },
{ "type": "Feature", "properties": { "strassenschluessel": "05754000003201082", "bezeichnung": "Am Burgmannshof" }, "geometry": { "type": "Point", "coordinates": [ 8.49835272694788, 51.81098888084459 ] } },
{ "type": "Feature", "properties": { "strassenschluessel": "05754000003201090", "bezeichnung": "Am Dortenbach" }, "geometry": { "type": "Point", "coordinates": [ 8.433336268495978, 51.812980710213061 ] } },
{ "type": "Feature", "properties": { "strassenschluessel": "05754000003201091", "bezeichnung": "Am Eichenhof" }, "geometry": { "type": "Point", "coordinates": [ 8.437398506465888, 51.785324691023987 ] } },
{ "type": "Feature", "properties": { "strassenschluessel": "05754000003201092", "bezeichnung": "Am Eichenkamp" }, "geometry": { "type": "Point", "coordinates": [ 8.508055034205736, 51.816075078054013 ] } },
{ "type": "Feature", "properties": { "strassenschluessel": "05754000003201095", "bezeichnung": "Am Emssee" }, "geometry": { "type": "Point", "coordinates": [ 8.387951183020773, 51.818826239847034 ] } },
{ "type": "Feature", "properties": { "strassenschluessel": "05754000003201096", "bezeichnung": "Am Emspark" }, "geometry": { "type": "Point", "coordinates": [ 8.415844965070903, 51.811131348185718 ] } },
{ "type": "Feature", "properties": { "strassenschluessel": "05754000003201098", "bezeichnung": "Am Emspfad" }, "geometry": { "type": "Point", "coordinates": [ 8.416955614315485, 51.812736377215622 ] } },
{ "type": "Feature", "properties": { "strassenschluessel": "05754000003201100", "bezeichnung": "Am Fischhaus" }, "geometry": { "type": "Point", "coordinates": [ 8.422448603209535, 51.798469748046443 ] } },
{ "type": "Feature", "properties": { "strassenschluessel": "05754000003201120", "bezeichnung": "Am Friedhof" }, "geometry": { "type": "Point", "coordinates": [ 8.435570020661036, 51.859360147560245 ] } },
{ "type": "Feature", "properties": { "strassenschluessel": "05754000003201121", "bezeichnung": "Am Brunnen" }, "geometry": { "type": "Point", "coordinates": [ 8.376127544188586, 51.800746412686571 ] } },
{ "type": "Feature", "properties": { "strassenschluessel": "05754000003201130", "bezeichnung": "Am Furlbach" }, "geometry": { "type": "Point", "coordinates": [ 8.52478152562299, 51.826263191583827 ] } },
{ "type": "Feature", "properties": { "strassenschluessel": "05754000003201135", "bezeichnung": "Am Heidegarten" }, "geometry": { "type": "Point", "coordinates": [ 8.374242191363779, 51.800720794814133 ] } },
{ "type": "Feature", "properties": { "strassenschluessel": "05754000003201139", "bezeichnung": "Am Holzplatz" }, "geometry": { "type": "Point", "coordinates": [ 8.387347374886369, 51.756590300563154 ] } },
{ "type": "Feature", "properties": { "strassenschluessel": "05754000003201140", "bezeichnung": "Am Hohen Land" }, "geometry": { "type": "Point", "coordinates": [ 8.431031892760563, 51.784198938589086 ] } },
{ "type": "Feature", "properties": { "strassenschluessel": "05754000003201141", "bezeichnung": "Am Kanal" }, "geometry": { "type": "Point", "coordinates": [ 8.383036999904917, 51.740834722437036 ] } },
{ "type": "Feature", "properties": { "strassenschluessel": "05754000003201142", "bezeichnung": "Am Lannertbach" }, "geometry": { "type": "Point", "coordinates": [ 8.38775211109134, 51.802225884714353 ] } },
{ "type": "Feature", "properties": { "strassenschluessel": "05754000003201143", "bezeichnung": "Am Kalefeld" }, "geometry": { "type": "Point", "coordinates": [ 8.396212417364797, 51.752482452892473 ] } },
{ "type": "Feature", "properties": { "strassenschluessel": "05754000003201150", "bezeichnung": "Am Markt" }, "geometry": { "type": "Point", "coordinates": [ 8.440409012813758, 51.830270672017868 ] } },
{ "type": "Feature", "properties": { "strassenschluessel": "05754000003201153", "bezeichnung": "Am Mastholter See" }, "geometry": null },
{ "type": "Feature", "properties": { "strassenschluessel": "05754000003201154", "bezeichnung": "Am Mühlenbrock" }, "geometry": { "type": "Point", "coordinates": [ 8.432427658597961, 51.857029865214493 ] } },
{ "type": "Feature", "properties": { "strassenschluessel": "05754000003201155", "bezeichnung": "Am Mühlenkamp" }, "geometry": { "type": "Point", "coordinates": [ 8.433093806324688, 51.858195182156436 ] } },
{ "type": "Feature", "properties": { "strassenschluessel": "05754000003201158", "bezeichnung": "Am Ostenfeld" }, "geometry": { "type": "Point", "coordinates": [ 8.394999308911194, 51.822096303797281 ] } },
{ "type": "Feature", "properties": { "strassenschluessel": "05754000003201160", "bezeichnung": "Am Postdamm" }, "geometry": { "type": "Point", "coordinates": [ 8.397764767421195, 51.834313695415673 ] } },
{ "type": "Feature", "properties": { "strassenschluessel": "05754000003201170", "bezeichnung": "Am Potthoff" }, "geometry": { "type": "Point", "coordinates": [ 8.443598828129833, 51.834148231175384 ] } },
{ "type": "Feature", "properties": { "strassenschluessel": "05754000003201171", "bezeichnung": "Am Reiling" }, "geometry": { "type": "Point", "coordinates": [ 8.384844949028684, 51.778002890422158 ] } },
{ "type": "Feature", "properties": { "strassenschluessel": "05754000003201180", "bezeichnung": "Am Rosengarten" }, "geometry": { "type": "Point", "coordinates": [ 8.417723847802295, 51.808053968132924 ] } },
{ "type": "Feature", "properties": { "strassenschluessel": "05754000003201190", "bezeichnung": "Am Rothenbach" }, "geometry": { "type": "Point", "coordinates": [ 8.402065516607182, 51.82626384587536 ] } },
{ "type": "Feature", "properties": { "strassenschluessel": "05754000003201200", "bezeichnung": "Am Schützenplatz" }, "geometry": { "type": "Point", "coordinates": [ 8.397404606347106, 51.751537598568966 ] } },
{ "type": "Feature", "properties": { "strassenschluessel": "05754000003201205", "bezeichnung": "Amselweg" }, "geometry": { "type": "Point", "coordinates": [ 8.44089802486755, 51.825949034174805 ] } },
{ "type": "Feature", "properties": { "strassenschluessel": "05754000003201206", "bezeichnung": "Am Wiesenrain" }, "geometry": { "type": "Point", "coordinates": [ 8.436048207285248, 51.835096038880955 ] } },
{ "type": "Feature", "properties": { "strassenschluessel": "05754000003201207", "bezeichnung": "Am Nordtor" }, "geometry": { "type": "Point", "coordinates": [ 8.427870496505459, 51.810959335344798 ] } },
{ "type": "Feature", "properties": { "strassenschluessel": "05754000003201208", "bezeichnung": "Am Seeufer" }, "geometry": { "type": "Point", "coordinates": [ 8.432957085712552, 51.805325360197415 ] } },
{ "type": "Feature", "properties": { "strassenschluessel": "05754000003201210", "bezeichnung": "Am Sennebach" }, "geometry": { "type": "Point", "coordinates": [ 8.46164522234249, 51.830131050366781 ] } },
{ "type": "Feature", "properties": { "strassenschluessel": "05754000003201211", "bezeichnung": "Am Sportplatz" }, "geometry": { "type": "Point", "coordinates": [ 8.392839017134543, 51.752715605032023 ] } },
{ "type": "Feature", "properties": { "strassenschluessel": "05754000003201212", "bezeichnung": "Am Westwall" }, "geometry": { "type": "Point", "coordinates": [ 8.425223522210509, 51.806431588163491 ] } },
{ "type": "Feature", "properties": { "strassenschluessel": "05754000003201219", "bezeichnung": "Am Weinberg" }, "geometry": { "type": "Point", "coordinates": [ 8.371445028653961, 51.780033579236161 ] } },
{ "type": "Feature", "properties": { "strassenschluessel": "05754000003201220", "bezeichnung": "Am Südwall" }, "geometry": { "type": "Point", "coordinates": [ 8.429795315353427, 51.806269162258062 ] } },
{ "type": "Feature", "properties": { "strassenschluessel": "05754000003201221", "bezeichnung": "Am Wiesenpfad" }, "geometry": { "type": "Point", "coordinates": [ 8.443363026074652, 51.812072492175545 ] } },
{ "type": "Feature", "properties": { "strassenschluessel": "05754000003201222", "bezeichnung": "Am Vennestau" }, "geometry": { "type": "Point", "coordinates": [ 8.402049905557829, 51.735840992842832 ] } },
{ "type": "Feature", "properties": { "strassenschluessel": "05754000003201223", "bezeichnung": "Am Wapelbach" }, "geometry": { "type": "Point", "coordinates": [ 8.445488766506534, 51.835071311620716 ] } },
{ "type": "Feature", "properties": { "strassenschluessel": "05754000003201225", "bezeichnung": "Am Wall" }, "geometry": { "type": "Point", "coordinates": [ 8.398358900594717, 51.755066749990725 ] } },
{ "type": "Feature", "properties": { "strassenschluessel": "05754000003201226", "bezeichnung": "An der Ems" }, "geometry": { "type": "Point", "coordinates": [ 8.418800623926503, 51.811477638735482 ] } },
{ "type": "Feature", "properties": { "strassenschluessel": "05754000003201227", "bezeichnung": "An der Fluet" }, "geometry": { "type": "Point", "coordinates": [ 8.51204831406783, 51.808956721383439 ] } },
{ "type": "Feature", "properties": { "strassenschluessel": "05754000003201228", "bezeichnung": "An der Graft" }, "geometry": { "type": "Point", "coordinates": [ 8.39527995933865, 51.767683755467971 ] } },
{ "type": "Feature", "properties": { "strassenschluessel": "05754000003201229", "bezeichnung": "An der Mühle" }, "geometry": { "type": "Point", "coordinates": [ 8.375083101062717, 51.806623004210735 ] } },
{ "type": "Feature", "properties": { "strassenschluessel": "05754000003201230", "bezeichnung": "Andreasstraße" }, "geometry": { "type": "Point", "coordinates": [ 8.457844036322648, 51.829939267214911 ] } },
{ "type": "Feature", "properties": { "strassenschluessel": "05754000003201231", "bezeichnung": "An den Teichwiesen" }, "geometry": { "type": "Point", "coordinates": [ 8.436833437027076, 51.806215313555853 ] } },
{ "type": "Feature", "properties": { "strassenschluessel": "05754000003201232", "bezeichnung": "Anton-Paehler-Straße" }, "geometry": { "type": "Point", "coordinates": [ 8.423395339543026, 51.805301451286915 ] } },
{ "type": "Feature", "properties": { "strassenschluessel": "05754000003201233", "bezeichnung": "An der Bleiche" }, "geometry": null },
{ "type": "Feature", "properties": { "strassenschluessel": "05754000003201234", "bezeichnung": "An der Schule" }, "geometry": { "type": "Point", "coordinates": [ 8.373332311962274, 51.800339848464873 ] } },
{ "type": "Feature", "properties": { "strassenschluessel": "05754000003201235", "bezeichnung": "An der alten Molkerei" }, "geometry": { "type": "Point", "coordinates": [ 8.443471827896451, 51.828024354089742 ] } },
{ "type": "Feature", "properties": { "strassenschluessel": "05754000003201240", "bezeichnung": "Asternweg" }, "geometry": { "type": "Point", "coordinates": [ 8.422495969401634, 51.815703166835874 ] } },
{ "type": "Feature", "properties": { "strassenschluessel": "05754000003201245", "bezeichnung": "Auerhahnweg" }, "geometry": { "type": "Point", "coordinates": [ 8.485627965091767, 51.812988163024016 ] } },
{ "type": "Feature", "properties": { "strassenschluessel": "05754000003201250", "bezeichnung": "Auf dem Felde" }, "geometry": { "type": "Point", "coordinates": [ 8.393448273007303, 51.749874284838953 ] } },
{ "type": "Feature", "properties": { "strassenschluessel": "05754000003201260", "bezeichnung": "Auf dem Hammoor" }, "geometry": null },
{ "type": "Feature", "properties": { "strassenschluessel": "05754000003201261", "bezeichnung": "Auf dem Kampe" }, "geometry": { "type": "Point", "coordinates": [ 8.404911822555992, 51.757906131158443 ] } },
{ "type": "Feature", "properties": { "strassenschluessel": "05754000003201263", "bezeichnung": "Auf dem Knapp" }, "geometry": { "type": "Point", "coordinates": [ 8.402829027800022, 51.756300540020327 ] } },
{ "type": "Feature", "properties": { "strassenschluessel": "05754000003201265", "bezeichnung": "Auf dem Mersche" }, "geometry": { "type": "Point", "coordinates": [ 8.453232129939128, 51.828502164065682 ] } },
{ "type": "Feature", "properties": { "strassenschluessel": "05754000003201270", "bezeichnung": "Auf dem Moor" }, "geometry": { "type": "Point", "coordinates": [ 8.442152338627933, 51.858809132320928 ] } },
{ "type": "Feature", "properties": { "strassenschluessel": "05754000003201275", "bezeichnung": "Auf dem Röhr" }, "geometry": { "type": "Point", "coordinates": [ 8.441169313568203, 51.860008803515058 ] } },
{ "type": "Feature", "properties": { "strassenschluessel": "05754000003201280", "bezeichnung": "Auf den Wiehen" }, "geometry": { "type": "Point", "coordinates": [ 8.499474640530183, 51.81187639384909 ] } },
{ "type": "Feature", "properties": { "strassenschluessel": "05754000003201281", "bezeichnung": "Auf der Höhe" }, "geometry": { "type": "Point", "coordinates": [ 8.511917291907686, 51.811983440339638 ] } },
{ "type": "Feature", "properties": { "strassenschluessel": "05754000003201282", "bezeichnung": "Auf der Hardt" }, "geometry": { "type": "Point", "coordinates": [ 8.360034799339086, 51.77766024617096 ] } },
{ "type": "Feature", "properties": { "strassenschluessel": "05754000003201290", "bezeichnung": "August-Finke-Straße" }, "geometry": { "type": "Point", "coordinates": [ 8.418608121676103, 51.805644206968154 ] } },
{ "type": "Feature", "properties": { "strassenschluessel": "05754000003201291", "bezeichnung": "Azaleenweg" }, "geometry": { "type": "Point", "coordinates": [ 8.425243456205758, 51.814301981368189 ] } },
{ "type": "Feature", "properties": { "strassenschluessel": "05754000003201292", "bezeichnung": "Augustin-Wibbelt-Straße" }, "geometry": { "type": "Point", "coordinates": [ 8.433722002180438, 51.82518359132699 ] } },
{ "type": "Feature", "properties": { "strassenschluessel": "05754000003201300", "bezeichnung": "Bahnhofstraße" }, "geometry": { "type": "Point", "coordinates": [ 8.429707537021986, 51.817651428530574 ] } },
{ "type": "Feature", "properties": { "strassenschluessel": "05754000003201310", "bezeichnung": "Bartscherstraße" }, "geometry": { "type": "Point", "coordinates": [ 8.421441415717331, 51.806765754763489 ] } },
{ "type": "Feature", "properties": { "strassenschluessel": "05754000003201320", "bezeichnung": "Basterweg" }, "geometry": { "type": "Point", "coordinates": [ 8.455527773730333, 51.863184472412918 ] } },
{ "type": "Feature", "properties": { "strassenschluessel": "05754000003201330", "bezeichnung": "Batenhorster Straße" }, "geometry": { "type": "Point", "coordinates": [ 8.338931750804713, 51.808192180250799 ] } },
{ "type": "Feature", "properties": { "strassenschluessel": "05754000003201340", "bezeichnung": "Bauerkampstraße" }, "geometry": { "type": "Point", "coordinates": [ 8.442249593617197, 51.83845069286275 ] } },
{ "type": "Feature", "properties": { "strassenschluessel": "05754000003201343", "bezeichnung": "Baumweg" }, "geometry": { "type": "Point", "coordinates": [ 8.430593841668776, 51.859857015820197 ] } },
{ "type": "Feature", "properties": { "strassenschluessel": "05754000003201350", "bezeichnung": "Bentelerstraße" }, "geometry": { "type": "Point", "coordinates": [ 8.367572048513773, 51.737940993400954 ] } },
{ "type": "Feature", "properties": { "strassenschluessel": "05754000003201360", "bezeichnung": "Berglageweg" }, "geometry": { "type": "Point", "coordinates": [ 8.432723225830967, 51.810011813537166 ] } },
{ "type": "Feature", "properties": { "strassenschluessel": "05754000003201361", "bezeichnung": "Bergstraße" }, "geometry": { "type": "Point", "coordinates": [ 8.378828372724696, 51.800117619736326 ] } },
{ "type": "Feature", "properties": { "strassenschluessel": "05754000003201365", "bezeichnung": "Berkendeich" }, "geometry": { "type": "Point", "coordinates": [ 8.398922786405937, 51.755585663120193 ] } },
{ "type": "Feature", "properties": { "strassenschluessel": "05754000003201370", "bezeichnung": "Berkenheide" }, "geometry": { "type": "Point", "coordinates": [ 8.49624865372582, 51.812724546358396 ] } },
{ "type": "Feature", "properties": { "strassenschluessel": "05754000003201375", "bezeichnung": "Berkenkamp" }, "geometry": { "type": "Point", "coordinates": [ 8.388805898157749, 51.749695610440611 ] } },
{ "type": "Feature", "properties": { "strassenschluessel": "05754000003201380", "bezeichnung": "Bicksweg" }, "geometry": { "type": "Point", "coordinates": [ 8.426320040661594, 51.864096806472062 ] } },
{ "type": "Feature", "properties": { "strassenschluessel": "05754000003201390", "bezeichnung": "Binnerfeld" }, "geometry": { "type": "Point", "coordinates": [ 8.50300575583087, 51.821047005764001 ] } },
{ "type": "Feature", "properties": { "strassenschluessel": "05754000003201400", "bezeichnung": "Birkenallee" }, "geometry": { "type": "Point", "coordinates": [ 8.39575164277263, 51.75773448240637 ] } },
{ "type": "Feature", "properties": { "strassenschluessel": "05754000003201401", "bezeichnung": "Birkendamm" }, "geometry": null },
{ "type": "Feature", "properties": { "strassenschluessel": "05754000003201402", "bezeichnung": "Birkenweg" }, "geometry": { "type": "Point", "coordinates": [ 8.388379714222502, 51.828776480460277 ] } },
{ "type": "Feature", "properties": { "strassenschluessel": "05754000003201405", "bezeichnung": "Birkhuhnweg" }, "geometry": { "type": "Point", "coordinates": [ 8.485161878310974, 51.813905981601472 ] } },
{ "type": "Feature", "properties": { "strassenschluessel": "05754000003201410", "bezeichnung": "Blütenweg" }, "geometry": { "type": "Point", "coordinates": [ 8.434549749634161, 51.823826807694438 ] } },
{ "type": "Feature", "properties": { "strassenschluessel": "05754000003201420", "bezeichnung": "Blumenstraße" }, "geometry": { "type": "Point", "coordinates": [ 8.374494955325572, 51.733706689613015 ] } },
{ "type": "Feature", "properties": { "strassenschluessel": "05754000003201430", "bezeichnung": "Böckersstraße" }, "geometry": { "type": "Point", "coordinates": [ 8.437101175255858, 51.818015610092594 ] } },
{ "type": "Feature", "properties": { "strassenschluessel": "05754000003201431", "bezeichnung": "Bödingsheide" }, "geometry": { "type": "Point", "coordinates": [ 8.449047116984307, 51.828048902773816 ] } },
{ "type": "Feature", "properties": { "strassenschluessel": "05754000003201440", "bezeichnung": "Bogenstraße" }, "geometry": { "type": "Point", "coordinates": [ 8.446260823407236, 51.834306811991738 ] } },
{ "type": "Feature", "properties": { "strassenschluessel": "05754000003201450", "bezeichnung": "Bokeler Straße" }, "geometry": { "type": "Point", "coordinates": [ 8.36924505070084, 51.792480858226313 ] } },
{ "type": "Feature", "properties": { "strassenschluessel": "05754000003201460", "bezeichnung": "Bolzenmarkt" }, "geometry": { "type": "Point", "coordinates": [ 8.427915387115378, 51.808455182337546 ] } },
{ "type": "Feature", "properties": { "strassenschluessel": "05754000003201461", "bezeichnung": "Brandheide" }, "geometry": { "type": "Point", "coordinates": [ 8.402801468935898, 51.741406840953118 ] } },
{ "type": "Feature", "properties": { "strassenschluessel": "05754000003201470", "bezeichnung": "Brandstraße" }, "geometry": { "type": "Point", "coordinates": [ 8.392381925667312, 51.752406607414507 ] } },
{ "type": "Feature", "properties": { "strassenschluessel": "05754000003201471", "bezeichnung": "Brauwinkel" }, "geometry": null },
{ "type": "Feature", "properties": { "strassenschluessel": "05754000003201472", "bezeichnung": "Breedeweg" }, "geometry": { "type": "Point", "coordinates": [ 8.400246638724909, 51.827761947267334 ] } },
{ "type": "Feature", "properties": { "strassenschluessel": "05754000003201473", "bezeichnung": "Breienweg" }, "geometry": { "type": "Point", "coordinates": [ 8.500312744126324, 51.81225071526692 ] } },
{ "type": "Feature", "properties": { "strassenschluessel": "05754000003201480", "bezeichnung": "Breite Straße" }, "geometry": { "type": "Point", "coordinates": [ 8.377102323145211, 51.736479171912848 ] } },
{ "type": "Feature", "properties": { "strassenschluessel": "05754000003201481", "bezeichnung": "Brentanostraße" }, "geometry": { "type": "Point", "coordinates": [ 8.432518008812876, 51.826927725862916 ] } },
{ "type": "Feature", "properties": { "strassenschluessel": "05754000003201490", "bezeichnung": "Breslauer Straße" }, "geometry": { "type": "Point", "coordinates": [ 8.443681507670496, 51.816042544518005 ] } },
{ "type": "Feature", "properties": { "strassenschluessel": "05754000003201501", "bezeichnung": "Bresserstraße" }, "geometry": { "type": "Point", "coordinates": [ 8.41685623905969, 51.781364709954296 ] } },
{ "type": "Feature", "properties": { "strassenschluessel": "05754000003201510", "bezeichnung": "Brinkstraße" }, "geometry": { "type": "Point", "coordinates": [ 8.423401665568052, 51.836157705372749 ] } },
{ "type": "Feature", "properties": { "strassenschluessel": "05754000003201515", "bezeichnung": "Brockheide" }, "geometry": { "type": "Point", "coordinates": [ 8.374470044944477, 51.800491908446219 ] } },
{ "type": "Feature", "properties": { "strassenschluessel": "05754000003201520", "bezeichnung": "Brockstraße" }, "geometry": { "type": "Point", "coordinates": [ 8.366358430363134, 51.785447262490649 ] } },
{ "type": "Feature", "properties": { "strassenschluessel": "05754000003201530", "bezeichnung": "Brüningsweg" }, "geometry": { "type": "Point", "coordinates": [ 8.427294909227705, 51.84319003757178 ] } },
{ "type": "Feature", "properties": { "strassenschluessel": "05754000003201540", "bezeichnung": "Bruchstraße" }, "geometry": { "type": "Point", "coordinates": [ 8.429664875556997, 51.804417963534952 ] } },
{ "type": "Feature", "properties": { "strassenschluessel": "05754000003201541", "bezeichnung": "Brunnenstraße" }, "geometry": { "type": "Point", "coordinates": [ 8.369589663549098, 51.798867130778156 ] } },
{ "type": "Feature", "properties": { "strassenschluessel": "05754000003201550", "bezeichnung": "Buchenweg" }, "geometry": { "type": "Point", "coordinates": [ 8.452848464699883, 51.830995614128241 ] } },
{ "type": "Feature", "properties": { "strassenschluessel": "05754000003201551", "bezeichnung": "Bussardweg" }, "geometry": { "type": "Point", "coordinates": [ 8.451385664311081, 51.836134410943416 ] } },
{ "type": "Feature", "properties": { "strassenschluessel": "05754000003201553", "bezeichnung": "Buschkamp" }, "geometry": { "type": "Point", "coordinates": [ 8.399795030106931, 51.759528760138913 ] } },
{ "type": "Feature", "properties": { "strassenschluessel": "05754000003201554", "bezeichnung": "Buschwiese" }, "geometry": { "type": "Point", "coordinates": [ 8.401746017388069, 51.759320348482085 ] } },
{ "type": "Feature", "properties": { "strassenschluessel": "05754000003201555", "bezeichnung": "Dahlienweg" }, "geometry": { "type": "Point", "coordinates": [ 8.423712043603238, 51.818293146154232 ] } },
{ "type": "Feature", "properties": { "strassenschluessel": "05754000003201560", "bezeichnung": "Damaschkestraße" }, "geometry": { "type": "Point", "coordinates": [ 8.423307579220323, 51.80848711906696 ] } },
{ "type": "Feature", "properties": { "strassenschluessel": "05754000003201570", "bezeichnung": "Dammstraße" }, "geometry": { "type": "Point", "coordinates": [ 8.375043650269507, 51.721743584297727 ] } },
{ "type": "Feature", "properties": { "strassenschluessel": "05754000003201580", "bezeichnung": "Danziger Straße" }, "geometry": { "type": "Point", "coordinates": [ 8.440793388733335, 51.816193029189861 ] } },
{ "type": "Feature", "properties": { "strassenschluessel": "05754000003201591", "bezeichnung": "Dasshorststraße" }, "geometry": { "type": "Point", "coordinates": [ 8.422386112441329, 51.815184159154313 ] } },
{ "type": "Feature", "properties": { "strassenschluessel": "05754000003201600", "bezeichnung": "Dawestraße" }, "geometry": { "type": "Point", "coordinates": [ 8.393239906745293, 51.756727044861833 ] } },
{ "type": "Feature", "properties": { "strassenschluessel": "05754000003201610", "bezeichnung": "Delbrücker Straße" }, "geometry": { "type": "Point", "coordinates": [ 8.426241464666147, 51.804637423372668 ] } },
{ "type": "Feature", "properties": { "strassenschluessel": "05754000003201615", "bezeichnung": "Delkers Weg" }, "geometry": { "type": "Point", "coordinates": [ 8.439092790958721, 51.860192180391849 ] } },
{ "type": "Feature", "properties": { "strassenschluessel": "05754000003201620", "bezeichnung": "Detmolder Straße" }, "geometry": { "type": "Point", "coordinates": [ 8.489302799703221, 51.833825831327303 ] } },
{ "type": "Feature", "properties": { "strassenschluessel": "05754000003201630", "bezeichnung": "Diekamp" }, "geometry": { "type": "Point", "coordinates": [ 8.444217243446003, 51.832999034864628 ] } },
{ "type": "Feature", "properties": { "strassenschluessel": "05754000003201635", "bezeichnung": "Dieselstraße" }, "geometry": { "type": "Point", "coordinates": [ 8.384657271775094, 51.764745922727222 ] } },
{ "type": "Feature", "properties": { "strassenschluessel": "05754000003201637", "bezeichnung": "Dietrich-Bonhoeffer-Straße" }, "geometry": { "type": "Point", "coordinates": [ 8.414889325973363, 51.807179353639306 ] } },
{ "type": "Feature", "properties": { "strassenschluessel": "05754000003201640", "bezeichnung": "Doppstraße" }, "geometry": { "type": "Point", "coordinates": [ 8.379334181605282, 51.803660936776005 ] } },
{ "type": "Feature", "properties": { "strassenschluessel": "05754000003201641", "bezeichnung": "Dr.-Bigalke-Straße" }, "geometry": { "type": "Point", "coordinates": [ 8.422847413167068, 51.810137104609318 ] } },
{ "type": "Feature", "properties": { "strassenschluessel": "05754000003201650", "bezeichnung": "Drosselweg" }, "geometry": { "type": "Point", "coordinates": [ 8.426645331636628, 51.810931978111931 ] } },
{ "type": "Feature", "properties": { "strassenschluessel": "05754000003201651", "bezeichnung": "Droste-Hülshoff-Straße" }, "geometry": { "type": "Point", "coordinates": [ 8.432331013789419, 51.825415075328188 ] } },
{ "type": "Feature", "properties": { "strassenschluessel": "05754000003201659", "bezeichnung": "Duhmes Wiese" }, "geometry": { "type": "Point", "coordinates": [ 8.386445537891037, 51.756237510597757 ] } },
{ "type": "Feature", "properties": { "strassenschluessel": "05754000003201661", "bezeichnung": "Druffeler Straße" }, "geometry": { "type": "Point", "coordinates": [ 8.436593833937293, 51.828102220141936 ] } },
{ "type": "Feature", "properties": { "strassenschluessel": "05754000003201662", "bezeichnung": "Efeuweg" }, "geometry": { "type": "Point", "coordinates": [ 8.427583409253881, 51.812725359569086 ] } },
{ "type": "Feature", "properties": { "strassenschluessel": "05754000003201665", "bezeichnung": "Eichenallee" }, "geometry": { "type": "Point", "coordinates": [ 8.418378384362176, 51.763828594391313 ] } },
{ "type": "Feature", "properties": { "strassenschluessel": "05754000003201670", "bezeichnung": "Eichendorffstraße" }, "geometry": { "type": "Point", "coordinates": [ 8.379415750022897, 51.735698199543812 ] } },
{ "type": "Feature", "properties": { "strassenschluessel": "05754000003201680", "bezeichnung": "Eichenweg" }, "geometry": { "type": "Point", "coordinates": [ 8.449699601465495, 51.829247569043297 ] } },
{ "type": "Feature", "properties": { "strassenschluessel": "05754000003201682", "bezeichnung": "Eichenhofweg" }, "geometry": { "type": "Point", "coordinates": [ 8.449605985273577, 51.832134737183068 ] } },
{ "type": "Feature", "properties": { "strassenschluessel": "05754000003201690", "bezeichnung": "Eiserstraße" }, "geometry": { "type": "Point", "coordinates": [ 8.476164793815123, 51.835294724845099 ] } },
{ "type": "Feature", "properties": { "strassenschluessel": "05754000003201692", "bezeichnung": "Eltzbacherweg" }, "geometry": { "type": "Point", "coordinates": [ 8.432595872781835, 51.827383979816226 ] } },
{ "type": "Feature", "properties": { "strassenschluessel": "05754000003201700", "bezeichnung": "Emsstraße" }, "geometry": { "type": "Point", "coordinates": [ 8.428367647750251, 51.809527371049029 ] } },
{ "type": "Feature", "properties": { "strassenschluessel": "05754000003201701", "bezeichnung": "Entenweg" }, "geometry": null },
{ "type": "Feature", "properties": { "strassenschluessel": "05754000003201702", "bezeichnung": "Emsaue" }, "geometry": { "type": "Point", "coordinates": [ 8.41866396847551, 51.814224838172031 ] } },
{ "type": "Feature", "properties": { "strassenschluessel": "05754000003201705", "bezeichnung": "Emsallee" }, "geometry": { "type": "Point", "coordinates": [ 8.419842310018884, 51.813396502209763 ] } },
{ "type": "Feature", "properties": { "strassenschluessel": "05754000003201706", "bezeichnung": "Emsweg" }, "geometry": { "type": "Point", "coordinates": [ 8.418080583436131, 51.813556718700696 ] } },
{ "type": "Feature", "properties": { "strassenschluessel": "05754000003201707", "bezeichnung": "Emsbruch" }, "geometry": { "type": "Point", "coordinates": [ 8.418168899071535, 51.813046437755908 ] } },
{ "type": "Feature", "properties": { "strassenschluessel": "05754000003201708", "bezeichnung": "Emsländer Weg" }, "geometry": { "type": "Point", "coordinates": [ 8.417829596211092, 51.814433356281313 ] } },
{ "type": "Feature", "properties": { "strassenschluessel": "05754000003201709", "bezeichnung": "Erlenkamp" }, "geometry": { "type": "Point", "coordinates": [ 8.377349226823249, 51.739221777143058 ] } },
{ "type": "Feature", "properties": { "strassenschluessel": "05754000003201710", "bezeichnung": "Erlenweg" }, "geometry": { "type": "Point", "coordinates": [ 8.420486090564452, 51.815174479256527 ] } },
{ "type": "Feature", "properties": { "strassenschluessel": "05754000003201715", "bezeichnung": "Eschenweg" }, "geometry": { "type": "Point", "coordinates": [ 8.447177216694119, 51.830460430195259 ] } },
{ "type": "Feature", "properties": { "strassenschluessel": "05754000003201716", "bezeichnung": "Edith-Stein-Straße" }, "geometry": { "type": "Point", "coordinates": [ 8.412766752761524, 51.80737272466655 ] } },
{ "type": "Feature", "properties": { "strassenschluessel": "05754000003201720", "bezeichnung": "Eberhard-Unkraut-Straße" }, "geometry": { "type": "Point", "coordinates": [ 8.415286088632024, 51.810117968962871 ] } },
{ "type": "Feature", "properties": { "strassenschluessel": "05754000003201722", "bezeichnung": "Fechtelweg" }, "geometry": { "type": "Point", "coordinates": [ 8.362219078907257, 51.731932020876208 ] } },
{ "type": "Feature", "properties": { "strassenschluessel": "05754000003201723", "bezeichnung": "Fahrenkamp" }, "geometry": { "type": "Point", "coordinates": [ 8.398727789329646, 51.765337979645388 ] } },
{ "type": "Feature", "properties": { "strassenschluessel": "05754000003201724", "bezeichnung": "Falkenweg" }, "geometry": { "type": "Point", "coordinates": [ 8.450231301779796, 51.835670554515012 ] } },
{ "type": "Feature", "properties": { "strassenschluessel": "05754000003201725", "bezeichnung": "Feldkamp" }, "geometry": { "type": "Point", "coordinates": [ 8.410639894603266, 51.764035751777747 ] } },
{ "type": "Feature", "properties": { "strassenschluessel": "05754000003201726", "bezeichnung": "Fasanenweg" }, "geometry": { "type": "Point", "coordinates": [ 8.478551504551609, 51.815340978987372 ] } },
{ "type": "Feature", "properties": { "strassenschluessel": "05754000003201730", "bezeichnung": "Feldstraße" }, "geometry": { "type": "Point", "coordinates": [ 8.451688401013403, 51.829042558008211 ] } },
{ "type": "Feature", "properties": { "strassenschluessel": "05754000003201735", "bezeichnung": "Fichtenweg" }, "geometry": { "type": "Point", "coordinates": [ 8.452349949008143, 51.829881374040781 ] } },
{ "type": "Feature", "properties": { "strassenschluessel": "05754000003201736", "bezeichnung": "Finkenweg" }, "geometry": { "type": "Point", "coordinates": [ 8.443977112358022, 51.826886581102706 ] } },
{ "type": "Feature", "properties": { "strassenschluessel": "05754000003201738", "bezeichnung": "Fischhausweg" }, "geometry": { "type": "Point", "coordinates": [ 8.423911876052466, 51.798904717594702 ] } },
{ "type": "Feature", "properties": { "strassenschluessel": "05754000003201740", "bezeichnung": "Fleigestraße" }, "geometry": { "type": "Point", "coordinates": [ 8.419473110376698, 51.808458955632631 ] } },
{ "type": "Feature", "properties": { "strassenschluessel": "05754000003201745", "bezeichnung": "Fliederweg" }, "geometry": { "type": "Point", "coordinates": [ 8.422985293627601, 51.815006059652568 ] } },
{ "type": "Feature", "properties": { "strassenschluessel": "05754000003201750", "bezeichnung": "Flitterweg" }, "geometry": { "type": "Point", "coordinates": [ 8.436501655243671, 51.846807067482715 ] } },
{ "type": "Feature", "properties": { "strassenschluessel": "05754000003201760", "bezeichnung": "Flurstraße" }, "geometry": { "type": "Point", "coordinates": [ 8.385357537644294, 51.734744623110842 ] } },
{ "type": "Feature", "properties": { "strassenschluessel": "05754000003201761", "bezeichnung": "Fontanestraße" }, "geometry": { "type": "Point", "coordinates": [ 8.434241900304949, 51.826409327678995 ] } },
{ "type": "Feature", "properties": { "strassenschluessel": "05754000003201770", "bezeichnung": "Frankenstraße" }, "geometry": { "type": "Point", "coordinates": [ 8.43010997583376, 51.810039909633751 ] } },
{ "type": "Feature", "properties": { "strassenschluessel": "05754000003201780", "bezeichnung": "Friedenstraße" }, "geometry": { "type": "Point", "coordinates": [ 8.437125429253749, 51.82932979723212 ] } },
{ "type": "Feature", "properties": { "strassenschluessel": "05754000003201785", "bezeichnung": "Franziskusweg" }, "geometry": { "type": "Point", "coordinates": [ 8.420775267652818, 51.802232912755329 ] } },
{ "type": "Feature", "properties": { "strassenschluessel": "05754000003201790", "bezeichnung": "Friedhofstraße" }, "geometry": { "type": "Point", "coordinates": [ 8.37382894868208, 51.802602758579198 ] } },
{ "type": "Feature", "properties": { "strassenschluessel": "05754000003201795", "bezeichnung": "Fürst-Kaunitz-Straße" }, "geometry": { "type": "Point", "coordinates": [ 8.428434259830588, 51.801042923580923 ] } },
{ "type": "Feature", "properties": { "strassenschluessel": "05754000003201800", "bezeichnung": "Gallenweg" }, "geometry": { "type": "Point", "coordinates": [ 8.444657132610786, 51.81372515039584 ] } },
{ "type": "Feature", "properties": { "strassenschluessel": "05754000003201810", "bezeichnung": "Gartenstraße" }, "geometry": { "type": "Point", "coordinates": [ 8.432920620301175, 51.836701021271594 ] } },
{ "type": "Feature", "properties": { "strassenschluessel": "05754000003201811", "bezeichnung": "Geranienweg" }, "geometry": { "type": "Point", "coordinates": [ 8.427066551752349, 51.81377779791039 ] } },
{ "type": "Feature", "properties": { "strassenschluessel": "05754000003201820", "bezeichnung": "Gersteinstraße" }, "geometry": { "type": "Point", "coordinates": [ 8.430271892060185, 51.815519807370677 ] } },
{ "type": "Feature", "properties": { "strassenschluessel": "05754000003201821", "bezeichnung": "Gerstenkamp" }, "geometry": { "type": "Point", "coordinates": [ 8.405156244869538, 51.7557924365681 ] } },
{ "type": "Feature", "properties": { "strassenschluessel": "05754000003201830", "bezeichnung": "Gerwingsweg" }, "geometry": { "type": "Point", "coordinates": [ 8.463754398374768, 51.81931860610581 ] } },
{ "type": "Feature", "properties": { "strassenschluessel": "05754000003201840", "bezeichnung": "Gewerbestraße" }, "geometry": { "type": "Point", "coordinates": [ 8.384283850528396, 51.762085476460591 ] } },
{ "type": "Feature", "properties": { "strassenschluessel": "05754000003201845", "bezeichnung": "Ginsterweg" }, "geometry": { "type": "Point", "coordinates": [ 8.398487430960659, 51.753658231570284 ] } },
{ "type": "Feature", "properties": { "strassenschluessel": "05754000003201846", "bezeichnung": "Gladiolenweg" }, "geometry": { "type": "Point", "coordinates": [ 8.423783772567496, 51.814414576368613 ] } },
{ "type": "Feature", "properties": { "strassenschluessel": "05754000003201850", "bezeichnung": "Glockenbrink" }, "geometry": { "type": "Point", "coordinates": [ 8.439238331923843, 51.829592428878485 ] } },
{ "type": "Feature", "properties": { "strassenschluessel": "05754000003201851", "bezeichnung": "Goethestraße" }, "geometry": { "type": "Point", "coordinates": [ 8.434144605040952, 51.824740680267112 ] } },
{ "type": "Feature", "properties": { "strassenschluessel": "05754000003201852", "bezeichnung": "Glüpkerheide" }, "geometry": { "type": "Point", "coordinates": [ 8.402147491213682, 51.779583330930926 ] } },
{ "type": "Feature", "properties": { "strassenschluessel": "05754000003201860", "bezeichnung": "Gräfin-Ernestine-Straße" }, "geometry": { "type": "Point", "coordinates": [ 8.439306673703939, 51.813736169074595 ] } },
{ "type": "Feature", "properties": { "strassenschluessel": "05754000003201861", "bezeichnung": "Große-Recke-Weg" }, "geometry": { "type": "Point", "coordinates": [ 8.409600777922936, 51.78916413616259 ] } },
{ "type": "Feature", "properties": { "strassenschluessel": "05754000003201865", "bezeichnung": "Große Wiese" }, "geometry": { "type": "Point", "coordinates": [ 8.391554957767728, 51.753225650289544 ] } },
{ "type": "Feature", "properties": { "strassenschluessel": "05754000003201870", "bezeichnung": "Graf-Johannes-Straße" }, "geometry": { "type": "Point", "coordinates": [ 8.437483422706523, 51.815672092463508 ] } },
{ "type": "Feature", "properties": { "strassenschluessel": "05754000003201881", "bezeichnung": "Graswinkel" }, "geometry": { "type": "Point", "coordinates": [ 8.376150508429713, 51.785475664677065 ] } },
{ "type": "Feature", "properties": { "strassenschluessel": "05754000003201890", "bezeichnung": "Grenzweg" }, "geometry": { "type": "Point", "coordinates": [ 8.397615567295636, 51.804025028053168 ] } },
{ "type": "Feature", "properties": { "strassenschluessel": "05754000003201900", "bezeichnung": "Grüner Weg" }, "geometry": { "type": "Point", "coordinates": [ 8.454150519325877, 51.851822183917562 ] } },
{ "type": "Feature", "properties": { "strassenschluessel": "05754000003201911", "bezeichnung": "Gütersloher Straße" }, "geometry": { "type": "Point", "coordinates": [ 8.425475995756003, 51.854154111731305 ] } },
{ "type": "Feature", "properties": { "strassenschluessel": "05754000003201915", "bezeichnung": "Habichtsheide" }, "geometry": { "type": "Point", "coordinates": [ 8.374704291376954, 51.800219015794774 ] } },
{ "type": "Feature", "properties": { "strassenschluessel": "05754000003201920", "bezeichnung": "Habichtsweg" }, "geometry": { "type": "Point", "coordinates": [ 8.449496453580535, 51.83907166672229 ] } },
{ "type": "Feature", "properties": { "strassenschluessel": "05754000003201921", "bezeichnung": "Hagenheide" }, "geometry": { "type": "Point", "coordinates": [ 8.510042401430137, 51.819305268466877 ] } },
{ "type": "Feature", "properties": { "strassenschluessel": "05754000003201925", "bezeichnung": "Hanfgarten" }, "geometry": { "type": "Point", "coordinates": [ 8.421213281790527, 51.77629745490421 ] } },
{ "type": "Feature", "properties": { "strassenschluessel": "05754000003201929", "bezeichnung": "Hammoor" }, "geometry": { "type": "Point", "coordinates": [ 8.377677913453518, 51.775414241124139 ] } },
{ "type": "Feature", "properties": { "strassenschluessel": "05754000003201930", "bezeichnung": "Halaustraße" }, "geometry": { "type": "Point", "coordinates": [ 8.388171914430776, 51.737089073639538 ] } },
{ "type": "Feature", "properties": { "strassenschluessel": "05754000003201931", "bezeichnung": "Hanebrink" }, "geometry": { "type": "Point", "coordinates": [ 8.388035050518258, 51.75410008501099 ] } },
{ "type": "Feature", "properties": { "strassenschluessel": "05754000003201933", "bezeichnung": "Hardtweg" }, "geometry": { "type": "Point", "coordinates": [ 8.385990741326637, 51.809210203739667 ] } },
{ "type": "Feature", "properties": { "strassenschluessel": "05754000003201940", "bezeichnung": "Hartenstraße" }, "geometry": { "type": "Point", "coordinates": [ 8.420207575404293, 51.806193725587441 ] } },
{ "type": "Feature", "properties": { "strassenschluessel": "05754000003201950", "bezeichnung": "Haselhorststraße" }, "geometry": { "type": "Point", "coordinates": [ 8.415399421752745, 51.75960610535175 ] } },
{ "type": "Feature", "properties": { "strassenschluessel": "05754000003201960", "bezeichnung": "Haßmannstraße" }, "geometry": { "type": "Point", "coordinates": [ 8.436721905545092, 51.863222691003564 ] } },
{ "type": "Feature", "properties": { "strassenschluessel": "05754000003201961", "bezeichnung": "Heckenweg" }, "geometry": { "type": "Point", "coordinates": [ 8.482405278476302, 51.814645431069707 ] } },
{ "type": "Feature", "properties": { "strassenschluessel": "05754000003201970", "bezeichnung": "Hauptstraße" }, "geometry": { "type": "Point", "coordinates": [ 8.441248742473594, 51.859513222039787 ] } },
{ "type": "Feature", "properties": { "strassenschluessel": "05754000003201980", "bezeichnung": "Hedafeld" }, "geometry": { "type": "Point", "coordinates": [ 8.502969662573342, 51.831911577167311 ] } },
{ "type": "Feature", "properties": { "strassenschluessel": "05754000003201990", "bezeichnung": "Heideweg" }, "geometry": { "type": "Point", "coordinates": [ 8.36412202236707, 51.807416026010102 ] } },
{ "type": "Feature", "properties": { "strassenschluessel": "05754000003201991", "bezeichnung": "Heinrich-Heine-Straße" }, "geometry": { "type": "Point", "coordinates": [ 8.433359133758243, 51.827173539940098 ] } },
{ "type": "Feature", "properties": { "strassenschluessel": "05754000003201992", "bezeichnung": "Hellekamp" }, "geometry": { "type": "Point", "coordinates": [ 8.371874505766321, 51.748306641078216 ] } },
{ "type": "Feature", "properties": { "strassenschluessel": "05754000003201994", "bezeichnung": "Heinrich-Kuper-Straße" }, "geometry": { "type": "Point", "coordinates": [ 8.427301276634429, 51.805492282362231 ] } },
{ "type": "Feature", "properties": { "strassenschluessel": "05754000003202000", "bezeichnung": "Hellestraße" }, "geometry": { "type": "Point", "coordinates": [ 8.375743886939603, 51.74918137309281 ] } },
{ "type": "Feature", "properties": { "strassenschluessel": "05754000003202010", "bezeichnung": "Hemmersweg" }, "geometry": { "type": "Point", "coordinates": [ 8.449381173809632, 51.854570945294533 ] } },
{ "type": "Feature", "properties": { "strassenschluessel": "05754000003202015", "bezeichnung": "Herrenbruch" }, "geometry": { "type": "Point", "coordinates": [ 8.456192685727379, 51.787725028147804 ] } },
{ "type": "Feature", "properties": { "strassenschluessel": "05754000003202020", "bezeichnung": "Hochfeld" }, "geometry": { "type": "Point", "coordinates": [ 8.513737381423676, 51.81699081011503 ] } },
{ "type": "Feature", "properties": { "strassenschluessel": "05754000003202030", "bezeichnung": "Höppeweg" }, "geometry": { "type": "Point", "coordinates": [ 8.426297523820161, 51.801446004434069 ] } },
{ "type": "Feature", "properties": { "strassenschluessel": "05754000003202040", "bezeichnung": "Hohe Straße" }, "geometry": { "type": "Point", "coordinates": [ 8.424230807090439, 51.822035581517916 ] } },
{ "type": "Feature", "properties": { "strassenschluessel": "05754000003202050", "bezeichnung": "Holter Weg" }, "geometry": { "type": "Point", "coordinates": [ 8.481518110708766, 51.84814450730741 ] } },
{ "type": "Feature", "properties": { "strassenschluessel": "05754000003202055", "bezeichnung": "Holtkampstraße" }, "geometry": { "type": "Point", "coordinates": [ 8.395850114784707, 51.755600553472746 ] } },
{ "type": "Feature", "properties": { "strassenschluessel": "05754000003202056", "bezeichnung": "Holzheide" }, "geometry": { "type": "Point", "coordinates": [ 8.37368611184136, 51.801934773948652 ] } },
{ "type": "Feature", "properties": { "strassenschluessel": "05754000003202057", "bezeichnung": "Holunderweg" }, "geometry": { "type": "Point", "coordinates": [ 8.428028267125585, 51.81206687543812 ] } },
{ "type": "Feature", "properties": { "strassenschluessel": "05754000003202060", "bezeichnung": "Humannsweg" }, "geometry": { "type": "Point", "coordinates": [ 8.439536764107949, 51.824604717720035 ] } },
{ "type": "Feature", "properties": { "strassenschluessel": "05754000003202070", "bezeichnung": "Im Bödingsfeld" }, "geometry": { "type": "Point", "coordinates": [ 8.455106975262584, 51.830042589276097 ] } },
{ "type": "Feature", "properties": { "strassenschluessel": "05754000003202075", "bezeichnung": "Im Busche" }, "geometry": { "type": "Point", "coordinates": [ 8.392141993411011, 51.763508924380766 ] } },
{ "type": "Feature", "properties": { "strassenschluessel": "05754000003202080", "bezeichnung": "Im Dörenkamp" }, "geometry": { "type": "Point", "coordinates": [ 8.494594675074513, 51.819809580756825 ] } },
{ "type": "Feature", "properties": { "strassenschluessel": "05754000003202081", "bezeichnung": "Im Eickholt" }, "geometry": { "type": "Point", "coordinates": [ 8.488139653262902, 51.805063377458573 ] } },
{ "type": "Feature", "properties": { "strassenschluessel": "05754000003202090", "bezeichnung": "Im Ennebutt" }, "geometry": { "type": "Point", "coordinates": [ 8.42590059007968, 51.807593018761146 ] } },
{ "type": "Feature", "properties": { "strassenschluessel": "05754000003202100", "bezeichnung": "Im Erlei" }, "geometry": { "type": "Point", "coordinates": [ 8.434594941835783, 51.859723307723847 ] } },
{ "type": "Feature", "properties": { "strassenschluessel": "05754000003202101", "bezeichnung": "Im Feld" }, "geometry": { "type": "Point", "coordinates": [ 8.38228095248391, 51.800438718280901 ] } },
{ "type": "Feature", "properties": { "strassenschluessel": "05754000003202110", "bezeichnung": "Im Grünen Winkel" }, "geometry": { "type": "Point", "coordinates": [ 8.400368921824427, 51.758837207924657 ] } },
{ "type": "Feature", "properties": { "strassenschluessel": "05754000003202111", "bezeichnung": "Im Grund" }, "geometry": { "type": "Point", "coordinates": [ 8.382854618899467, 51.799746327511436 ] } },
{ "type": "Feature", "properties": { "strassenschluessel": "05754000003202120", "bezeichnung": "Im Hagen" }, "geometry": { "type": "Point", "coordinates": [ 8.386503957060217, 51.749706582200758 ] } },
{ "type": "Feature", "properties": { "strassenschluessel": "05754000003202130", "bezeichnung": "Im Heidkamp" }, "geometry": { "type": "Point", "coordinates": [ 8.486673014923548, 51.817228093910671 ] } },
{ "type": "Feature", "properties": { "strassenschluessel": "05754000003202140", "bezeichnung": "Im Holtkamp" }, "geometry": { "type": "Point", "coordinates": [ 8.437651331188302, 51.834986512286122 ] } },
{ "type": "Feature", "properties": { "strassenschluessel": "05754000003202142", "bezeichnung": "Im Hütten" }, "geometry": { "type": "Point", "coordinates": [ 8.381860613002004, 51.799749702227466 ] } },
{ "type": "Feature", "properties": { "strassenschluessel": "05754000003202144", "bezeichnung": "Im Klimapark" }, "geometry": { "type": "Point", "coordinates": [ 8.444895027902861, 51.815939888002269 ] } },
{ "type": "Feature", "properties": { "strassenschluessel": "05754000003202145", "bezeichnung": "Immenweg" }, "geometry": { "type": "Point", "coordinates": [ 8.396237745884747, 51.757255766921517 ] } },
{ "type": "Feature", "properties": { "strassenschluessel": "05754000003202150", "bezeichnung": "Im Plumpe" }, "geometry": { "type": "Point", "coordinates": [ 8.478648142867154, 51.798733481078045 ] } },
{ "type": "Feature", "properties": { "strassenschluessel": "05754000003202160", "bezeichnung": "Im Rössel" }, "geometry": { "type": "Point", "coordinates": [ 8.488470883072623, 51.816621460268117 ] } },
{ "type": "Feature", "properties": { "strassenschluessel": "05754000003202165", "bezeichnung": "Im Rüenbrink" }, "geometry": { "type": "Point", "coordinates": [ 8.418271686215395, 51.804740628173668 ] } },
{ "type": "Feature", "properties": { "strassenschluessel": "05754000003202170", "bezeichnung": "Im Sack" }, "geometry": { "type": "Point", "coordinates": [ 8.427786032153323, 51.807388789248463 ] } },
{ "type": "Feature", "properties": { "strassenschluessel": "05754000003202175", "bezeichnung": "Im Schöning" }, "geometry": { "type": "Point", "coordinates": [ 8.458308169900805, 51.789906624518494 ] } },
{ "type": "Feature", "properties": { "strassenschluessel": "05754000003202180", "bezeichnung": "Im Thüle" }, "geometry": { "type": "Point", "coordinates": [ 8.48019070617868, 51.798321043278406 ] } },
{ "type": "Feature", "properties": { "strassenschluessel": "05754000003202181", "bezeichnung": "Im Venn" }, "geometry": { "type": "Point", "coordinates": [ 8.40676414704223, 51.733154914868365 ] } },
{ "type": "Feature", "properties": { "strassenschluessel": "05754000003202181", "bezeichnung": "Im Venn" }, "geometry": { "type": "Point", "coordinates": [ 8.40676414704223, 51.733154914868365 ] } },
{ "type": "Feature", "properties": { "strassenschluessel": "05754000003202190", "bezeichnung": "Im Weiland" }, "geometry": { "type": "Point", "coordinates": [ 8.436483419369793, 51.817189359633431 ] } },
{ "type": "Feature", "properties": { "strassenschluessel": "05754000003202191", "bezeichnung": "Im Wiesengrund" }, "geometry": { "type": "Point", "coordinates": [ 8.490842996019424, 51.801767260774312 ] } },
{ "type": "Feature", "properties": { "strassenschluessel": "05754000003202192", "bezeichnung": "Im Winkel" }, "geometry": { "type": "Point", "coordinates": [ 8.508405376085369, 51.812909511926762 ] } },
{ "type": "Feature", "properties": { "strassenschluessel": "05754000003202200", "bezeichnung": "Im Wullbrock" }, "geometry": { "type": "Point", "coordinates": [ 8.424099026625145, 51.811259319575342 ] } },
{ "type": "Feature", "properties": { "strassenschluessel": "05754000003202205", "bezeichnung": "In den Emswiesen" }, "geometry": { "type": "Point", "coordinates": [ 8.421859327908935, 51.81349431666353 ] } },
{ "type": "Feature", "properties": { "strassenschluessel": "05754000003202210", "bezeichnung": "In den Marken" }, "geometry": { "type": "Point", "coordinates": [ 8.461493011491964, 51.810279605191177 ] } },
{ "type": "Feature", "properties": { "strassenschluessel": "05754000003202212", "bezeichnung": "In der Heide" }, "geometry": { "type": "Point", "coordinates": [ 8.373494171887851, 51.801139245341204 ] } },
{ "type": "Feature", "properties": { "strassenschluessel": "05754000003202213", "bezeichnung": "In der Feldmark" }, "geometry": { "type": "Point", "coordinates": [ 8.410276190755972, 51.791909666391042 ] } },
{ "type": "Feature", "properties": { "strassenschluessel": "05754000003202215", "bezeichnung": "In der Rieke" }, "geometry": { "type": "Point", "coordinates": [ 8.394349300324924, 51.760202718311014 ] } },
{ "type": "Feature", "properties": { "strassenschluessel": "05754000003202216", "bezeichnung": "In der Stroth" }, "geometry": { "type": "Point", "coordinates": [ 8.460464274844398, 51.850858411385936 ] } },
{ "type": "Feature", "properties": { "strassenschluessel": "05754000003202220", "bezeichnung": "Industriestraße" }, "geometry": { "type": "Point", "coordinates": [ 8.423377292071615, 51.793871978839775 ] } },
{ "type": "Feature", "properties": { "strassenschluessel": "05754000003202230", "bezeichnung": "Inselweg" }, "geometry": { "type": "Point", "coordinates": [ 8.397472448001206, 51.817354831175642 ] } },
{ "type": "Feature", "properties": { "strassenschluessel": "05754000003202240", "bezeichnung": "Insterburger Straße" }, "geometry": { "type": "Point", "coordinates": [ 8.443368268446131, 51.814974437503039 ] } },
{ "type": "Feature", "properties": { "strassenschluessel": "05754000003202245", "bezeichnung": "Jahnstraße" }, "geometry": { "type": "Point", "coordinates": [ 8.391118165040591, 51.754193350696958 ] } },
{ "type": "Feature", "properties": { "strassenschluessel": "05754000003202250", "bezeichnung": "Jakobistraße" }, "geometry": { "type": "Point", "coordinates": [ 8.392539284946769, 51.757128419128243 ] } },
{ "type": "Feature", "properties": { "strassenschluessel": "05754000003202255", "bezeichnung": "Jerusalemer Straße" }, "geometry": { "type": "Point", "coordinates": [ 8.414034996138783, 51.810582214743967 ] } },
{ "type": "Feature", "properties": { "strassenschluessel": "05754000003202260", "bezeichnung": "Johannesweg" }, "geometry": { "type": "Point", "coordinates": [ 8.422055612898768, 51.801338987395617 ] } },
{ "type": "Feature", "properties": { "strassenschluessel": "05754000003202261", "bezeichnung": "Johann-Füchting-Straße" }, "geometry": { "type": "Point", "coordinates": [ 8.423067654787072, 51.809928740614389 ] } },
{ "type": "Feature", "properties": { "strassenschluessel": "05754000003202262", "bezeichnung": "Johann-von-Binder-Straße" }, "geometry": { "type": "Point", "coordinates": [ 8.427410070495784, 51.801063080803154 ] } },
{ "type": "Feature", "properties": { "strassenschluessel": "05754000003202265", "bezeichnung": "Jordanweg" }, "geometry": null },
{ "type": "Feature", "properties": { "strassenschluessel": "05754000003202270", "bezeichnung": "Jüddeldamm" }, "geometry": { "type": "Point", "coordinates": [ 8.428629504101101, 51.80350973686955 ] } },
{ "type": "Feature", "properties": { "strassenschluessel": "05754000003202271", "bezeichnung": "Junkernweg" }, "geometry": { "type": "Point", "coordinates": [ 8.387224777375769, 51.821979582893412 ] } },
{ "type": "Feature", "properties": { "strassenschluessel": "05754000003202280", "bezeichnung": "Kalefeldstraße" }, "geometry": { "type": "Point", "coordinates": [ 8.395960926242502, 51.753193571703854 ] } },
{ "type": "Feature", "properties": { "strassenschluessel": "05754000003202290", "bezeichnung": "Kalverdamm" }, "geometry": { "type": "Point", "coordinates": [ 8.394685797732517, 51.728277851975626 ] } },
{ "type": "Feature", "properties": { "strassenschluessel": "05754000003202300", "bezeichnung": "Kampstraße" }, "geometry": { "type": "Point", "coordinates": [ 8.432137862935271, 51.817342925658458 ] } },
{ "type": "Feature", "properties": { "strassenschluessel": "05754000003202305", "bezeichnung": "Karl-Schiller-Straße" }, "geometry": { "type": "Point", "coordinates": [ 8.418735159477116, 51.793102487004035 ] } },
{ "type": "Feature", "properties": { "strassenschluessel": "05754000003202310", "bezeichnung": "Kastanienweg" }, "geometry": { "type": "Point", "coordinates": [ 8.454543619818066, 51.831047508880005 ] } },
{ "type": "Feature", "properties": { "strassenschluessel": "05754000003202320", "bezeichnung": "Katthagenstraße" }, "geometry": { "type": "Point", "coordinates": [ 8.383661033094997, 51.754931410686716 ] } },
{ "type": "Feature", "properties": { "strassenschluessel": "05754000003202330", "bezeichnung": "Kaunitzer Straße" }, "geometry": { "type": "Point", "coordinates": [ 8.518670135799132, 51.824738420729908 ] } },
{ "type": "Feature", "properties": { "strassenschluessel": "05754000003202340", "bezeichnung": "Kiefernweg" }, "geometry": { "type": "Point", "coordinates": [ 8.366678702550702, 51.745289948292594 ] } },
{ "type": "Feature", "properties": { "strassenschluessel": "05754000003202342", "bezeichnung": "Kilian-Kirchhoff-Straße" }, "geometry": { "type": "Point", "coordinates": [ 8.413920738395507, 51.80666887398732 ] } },
{ "type": "Feature", "properties": { "strassenschluessel": "05754000003202350", "bezeichnung": "Kirchstraße" }, "geometry": { "type": "Point", "coordinates": [ 8.378154461758141, 51.801804762561126 ] } },
{ "type": "Feature", "properties": { "strassenschluessel": "05754000003202355", "bezeichnung": "Kleekamp" }, "geometry": { "type": "Point", "coordinates": [ 8.403286880765796, 51.756088554032416 ] } },
{ "type": "Feature", "properties": { "strassenschluessel": "05754000003202360", "bezeichnung": "Klingenhagen" }, "geometry": { "type": "Point", "coordinates": [ 8.428458205256534, 51.806927429513301 ] } },
{ "type": "Feature", "properties": { "strassenschluessel": "05754000003202370", "bezeichnung": "Klosterstraße" }, "geometry": { "type": "Point", "coordinates": [ 8.429497248542058, 51.808037836533451 ] } },
{ "type": "Feature", "properties": { "strassenschluessel": "05754000003202380", "bezeichnung": "Kochstraße" }, "geometry": { "type": "Point", "coordinates": [ 8.438338569086673, 51.814414882802019 ] } },
{ "type": "Feature", "properties": { "strassenschluessel": "05754000003202382", "bezeichnung": "Kockortweg" }, "geometry": { "type": "Point", "coordinates": [ 8.394923362835057, 51.754437453815093 ] } },
{ "type": "Feature", "properties": { "strassenschluessel": "05754000003202385", "bezeichnung": "Königsberger Straße" }, "geometry": { "type": "Point", "coordinates": [ 8.440307393891704, 51.813051155783526 ] } },
{ "type": "Feature", "properties": { "strassenschluessel": "05754000003202390", "bezeichnung": "Kolpingstraße" }, "geometry": { "type": "Point", "coordinates": [ 8.436536771554916, 51.835132178616362 ] } },
{ "type": "Feature", "properties": { "strassenschluessel": "05754000003202400", "bezeichnung": "Konrad-Adenauer-Straße" }, "geometry": { "type": "Point", "coordinates": [ 8.435325500593427, 51.821990952861356 ] } },
{ "type": "Feature", "properties": { "strassenschluessel": "05754000003202405", "bezeichnung": "Korbheide" }, "geometry": { "type": "Point", "coordinates": [ 8.373813631825595, 51.801309005009294 ] } },
{ "type": "Feature", "properties": { "strassenschluessel": "05754000003202406", "bezeichnung": "Kornweg" }, "geometry": { "type": "Point", "coordinates": [ 8.484836586099416, 51.811884079100288 ] } },
{ "type": "Feature", "properties": { "strassenschluessel": "05754000003202410", "bezeichnung": "Krengelstraße" }, "geometry": { "type": "Point", "coordinates": [ 8.42361471290036, 51.807341408158358 ] } },
{ "type": "Feature", "properties": { "strassenschluessel": "05754000003202420", "bezeichnung": "Kreutzbreede" }, "geometry": { "type": "Point", "coordinates": [ 8.400729682133324, 51.828887229696065 ] } },
{ "type": "Feature", "properties": { "strassenschluessel": "05754000003202430", "bezeichnung": "Krögerstraße" }, "geometry": { "type": "Point", "coordinates": [ 8.366713208660252, 51.79816856206407 ] } },
{ "type": "Feature", "properties": { "strassenschluessel": "05754000003202440", "bezeichnung": "Kronenstraße" }, "geometry": { "type": "Point", "coordinates": [ 8.486638082952286, 51.816523174438252 ] } },
{ "type": "Feature", "properties": { "strassenschluessel": "05754000003202441", "bezeichnung": "Krokusweg" }, "geometry": { "type": "Point", "coordinates": [ 8.426371074528193, 51.812998786777037 ] } },
{ "type": "Feature", "properties": { "strassenschluessel": "05754000003202450", "bezeichnung": "Krumme Straße" }, "geometry": { "type": "Point", "coordinates": [ 8.423519947515391, 51.807979842766571 ] } },
{ "type": "Feature", "properties": { "strassenschluessel": "05754000003202460", "bezeichnung": "Kühler Grund" }, "geometry": { "type": "Point", "coordinates": [ 8.478072405357477, 51.808047770897858 ] } },
{ "type": "Feature", "properties": { "strassenschluessel": "05754000003202465", "bezeichnung": "Kupferstraße" }, "geometry": { "type": "Point", "coordinates": [ 8.483328425019447, 51.817892311170816 ] } },
{ "type": "Feature", "properties": { "strassenschluessel": "05754000003202470", "bezeichnung": "Langenberger Straße" }, "geometry": { "type": "Point", "coordinates": [ 8.357384368577094, 51.776986671917314 ] } },
{ "type": "Feature", "properties": { "strassenschluessel": "05754000003202480", "bezeichnung": "Langer Schemm" }, "geometry": { "type": "Point", "coordinates": [ 8.452200839975314, 51.841941331688993 ] } },
{ "type": "Feature", "properties": { "strassenschluessel": "05754000003202490", "bezeichnung": "Lange Straße" }, "geometry": { "type": "Point", "coordinates": [ 8.444564107761648, 51.830873642611486 ] } },
{ "type": "Feature", "properties": { "strassenschluessel": "05754000003202500", "bezeichnung": "Lannertstraße" }, "geometry": { "type": "Point", "coordinates": [ 8.382588819263788, 51.802188647242282 ] } },
{ "type": "Feature", "properties": { "strassenschluessel": "05754000003202505", "bezeichnung": "Laumoor" }, "geometry": { "type": "Point", "coordinates": [ 8.363926560604003, 51.761238994925534 ] } },
{ "type": "Feature", "properties": { "strassenschluessel": "05754000003202510", "bezeichnung": "Laurentiusstraße" }, "geometry": { "type": "Point", "coordinates": [ 8.492128740170317, 51.813917527058834 ] } },
{ "type": "Feature", "properties": { "strassenschluessel": "05754000003202520", "bezeichnung": "Lerchenweg" }, "geometry": { "type": "Point", "coordinates": [ 8.440080388957192, 51.826740112734882 ] } },
{ "type": "Feature", "properties": { "strassenschluessel": "05754000003202521", "bezeichnung": "Lilienweg" }, "geometry": { "type": "Point", "coordinates": [ 8.422877728356227, 51.814207405634939 ] } },
{ "type": "Feature", "properties": { "strassenschluessel": "05754000003202522", "bezeichnung": "Lessingstraße" }, "geometry": { "type": "Point", "coordinates": [ 8.435163947864506, 51.826097381407394 ] } },
{ "type": "Feature", "properties": { "strassenschluessel": "05754000003202525", "bezeichnung": "Lindenweg" }, "geometry": { "type": "Point", "coordinates": [ 8.447162178123119, 51.829198472926599 ] } },
{ "type": "Feature", "properties": { "strassenschluessel": "05754000003202540", "bezeichnung": "Lipplinger Straße" }, "geometry": { "type": "Point", "coordinates": [ 8.495779770532526, 51.814796413392415 ] } },
{ "type": "Feature", "properties": { "strassenschluessel": "05754000003202550", "bezeichnung": "Lippstädter Straße" }, "geometry": { "type": "Point", "coordinates": [ 8.382977956335797, 51.751254797914903 ] } },
{ "type": "Feature", "properties": { "strassenschluessel": "05754000003202560", "bezeichnung": "Löfkenfeld" }, "geometry": { "type": "Point", "coordinates": [ 8.385963262881312, 51.768313244168951 ] } },
{ "type": "Feature", "properties": { "strassenschluessel": "05754000003202565", "bezeichnung": "Lönsweg" }, "geometry": { "type": "Point", "coordinates": [ 8.394209463835846, 51.738389460394757 ] } },
{ "type": "Feature", "properties": { "strassenschluessel": "05754000003202566", "bezeichnung": "Maidiek" }, "geometry": { "type": "Point", "coordinates": [ 8.391699071984943, 51.732223415344599 ] } },
{ "type": "Feature", "properties": { "strassenschluessel": "05754000003202567", "bezeichnung": "Malvenweg" }, "geometry": { "type": "Point", "coordinates": [ 8.433325115475883, 51.858500975033216 ] } },
{ "type": "Feature", "properties": { "strassenschluessel": "05754000003202568", "bezeichnung": "Maisweg" }, "geometry": { "type": "Point", "coordinates": [ 8.382150221574049, 51.803750439750758 ] } },
{ "type": "Feature", "properties": { "strassenschluessel": "05754000003202570", "bezeichnung": "Lucestraße" }, "geometry": { "type": "Point", "coordinates": [ 8.430016994825182, 51.814768352264025 ] } },
{ "type": "Feature", "properties": { "strassenschluessel": "05754000003202572", "bezeichnung": "Ludwig-Erhard-Straße" }, "geometry": { "type": "Point", "coordinates": [ 8.421068757869369, 51.791229027843016 ] } },
{ "type": "Feature", "properties": { "strassenschluessel": "05754000003202573", "bezeichnung": "Lupinenweg" }, "geometry": { "type": "Point", "coordinates": [ 8.497306525394981, 51.812554443380968 ] } },
{ "type": "Feature", "properties": { "strassenschluessel": "05754000003202574", "bezeichnung": "Luzerneweg" }, "geometry": { "type": "Point", "coordinates": [ 8.499570330617823, 51.812633906811008 ] } },
{ "type": "Feature", "properties": { "strassenschluessel": "05754000003202580", "bezeichnung": "Margaretenstraße" }, "geometry": { "type": "Point", "coordinates": [ 8.439230529893234, 51.834691152192114 ] } },
{ "type": "Feature", "properties": { "strassenschluessel": "05754000003202585", "bezeichnung": "Marienweg" }, "geometry": { "type": "Point", "coordinates": [ 8.439752045861145, 51.831823852059117 ] } },
{ "type": "Feature", "properties": { "strassenschluessel": "05754000003202590", "bezeichnung": "Markenstraße" }, "geometry": { "type": "Point", "coordinates": [ 8.444715778059964, 51.825827314150139 ] } },
{ "type": "Feature", "properties": { "strassenschluessel": "05754000003202600", "bezeichnung": "Mastholter Straße" }, "geometry": { "type": "Point", "coordinates": [ 8.422874206333885, 51.804282268155852 ] } },
{ "type": "Feature", "properties": { "strassenschluessel": "05754000003202602", "bezeichnung": "Maximilian-Ulrich-Straße" }, "geometry": { "type": "Point", "coordinates": [ 8.427791423535782, 51.802622583735996 ] } },
{ "type": "Feature", "properties": { "strassenschluessel": "05754000003202605", "bezeichnung": "Meisenweg" }, "geometry": { "type": "Point", "coordinates": [ 8.438344884915173, 51.824808458151203 ] } },
{ "type": "Feature", "properties": { "strassenschluessel": "05754000003202610", "bezeichnung": "Merschhemkeweg" }, "geometry": { "type": "Point", "coordinates": [ 8.427850521246475, 51.7751519877405 ] } },
{ "type": "Feature", "properties": { "strassenschluessel": "05754000003202620", "bezeichnung": "Merschweg" }, "geometry": { "type": "Point", "coordinates": [ 8.401017101677589, 51.825136607634285 ] } },
{ "type": "Feature", "properties": { "strassenschluessel": "05754000003202625", "bezeichnung": "Milanweg" }, "geometry": { "type": "Point", "coordinates": [ 8.445007559979853, 51.839843012865607 ] } },
{ "type": "Feature", "properties": { "strassenschluessel": "05754000003202628", "bezeichnung": "Moolsfeld" }, "geometry": { "type": "Point", "coordinates": [ 8.399038088558632, 51.750875288846146 ] } },
{ "type": "Feature", "properties": { "strassenschluessel": "05754000003202629", "bezeichnung": "Moorweg" }, "geometry": { "type": "Point", "coordinates": [ 8.442042079216186, 51.858334958009813 ] } },
{ "type": "Feature", "properties": { "strassenschluessel": "05754000003202630", "bezeichnung": "Mozartstraße" }, "geometry": { "type": "Point", "coordinates": [ 8.447781825989967, 51.832743467933803 ] } },
{ "type": "Feature", "properties": { "strassenschluessel": "05754000003202635", "bezeichnung": "Paulusweg" }, "geometry": { "type": "Point", "coordinates": [ 8.423732500493079, 51.804019199978846 ] } },
{ "type": "Feature", "properties": { "strassenschluessel": "05754000003202640", "bezeichnung": "Mühlenstraße" }, "geometry": { "type": "Point", "coordinates": [ 8.425647283318273, 51.809259049542412 ] } },
{ "type": "Feature", "properties": { "strassenschluessel": "05754000003202641", "bezeichnung": "Mühlenheide" }, "geometry": { "type": "Point", "coordinates": [ 8.433275134832865, 51.857392558945357 ] } },
{ "type": "Feature", "properties": { "strassenschluessel": "05754000003202650", "bezeichnung": "Münchstraße" }, "geometry": { "type": "Point", "coordinates": [ 8.41796358122494, 51.809498870791145 ] } },
{ "type": "Feature", "properties": { "strassenschluessel": "05754000003202660", "bezeichnung": "Müntestraße" }, "geometry": { "type": "Point", "coordinates": [ 8.426701502369717, 51.808142000178293 ] } },
{ "type": "Feature", "properties": { "strassenschluessel": "05754000003202670", "bezeichnung": "Nachtigallenweg" }, "geometry": { "type": "Point", "coordinates": [ 8.437552074759232, 51.824432644268455 ] } },
{ "type": "Feature", "properties": { "strassenschluessel": "05754000003202675", "bezeichnung": "Niggenkamp" }, "geometry": { "type": "Point", "coordinates": [ 8.401197960281991, 51.761061250179196 ] } },
{ "type": "Feature", "properties": { "strassenschluessel": "05754000003202680", "bezeichnung": "Nelkenweg" }, "geometry": { "type": "Point", "coordinates": [ 8.424609450870419, 51.815994766459077 ] } },
{ "type": "Feature", "properties": { "strassenschluessel": "05754000003202688", "bezeichnung": "Nikolaus-Groß-Straße" }, "geometry": { "type": "Point", "coordinates": [ 8.412199493443145, 51.807824458094444 ] } },
{ "type": "Feature", "properties": { "strassenschluessel": "05754000003202690", "bezeichnung": "Neuenkirchener Straße" }, "geometry": { "type": "Point", "coordinates": [ 8.443336358493784, 51.82995194678449 ] } },
{ "type": "Feature", "properties": { "strassenschluessel": "05754000003202692", "bezeichnung": "Nolteweg" }, "geometry": { "type": "Point", "coordinates": [ 8.387887632859872, 51.744938896037155 ] } },
{ "type": "Feature", "properties": { "strassenschluessel": "05754000003202700", "bezeichnung": "Nordholtstraße" }, "geometry": { "type": "Point", "coordinates": [ 8.388529145318259, 51.745789195644385 ] } },
{ "type": "Feature", "properties": { "strassenschluessel": "05754000003202710", "bezeichnung": "Nordring" }, "geometry": { "type": "Point", "coordinates": [ 8.403193453802022, 51.830782020823122 ] } },
{ "type": "Feature", "properties": { "strassenschluessel": "05754000003202718", "bezeichnung": "Ockerstraße" }, "geometry": { "type": "Point", "coordinates": [ 8.39849928488179, 51.749408103080654 ] } },
{ "type": "Feature", "properties": { "strassenschluessel": "05754000003202720", "bezeichnung": "Oesternforth" }, "geometry": { "type": "Point", "coordinates": [ 8.43803866100207, 51.813301849998275 ] } },
{ "type": "Feature", "properties": { "strassenschluessel": "05754000003202721", "bezeichnung": "Oesternforth-West" }, "geometry": { "type": "Point", "coordinates": [ 8.436073100926608, 51.813764244248681 ] } },
{ "type": "Feature", "properties": { "strassenschluessel": "05754000003202730", "bezeichnung": "Ostfeldstraße" }, "geometry": { "type": "Point", "coordinates": [ 8.395878201371037, 51.823425615815736 ] } },
{ "type": "Feature", "properties": { "strassenschluessel": "05754000003202740", "bezeichnung": "Oststraße" }, "geometry": { "type": "Point", "coordinates": [ 8.445828165680247, 51.832946402768108 ] } },
{ "type": "Feature", "properties": { "strassenschluessel": "05754000003202745", "bezeichnung": "Ottenskamp" }, "geometry": { "type": "Point", "coordinates": [ 8.403072156937334, 51.759856038779134 ] } },
{ "type": "Feature", "properties": { "strassenschluessel": "05754000003202750", "bezeichnung": "Pappelweg" }, "geometry": { "type": "Point", "coordinates": [ 8.451553979779009, 51.830080922965706 ] } },
{ "type": "Feature", "properties": { "strassenschluessel": "05754000003202755", "bezeichnung": "Parkallee" }, "geometry": { "type": "Point", "coordinates": [ 8.447342930104941, 51.826787094749925 ] } },
{ "type": "Feature", "properties": { "strassenschluessel": "05754000003202760", "bezeichnung": "Pater-Sanders-Straße" }, "geometry": { "type": "Point", "coordinates": [ 8.416520009226016, 51.807651994677094 ] } },
{ "type": "Feature", "properties": { "strassenschluessel": "05754000003202770", "bezeichnung": "Pater-Walther-Straße" }, "geometry": { "type": "Point", "coordinates": [ 8.420088345187212, 51.809313742685923 ] } },
{ "type": "Feature", "properties": { "strassenschluessel": "05754000003202771", "bezeichnung": "Perlbruch" }, "geometry": null },
{ "type": "Feature", "properties": { "strassenschluessel": "05754000003202780", "bezeichnung": "Pfauenweg" }, "geometry": { "type": "Point", "coordinates": [ 8.418862335493188, 51.831227380738397 ] } },
{ "type": "Feature", "properties": { "strassenschluessel": "05754000003202790", "bezeichnung": "Pickhüttenweg" }, "geometry": { "type": "Point", "coordinates": [ 8.417325478347735, 51.808699391017811 ] } },
{ "type": "Feature", "properties": { "strassenschluessel": "05754000003202800", "bezeichnung": "Pieperstraße" }, "geometry": { "type": "Point", "coordinates": [ 8.37607445915531, 51.73884836197508 ] } },
{ "type": "Feature", "properties": { "strassenschluessel": "05754000003202801", "bezeichnung": "Piepers Busch" }, "geometry": { "type": "Point", "coordinates": [ 8.375374915990893, 51.739695267505979 ] } },
{ "type": "Feature", "properties": { "strassenschluessel": "05754000003202802", "bezeichnung": "Piepers Feld" }, "geometry": { "type": "Point", "coordinates": [ 8.377811616269843, 51.739682611665138 ] } },
{ "type": "Feature", "properties": { "strassenschluessel": "05754000003202803", "bezeichnung": "Piepers Kamp" }, "geometry": { "type": "Point", "coordinates": [ 8.374903845190138, 51.73854080106755 ] } },
{ "type": "Feature", "properties": { "strassenschluessel": "05754000003202810", "bezeichnung": "Plassmeiersweg" }, "geometry": { "type": "Point", "coordinates": [ 8.373037520781573, 51.7564082794756 ] } },
{ "type": "Feature", "properties": { "strassenschluessel": "05754000003202815", "bezeichnung": "Pochengasse" }, "geometry": null },
{ "type": "Feature", "properties": { "strassenschluessel": "05754000003202820", "bezeichnung": "Platzstraße" }, "geometry": { "type": "Point", "coordinates": [ 8.444343028084358, 51.829240629042893 ] } },
{ "type": "Feature", "properties": { "strassenschluessel": "05754000003202830", "bezeichnung": "Pochenstraße" }, "geometry": { "type": "Point", "coordinates": [ 8.426104601524582, 51.80905800556986 ] } },
{ "type": "Feature", "properties": { "strassenschluessel": "05754000003202840", "bezeichnung": "Poststraße" }, "geometry": { "type": "Point", "coordinates": [ 8.491113950993425, 51.818096273169466 ] } },
{ "type": "Feature", "properties": { "strassenschluessel": "05754000003202845", "bezeichnung": "Prälat-Buschmeier-Straße" }, "geometry": { "type": "Point", "coordinates": [ 8.439465044839711, 51.860957916148024 ] } },
{ "type": "Feature", "properties": { "strassenschluessel": "05754000003202850", "bezeichnung": "Pulverdamm" }, "geometry": { "type": "Point", "coordinates": [ 8.42101603127762, 51.807969267965497 ] } },
{ "type": "Feature", "properties": { "strassenschluessel": "05754000003202858", "bezeichnung": "Rapsweg" }, "geometry": { "type": "Point", "coordinates": [ 8.498053962137289, 51.812194691961139 ] } },
{ "type": "Feature", "properties": { "strassenschluessel": "05754000003202860", "bezeichnung": "Rathausstraße" }, "geometry": { "type": "Point", "coordinates": [ 8.427712910540087, 51.809584698491946 ] } },
{ "type": "Feature", "properties": { "strassenschluessel": "05754000003202863", "bezeichnung": "Rebhuhnweg" }, "geometry": { "type": "Point", "coordinates": [ 8.485654362999352, 51.814153141246678 ] } },
{ "type": "Feature", "properties": { "strassenschluessel": "05754000003202865", "bezeichnung": "Reichenberger Straße" }, "geometry": { "type": "Point", "coordinates": [ 8.442644041396504, 51.81312208142689 ] } },
{ "type": "Feature", "properties": { "strassenschluessel": "05754000003202870", "bezeichnung": "Riekstraße" }, "geometry": { "type": "Point", "coordinates": [ 8.394149373106544, 51.759358452385484 ] } },
{ "type": "Feature", "properties": { "strassenschluessel": "05754000003202880", "bezeichnung": "Rietberger Straße" }, "geometry": { "type": "Point", "coordinates": [ 8.413376864694163, 51.780486069406898 ] } },
{ "type": "Feature", "properties": { "strassenschluessel": "05754000003202890", "bezeichnung": "Ringstraße" }, "geometry": { "type": "Point", "coordinates": [ 8.441040696991015, 51.832833458887137 ] } },
{ "type": "Feature", "properties": { "strassenschluessel": "05754000003202900", "bezeichnung": "Rinnerforth" }, "geometry": { "type": "Point", "coordinates": [ 8.42753330736822, 51.814189447033371 ] } },
{ "type": "Feature", "properties": { "strassenschluessel": "05754000003202910", "bezeichnung": "Rochusweg" }, "geometry": { "type": "Point", "coordinates": [ 8.401192687264484, 51.802517713004896 ] } },
{ "type": "Feature", "properties": { "strassenschluessel": "05754000003202915", "bezeichnung": "Roggenweg" }, "geometry": { "type": "Point", "coordinates": [ 8.382103935034806, 51.80399700999422 ] } },
{ "type": "Feature", "properties": { "strassenschluessel": "05754000003202920", "bezeichnung": "Rosenstraße" }, "geometry": { "type": "Point", "coordinates": [ 8.433805639623516, 51.858727980634789 ] } },
{ "type": "Feature", "properties": { "strassenschluessel": "05754000003202929", "bezeichnung": "Robinienweg" }, "geometry": { "type": "Point", "coordinates": [ 8.378754261584403, 51.736720381598559 ] } },
{ "type": "Feature", "properties": { "strassenschluessel": "05754000003202930", "bezeichnung": "Rotdornweg" }, "geometry": { "type": "Point", "coordinates": [ 8.373504444499332, 51.733908712401337 ] } },
{ "type": "Feature", "properties": { "strassenschluessel": "05754000003202935", "bezeichnung": "Rottwiese" }, "geometry": { "type": "Point", "coordinates": [ 8.408977658007402, 51.812268007837879 ] } },
{ "type": "Feature", "properties": { "strassenschluessel": "05754000003202937", "bezeichnung": "Rudolf-Bracht-Weg" }, "geometry": { "type": "Point", "coordinates": [ 8.385130132000787, 51.755104358619171 ] } },
{ "type": "Feature", "properties": { "strassenschluessel": "05754000003202940", "bezeichnung": "Rügenstraße" }, "geometry": { "type": "Point", "coordinates": [ 8.429396421723547, 51.80735355453205 ] } },
{ "type": "Feature", "properties": { "strassenschluessel": "05754000003202950", "bezeichnung": "Rüschfeld" }, "geometry": { "type": "Point", "coordinates": [ 8.474878321805742, 51.842074404545301 ] } },
{ "type": "Feature", "properties": { "strassenschluessel": "05754000003202960", "bezeichnung": "Sachsenstraße" }, "geometry": { "type": "Point", "coordinates": [ 8.432878843026836, 51.811137193525525 ] } },
{ "type": "Feature", "properties": { "strassenschluessel": "05754000003202971", "bezeichnung": "Sandfeldstraße" }, "geometry": { "type": "Point", "coordinates": [ 8.430104008768234, 51.821916405385537 ] } },
{ "type": "Feature", "properties": { "strassenschluessel": "05754000003202975", "bezeichnung": "Seeweg" }, "geometry": { "type": "Point", "coordinates": [ 8.406328786643204, 51.753235837660185 ] } },
{ "type": "Feature", "properties": { "strassenschluessel": "05754000003202980", "bezeichnung": "Selhorststraße" }, "geometry": { "type": "Point", "coordinates": [ 8.340472031875269, 51.797459377375986 ] } },
{ "type": "Feature", "properties": { "strassenschluessel": "05754000003202981", "bezeichnung": "Sennebachweg" }, "geometry": { "type": "Point", "coordinates": [ 8.416184992495962, 51.814609382488264 ] } },
{ "type": "Feature", "properties": { "strassenschluessel": "05754000003202990", "bezeichnung": "Sennstraße" }, "geometry": { "type": "Point", "coordinates": [ 8.425427266324785, 51.806988034175028 ] } },
{ "type": "Feature", "properties": { "strassenschluessel": "05754000003202991", "bezeichnung": "Seppelerstraße" }, "geometry": { "type": "Point", "coordinates": [ 8.42260436403456, 51.812592125070452 ] } },
{ "type": "Feature", "properties": { "strassenschluessel": "05754000003202995", "bezeichnung": "Siemensstraße" }, "geometry": { "type": "Point", "coordinates": [ 8.38484142800856, 51.770336107401718 ] } },
{ "type": "Feature", "properties": { "strassenschluessel": "05754000003203000", "bezeichnung": "Sinnernweg" }, "geometry": { "type": "Point", "coordinates": [ 8.457951250676718, 51.847207915166464 ] } },
{ "type": "Feature", "properties": { "strassenschluessel": "05754000003203001", "bezeichnung": "Sinnescheweg" }, "geometry": { "type": "Point", "coordinates": [ 8.4095590232072, 51.783787268146824 ] } },
{ "type": "Feature", "properties": { "strassenschluessel": "05754000003203006", "bezeichnung": "Sonnenweg" }, "geometry": { "type": "Point", "coordinates": [ 8.43280981390547, 51.837904082062622 ] } },
{ "type": "Feature", "properties": { "strassenschluessel": "05754000003203007", "bezeichnung": "Sophie-Scholl-Straße" }, "geometry": { "type": "Point", "coordinates": [ 8.413679533453532, 51.806192504885509 ] } },
{ "type": "Feature", "properties": { "strassenschluessel": "05754000003203009", "bezeichnung": "Speckenbusch" }, "geometry": { "type": "Point", "coordinates": [ 8.361378622282654, 51.779415846982893 ] } },
{ "type": "Feature", "properties": { "strassenschluessel": "05754000003203010", "bezeichnung": "Speckenstraße" }, "geometry": { "type": "Point", "coordinates": [ 8.379779619753608, 51.736448904386975 ] } },
{ "type": "Feature", "properties": { "strassenschluessel": "05754000003203015", "bezeichnung": "Sperberweg" }, "geometry": { "type": "Point", "coordinates": [ 8.445472208825295, 51.840380879084314 ] } },
{ "type": "Feature", "properties": { "strassenschluessel": "05754000003203020", "bezeichnung": "Spexardweg" }, "geometry": { "type": "Point", "coordinates": [ 8.442710165437425, 51.870073617027039 ] } },
{ "type": "Feature", "properties": { "strassenschluessel": "05754000003203030", "bezeichnung": "Sudeschweg" }, "geometry": { "type": "Point", "coordinates": [ 8.371892645979111, 51.795608384816852 ] } },
{ "type": "Feature", "properties": { "strassenschluessel": "05754000003203040", "bezeichnung": "Südstraße" }, "geometry": { "type": "Point", "coordinates": [ 8.38139401342397, 51.718049961802279 ] } },
{ "type": "Feature", "properties": { "strassenschluessel": "05754000003203050", "bezeichnung": "Sunderweg" }, "geometry": { "type": "Point", "coordinates": [ 8.364319072243392, 51.736778889909189 ] } },
{ "type": "Feature", "properties": { "strassenschluessel": "05754000003203060", "bezeichnung": "Schalkstraße" }, "geometry": { "type": "Point", "coordinates": [ 8.418140713070279, 51.8100602956657 ] } },
{ "type": "Feature", "properties": { "strassenschluessel": "05754000003203070", "bezeichnung": "Schellertstraße" }, "geometry": { "type": "Point", "coordinates": [ 8.452115885139152, 51.824762748048812 ] } },
{ "type": "Feature", "properties": { "strassenschluessel": "05754000003203080", "bezeichnung": "Schillerstraße" }, "geometry": { "type": "Point", "coordinates": [ 8.399339644520607, 51.740840009708741 ] } },
{ "type": "Feature", "properties": { "strassenschluessel": "05754000003203081", "bezeichnung": "Schillingsweg" }, "geometry": { "type": "Point", "coordinates": [ 8.47963840075643, 51.854742231769215 ] } },
{ "type": "Feature", "properties": { "strassenschluessel": "05754000003203090", "bezeichnung": "Schlingfeld" }, "geometry": { "type": "Point", "coordinates": [ 8.466214912354376, 51.829042816807529 ] } },
{ "type": "Feature", "properties": { "strassenschluessel": "05754000003203100", "bezeichnung": "Schloßstraße" }, "geometry": { "type": "Point", "coordinates": [ 8.433815434237975, 51.798925611757404 ] } },
{ "type": "Feature", "properties": { "strassenschluessel": "05754000003203110", "bezeichnung": "Schnellweg" }, "geometry": { "type": "Point", "coordinates": [ 8.427124733296301, 51.827635902562299 ] } },
{ "type": "Feature", "properties": { "strassenschluessel": "05754000003203120", "bezeichnung": "Schürckmannstraße" }, "geometry": { "type": "Point", "coordinates": [ 8.419233146573934, 51.808900981953641 ] } },
{ "type": "Feature", "properties": { "strassenschluessel": "05754000003203125", "bezeichnung": "Schützenweg" }, "geometry": null },
{ "type": "Feature", "properties": { "strassenschluessel": "05754000003203130", "bezeichnung": "Schulstraße" }, "geometry": { "type": "Point", "coordinates": [ 8.441841971791966, 51.857100018872146 ] } },
{ "type": "Feature", "properties": { "strassenschluessel": "05754000003203135", "bezeichnung": "Starenweg" }, "geometry": { "type": "Point", "coordinates": [ 8.444003842318567, 51.826397381604693 ] } },
{ "type": "Feature", "properties": { "strassenschluessel": "05754000003203136", "bezeichnung": "Steinbreede" }, "geometry": { "type": "Point", "coordinates": [ 8.409721235878639, 51.818577118320697 ] } },
{ "type": "Feature", "properties": { "strassenschluessel": "05754000003203140", "bezeichnung": "Steinstraße" }, "geometry": { "type": "Point", "coordinates": [ 8.48446223333991, 51.817703838335916 ] } },
{ "type": "Feature", "properties": { "strassenschluessel": "05754000003203150", "bezeichnung": "Stennerlandstraße" }, "geometry": { "type": "Point", "coordinates": [ 8.441059309628217, 51.818643498233762 ] } },
{ "type": "Feature", "properties": { "strassenschluessel": "05754000003203151", "bezeichnung": "Stettiner Straße" }, "geometry": { "type": "Point", "coordinates": [ 8.440373518025199, 51.81282478062888 ] } },
{ "type": "Feature", "properties": { "strassenschluessel": "05754000003203161", "bezeichnung": "Stienhöferstraße" }, "geometry": { "type": "Point", "coordinates": [ 8.483984214010434, 51.824064125458676 ] } },
{ "type": "Feature", "properties": { "strassenschluessel": "05754000003203170", "bezeichnung": "Stukemeyerstraße" }, "geometry": { "type": "Point", "coordinates": [ 8.393341579473176, 51.754903500927647 ] } },
{ "type": "Feature", "properties": { "strassenschluessel": "05754000003203171", "bezeichnung": "Stukenfeld" }, "geometry": { "type": "Point", "coordinates": [ 8.399924415240504, 51.752252416678189 ] } },
{ "type": "Feature", "properties": { "strassenschluessel": "05754000003203180", "bezeichnung": "Tannenweg" }, "geometry": { "type": "Point", "coordinates": [ 8.371893409388626, 51.733721137553623 ] } },
{ "type": "Feature", "properties": { "strassenschluessel": "05754000003203190", "bezeichnung": "Tegelheide" }, "geometry": { "type": "Point", "coordinates": [ 8.522245107701581, 51.827293712914631 ] } },
{ "type": "Feature", "properties": { "strassenschluessel": "05754000003203200", "bezeichnung": "Teichweg" }, "geometry": { "type": "Point", "coordinates": [ 8.430663503692706, 51.810804113442124 ] } },
{ "type": "Feature", "properties": { "strassenschluessel": "05754000003203210", "bezeichnung": "Theresienstraße" }, "geometry": { "type": "Point", "coordinates": [ 8.43565488112997, 51.783785514441973 ] } },
{ "type": "Feature", "properties": { "strassenschluessel": "05754000003203220", "bezeichnung": "Tiergartenweg" }, "geometry": { "type": "Point", "coordinates": [ 8.409996614491069, 51.801975905477491 ] } },
{ "type": "Feature", "properties": { "strassenschluessel": "05754000003203225", "bezeichnung": "Torfweg" }, "geometry": { "type": "Point", "coordinates": [ 8.434680698170144, 51.808299188459884 ] } },
{ "type": "Feature", "properties": { "strassenschluessel": "05754000003203232", "bezeichnung": "Triftstraße" }, "geometry": { "type": "Point", "coordinates": [ 8.394557456524501, 51.781163996191204 ] } },
{ "type": "Feature", "properties": { "strassenschluessel": "05754000003203235", "bezeichnung": "Trompetenweg" }, "geometry": { "type": "Point", "coordinates": [ 8.419935895418902, 51.816397080991962 ] } },
{ "type": "Feature", "properties": { "strassenschluessel": "05754000003203240", "bezeichnung": "Tulpenweg" }, "geometry": { "type": "Point", "coordinates": [ 8.42364724531183, 51.81752148809629 ] } },
{ "type": "Feature", "properties": { "strassenschluessel": "05754000003203241", "bezeichnung": "Undernhorstweg" }, "geometry": { "type": "Point", "coordinates": [ 8.374159231417842, 51.788663381041971 ] } },
{ "type": "Feature", "properties": { "strassenschluessel": "05754000003203242", "bezeichnung": "Ulmenweg" }, "geometry": { "type": "Point", "coordinates": [ 8.447647697650233, 51.828980763353229 ] } },
{ "type": "Feature", "properties": { "strassenschluessel": "05754000003203243", "bezeichnung": "Unter den Eichen" }, "geometry": { "type": "Point", "coordinates": [ 8.356743566252451, 51.77460638951554 ] } },
{ "type": "Feature", "properties": { "strassenschluessel": "05754000003203244", "bezeichnung": "Uhlandstraße" }, "geometry": { "type": "Point", "coordinates": [ 8.435378047385067, 51.826957638650725 ] } },
{ "type": "Feature", "properties": { "strassenschluessel": "05754000003203245", "bezeichnung": "Umgehungsstraße" }, "geometry": null },
{ "type": "Feature", "properties": { "strassenschluessel": "05754000003203251", "bezeichnung": "Varenseller Straße" }, "geometry": { "type": "Point", "coordinates": [ 8.444793884509538, 51.837526635393502 ] } },
{ "type": "Feature", "properties": { "strassenschluessel": "05754000003203260", "bezeichnung": "Vennstraße" }, "geometry": { "type": "Point", "coordinates": [ 8.398501557227421, 51.748952382598631 ] } },
{ "type": "Feature", "properties": { "strassenschluessel": "05754000003203262", "bezeichnung": "Vienstraße" }, "geometry": { "type": "Point", "coordinates": [ 8.444562245424166, 51.851007416800627 ] } },
{ "type": "Feature", "properties": { "strassenschluessel": "05754000003203270", "bezeichnung": "Von-Ketteler-Straße" }, "geometry": { "type": "Point", "coordinates": [ 8.438578224104681, 51.83400188637561 ] } },
{ "type": "Feature", "properties": { "strassenschluessel": "05754000003203271", "bezeichnung": "Voßkamp" }, "geometry": { "type": "Point", "coordinates": [ 8.400672575478968, 51.760120315832083 ] } },
{ "type": "Feature", "properties": { "strassenschluessel": "05754000003203272", "bezeichnung": "Vor der Schlepphorst" }, "geometry": { "type": "Point", "coordinates": [ 8.404818373640923, 51.758119690351947 ] } },
{ "type": "Feature", "properties": { "strassenschluessel": "05754000003203280", "bezeichnung": "Vossebeinweg" }, "geometry": { "type": "Point", "coordinates": [ 8.441700674699586, 51.861406627991215 ] } },
{ "type": "Feature", "properties": { "strassenschluessel": "05754000003203282", "bezeichnung": "Wachtelweg" }, "geometry": { "type": "Point", "coordinates": [ 8.487332169383436, 51.813964447191296 ] } },
{ "type": "Feature", "properties": { "strassenschluessel": "05754000003203285", "bezeichnung": "Waldenburger Straße" }, "geometry": { "type": "Point", "coordinates": [ 8.442315513754725, 51.812603971157365 ] } },
{ "type": "Feature", "properties": { "strassenschluessel": "05754000003203290", "bezeichnung": "Waldliesborner Straße" }, "geometry": { "type": "Point", "coordinates": [ 8.36545321514286, 51.727785662370231 ] } },
{ "type": "Feature", "properties": { "strassenschluessel": "05754000003203291", "bezeichnung": "Wallheide" }, "geometry": { "type": "Point", "coordinates": [ 8.397979586862926, 51.758451526661943 ] } },
{ "type": "Feature", "properties": { "strassenschluessel": "05754000003203301", "bezeichnung": "Wapelstraße" }, "geometry": { "type": "Point", "coordinates": [ 8.405442833672819, 51.844086390281888 ] } },
{ "type": "Feature", "properties": { "strassenschluessel": "05754000003203310", "bezeichnung": "Weidenweg" }, "geometry": { "type": "Point", "coordinates": [ 8.432409513342426, 51.820757682401599 ] } },
{ "type": "Feature", "properties": { "strassenschluessel": "05754000003203311", "bezeichnung": "Westbruch" }, "geometry": { "type": "Point", "coordinates": [ 8.346970435836409, 51.794202165381179 ] } },
{ "type": "Feature", "properties": { "strassenschluessel": "05754000003203312", "bezeichnung": "Weihenfeld" }, "geometry": { "type": "Point", "coordinates": [ 8.447481382128846, 51.869068022228333 ] } },
{ "type": "Feature", "properties": { "strassenschluessel": "05754000003203320", "bezeichnung": "Westenholzer Straße" }, "geometry": { "type": "Point", "coordinates": [ 8.401150238043993, 51.737877450344392 ] } },
{ "type": "Feature", "properties": { "strassenschluessel": "05754000003203320", "bezeichnung": "Westenholzer Straße" }, "geometry": { "type": "Point", "coordinates": [ 8.401150238043993, 51.737877450344392 ] } },
{ "type": "Feature", "properties": { "strassenschluessel": "05754000003203330", "bezeichnung": "Westerloher Straße" }, "geometry": { "type": "Point", "coordinates": [ 8.504988780712466, 51.809290323699727 ] } },
{ "type": "Feature", "properties": { "strassenschluessel": "05754000003203340", "bezeichnung": "Westernkamp" }, "geometry": { "type": "Point", "coordinates": [ 8.401151033786988, 51.757135392020501 ] } },
{ "type": "Feature", "properties": { "strassenschluessel": "05754000003203351", "bezeichnung": "Westerwieher Straße" }, "geometry": { "type": "Point", "coordinates": [ 8.485885409152893, 51.815261082903312 ] } },
{ "type": "Feature", "properties": { "strassenschluessel": "05754000003203360", "bezeichnung": "Westfalenweg" }, "geometry": { "type": "Point", "coordinates": [ 8.455079663542818, 51.866705273241493 ] } },
{ "type": "Feature", "properties": { "strassenschluessel": "05754000003203365", "bezeichnung": "Westheide" }, "geometry": { "type": "Point", "coordinates": [ 8.371646922136691, 51.801359433680993 ] } },
{ "type": "Feature", "properties": { "strassenschluessel": "05754000003203370", "bezeichnung": "Westring" }, "geometry": { "type": "Point", "coordinates": [ 8.388097082956003, 51.832358922381651 ] } },
{ "type": "Feature", "properties": { "strassenschluessel": "05754000003203380", "bezeichnung": "Weststraße" }, "geometry": { "type": "Point", "coordinates": [ 8.371983878256371, 51.744252187627893 ] } },
{ "type": "Feature", "properties": { "strassenschluessel": "05754000003203391", "bezeichnung": "Wiedenbrücker Straße" }, "geometry": { "type": "Point", "coordinates": [ 8.41516101733281, 51.816246178633165 ] } },
{ "type": "Feature", "properties": { "strassenschluessel": "05754000003203392", "bezeichnung": "Wiehenweg" }, "geometry": { "type": "Point", "coordinates": [ 8.502314560347125, 51.80927080075201 ] } },
{ "type": "Feature", "properties": { "strassenschluessel": "05754000003203400", "bezeichnung": "Wiesenstraße" }, "geometry": { "type": "Point", "coordinates": [ 8.380829996342145, 51.725375079148158 ] } },
{ "type": "Feature", "properties": { "strassenschluessel": "05754000003203410", "bezeichnung": "Wimmelheide" }, "geometry": { "type": "Point", "coordinates": [ 8.361807008083087, 51.76283724681435 ] } },
{ "type": "Feature", "properties": { "strassenschluessel": "05754000003203420", "bezeichnung": "Wortstraße" }, "geometry": { "type": "Point", "coordinates": [ 8.437378802751685, 51.8601981037109 ] } },
{ "type": "Feature", "properties": { "strassenschluessel": "05754000003203431", "bezeichnung": "Wulfhorstweg" }, "geometry": { "type": "Point", "coordinates": [ 8.416041683400911, 51.779899401896358 ] } },
{ "type": "Feature", "properties": { "strassenschluessel": "05754000003203435", "bezeichnung": "Wurzelkamp" }, "geometry": { "type": "Point", "coordinates": [ 8.402091955882735, 51.756577047558594 ] } },
{ "type": "Feature", "properties": { "strassenschluessel": "05754000003203437", "bezeichnung": "Zeisigweg" }, "geometry": { "type": "Point", "coordinates": [ 8.443632851041123, 51.827551461986957 ] } },
{ "type": "Feature", "properties": { "strassenschluessel": "05754000003203440", "bezeichnung": "Ziegeleistraße" }, "geometry": { "type": "Point", "coordinates": [ 8.518746325742381, 51.81848696875403 ] } },
{ "type": "Feature", "properties": { "strassenschluessel": "05754000003203441", "bezeichnung": "Zum Esch" }, "geometry": { "type": "Point", "coordinates": [ 8.378745980035488, 51.800842915430444 ] } },
{ "type": "Feature", "properties": { "strassenschluessel": "05754000003203442", "bezeichnung": "Zum Bürgerhaus" }, "geometry": { "type": "Point", "coordinates": [ 8.401883347905683, 51.827360708274171 ] } },
{ "type": "Feature", "properties": { "strassenschluessel": "05754000003203445", "bezeichnung": "Zur Ems" }, "geometry": { "type": "Point", "coordinates": [ 8.41928134470532, 51.813828789160922 ] } },
{ "type": "Feature", "properties": { "strassenschluessel": "05754000003203450", "bezeichnung": "Zum Freien Stuhl" }, "geometry": { "type": "Point", "coordinates": [ 8.385808994598429, 51.728687078254659 ] } },
{ "type": "Feature", "properties": { "strassenschluessel": "05754000003203460", "bezeichnung": "Zum Papenforth" }, "geometry": { "type": "Point", "coordinates": [ 8.418004085411708, 51.829309953364188 ] } },
{ "type": "Feature", "properties": { "strassenschluessel": "05754000003203465", "bezeichnung": "Zum Park" }, "geometry": { "type": "Point", "coordinates": [ 8.445242180007993, 51.825617692823826 ] } },
{ "type": "Feature", "properties": { "strassenschluessel": "05754000003203471", "bezeichnung": "Zum Sporkfeld" }, "geometry": { "type": "Point", "coordinates": [ 8.515306763725711, 51.822880752589668 ] } },
{ "type": "Feature", "properties": { "strassenschluessel": "05754000003203480", "bezeichnung": "Zum Westhoff" }, "geometry": { "type": "Point", "coordinates": [ 8.437531622651761, 51.830494758862933 ] } },
{ "type": "Feature", "properties": { "strassenschluessel": "05754000003203481", "bezeichnung": "Zur Antfängers Mühle" }, "geometry": null },