{
"type": "FeatureCollection",
"features": [
{ "type": "Feature", "properties": { "strassenschluessel": "05382000005631001", "bezeichnung": "Am Gänsepütz" }, "geometry": { "type": "Point", "coordinates": [ 7.224555999557894, 50.745660591632841 ] } },
{ "type": "Feature", "properties": { "strassenschluessel": "05382000005631002", "bezeichnung": "Am Knippchen" }, "geometry": { "type": "Point", "coordinates": [ 7.223789933636437, 50.747209563305205 ] } },
{ "type": "Feature", "properties": { "strassenschluessel": "05382000005631003", "bezeichnung": "Am Lauterbach" }, "geometry": { "type": "Point", "coordinates": [ 7.222968655643498, 50.750059776025452 ] } },
{ "type": "Feature", "properties": { "strassenschluessel": "05382000005631004", "bezeichnung": "Am Otenberg" }, "geometry": { "type": "Point", "coordinates": [ 7.227506916456893, 50.746414290897526 ] } },
{ "type": "Feature", "properties": { "strassenschluessel": "05382000005631005", "bezeichnung": "Am Paddenofen" }, "geometry": { "type": "Point", "coordinates": [ 7.222395682564184, 50.747104518258752 ] } },
{ "type": "Feature", "properties": { "strassenschluessel": "05382000005631006", "bezeichnung": "Am Pleistalwerk" }, "geometry": { "type": "Point", "coordinates": [ 7.219659242494723, 50.75390344410156 ] } },
{ "type": "Feature", "properties": { "strassenschluessel": "05382000005631007", "bezeichnung": "Am Steinmorgen" }, "geometry": { "type": "Point", "coordinates": [ 7.227507338431327, 50.748975509109385 ] } },
{ "type": "Feature", "properties": { "strassenschluessel": "05382000005631008", "bezeichnung": "An den Weiden" }, "geometry": { "type": "Point", "coordinates": [ 7.219052985331147, 50.745789268858267 ] } },
{ "type": "Feature", "properties": { "strassenschluessel": "05382000005631009", "bezeichnung": "An der Kirche" }, "geometry": { "type": "Point", "coordinates": [ 7.222567835320841, 50.74914341781421 ] } },
{ "type": "Feature", "properties": { "strassenschluessel": "05382000005631010", "bezeichnung": "Bergstraße" }, "geometry": { "type": "Point", "coordinates": [ 7.225108434533039, 50.745391483170323 ] } },
{ "type": "Feature", "properties": { "strassenschluessel": "05382000005631011", "bezeichnung": "Birlinghovener Straße" }, "geometry": { "type": "Point", "coordinates": [ 7.224010351430142, 50.751113266306099 ] } },
{ "type": "Feature", "properties": { "strassenschluessel": "05382000005631012", "bezeichnung": "Dambroicher Weg" }, "geometry": { "type": "Point", "coordinates": [ 7.224638616097899, 50.75170628607362 ] } },
{ "type": "Feature", "properties": { "strassenschluessel": "05382000005631013", "bezeichnung": "Grabenstraße" }, "geometry": { "type": "Point", "coordinates": [ 7.224463678442044, 50.750788967371427 ] } },
{ "type": "Feature", "properties": { "strassenschluessel": "05382000005631014", "bezeichnung": "Hähnchen" }, "geometry": { "type": "Point", "coordinates": [ 7.205970005285653, 50.741773113485543 ] } },
{ "type": "Feature", "properties": { "strassenschluessel": "05382000005631015", "bezeichnung": "Hahnbitzenweg" }, "geometry": { "type": "Point", "coordinates": [ 7.222806142685132, 50.750554805928935 ] } },
{ "type": "Feature", "properties": { "strassenschluessel": "05382000005631016", "bezeichnung": "Hangweg" }, "geometry": { "type": "Point", "coordinates": [ 7.222836855037334, 50.744261843433421 ] } },
{ "type": "Feature", "properties": { "strassenschluessel": "05382000005631017", "bezeichnung": "Höldersteg" }, "geometry": { "type": "Point", "coordinates": [ 7.228780909171606, 50.754211295899601 ] } },
{ "type": "Feature", "properties": { "strassenschluessel": "05382000005631018", "bezeichnung": "Im Bungert" }, "geometry": { "type": "Point", "coordinates": [ 7.225423883380944, 50.750065856763982 ] } },
{ "type": "Feature", "properties": { "strassenschluessel": "05382000005631019", "bezeichnung": "In der Holle" }, "geometry": { "type": "Point", "coordinates": [ 7.226419317158054, 50.747141344509245 ] } },
{ "type": "Feature", "properties": { "strassenschluessel": "05382000005631020", "bezeichnung": "Karl-Hennecke-Straße" }, "geometry": { "type": "Point", "coordinates": [ 7.223062183313474, 50.753212429581261 ] } },
{ "type": "Feature", "properties": { "strassenschluessel": "05382000005631021", "bezeichnung": "Mühlenweg" }, "geometry": { "type": "Point", "coordinates": [ 7.222620158516206, 50.748106336904705 ] } },
{ "type": "Feature", "properties": { "strassenschluessel": "05382000005631022", "bezeichnung": "Pleistalstraße" }, "geometry": { "type": "Point", "coordinates": [ 7.234470129741045, 50.746271496261684 ] } },
{ "type": "Feature", "properties": { "strassenschluessel": "05382000005631023", "bezeichnung": "Schloß" }, "geometry": { "type": "Point", "coordinates": [ 7.205208001598631, 50.749062689052039 ] } },
{ "type": "Feature", "properties": { "strassenschluessel": "05382000005631024", "bezeichnung": "Schloßstraße" }, "geometry": { "type": "Point", "coordinates": [ 7.21969139615872, 50.74636657050182 ] } },
{ "type": "Feature", "properties": { "strassenschluessel": "05382000005631025", "bezeichnung": "Steinweg" }, "geometry": { "type": "Point", "coordinates": [ 7.223771734044139, 50.747809124125091 ] } },
{ "type": "Feature", "properties": { "strassenschluessel": "05382000005631026", "bezeichnung": "Theodor-Kurscheid-Straße" }, "geometry": { "type": "Point", "coordinates": [ 7.225807843405511, 50.749470738423476 ] } },
{ "type": "Feature", "properties": { "strassenschluessel": "05382000005631027", "bezeichnung": "Haus Sonnenuhr" }, "geometry": { "type": "Point", "coordinates": [ 7.207829352240323, 50.74609185700735 ] } },
{ "type": "Feature", "properties": { "strassenschluessel": "05382000005631028", "bezeichnung": "Zur Sonnenuhr" }, "geometry": { "type": "Point", "coordinates": [ 7.218884564745747, 50.747378635547278 ] } },
{ "type": "Feature", "properties": { "strassenschluessel": "05382000005631029", "bezeichnung": "Alleestraße" }, "geometry": { "type": "Point", "coordinates": [ 7.229000602512274, 50.782924134919639 ] } },
{ "type": "Feature", "properties": { "strassenschluessel": "05382000005631030", "bezeichnung": "Am Heiligenhäuschen" }, "geometry": { "type": "Point", "coordinates": [ 7.239178377615509, 50.784426770289542 ] } },
{ "type": "Feature", "properties": { "strassenschluessel": "05382000005631031", "bezeichnung": "Am Rosenhain" }, "geometry": { "type": "Point", "coordinates": [ 7.236777436851496, 50.780853986510394 ] } },
{ "type": "Feature", "properties": { "strassenschluessel": "05382000005631032", "bezeichnung": "An der Autobahn" }, "geometry": { "type": "Point", "coordinates": [ 7.240392917647712, 50.784330406149714 ] } },
{ "type": "Feature", "properties": { "strassenschluessel": "05382000005631033", "bezeichnung": "Andreas-Hofer-Straße" }, "geometry": { "type": "Point", "coordinates": [ 7.232481268634209, 50.786405022115773 ] } },
{ "type": "Feature", "properties": { "strassenschluessel": "05382000005631034", "bezeichnung": "Brölweg" }, "geometry": { "type": "Point", "coordinates": [ 7.230523725219582, 50.784067339605805 ] } },
{ "type": "Feature", "properties": { "strassenschluessel": "05382000005631035", "bezeichnung": "Brückenstraße" }, "geometry": { "type": "Point", "coordinates": [ 7.227788362170973, 50.785472905599491 ] } },
{ "type": "Feature", "properties": { "strassenschluessel": "05382000005631036", "bezeichnung": "Buschberg" }, "geometry": { "type": "Point", "coordinates": [ 7.227600287799024, 50.779921017779465 ] } },
{ "type": "Feature", "properties": { "strassenschluessel": "05382000005631037", "bezeichnung": "Bülsenstraße" }, "geometry": { "type": "Point", "coordinates": [ 7.244202464160991, 50.784285549294438 ] } },
{ "type": "Feature", "properties": { "strassenschluessel": "05382000005631038", "bezeichnung": "Buisdorfer Straße" }, "geometry": { "type": "Point", "coordinates": [ 7.225826252983349, 50.780920302832612 ] } },
{ "type": "Feature", "properties": { "strassenschluessel": "05382000005631039", "bezeichnung": "Deichstraße" }, "geometry": { "type": "Point", "coordinates": [ 7.22966278067085, 50.786865421613342 ] } },
{ "type": "Feature", "properties": { "strassenschluessel": "05382000005631040", "bezeichnung": "Frankfurter Straße" }, "geometry": { "type": "Point", "coordinates": [ 7.224980941243158, 50.783699532949989 ] } },
{ "type": "Feature", "properties": { "strassenschluessel": "05382000005631041", "bezeichnung": "Freiheitsstraße" }, "geometry": { "type": "Point", "coordinates": [ 7.234080163269589, 50.786215482842827 ] } },
{ "type": "Feature", "properties": { "strassenschluessel": "05382000005631042", "bezeichnung": "Heinrich-Busch-Straße" }, "geometry": { "type": "Point", "coordinates": [ 7.234811981749134, 50.783631892900964 ] } },
{ "type": "Feature", "properties": { "strassenschluessel": "05382000005631043", "bezeichnung": "Hochmeisterstraße" }, "geometry": { "type": "Point", "coordinates": [ 7.231549779342839, 50.778886761294181 ] } },
{ "type": "Feature", "properties": { "strassenschluessel": "05382000005631044", "bezeichnung": "Im alten Garten" }, "geometry": { "type": "Point", "coordinates": [ 7.235870141963693, 50.783830737882944 ] } },
{ "type": "Feature", "properties": { "strassenschluessel": "05382000005631045", "bezeichnung": "Im alten Keller" }, "geometry": { "type": "Point", "coordinates": [ 7.235900050579085, 50.786069421698357 ] } },
{ "type": "Feature", "properties": { "strassenschluessel": "05382000005631046", "bezeichnung": "Im Forst" }, "geometry": { "type": "Point", "coordinates": [ 7.224058930659544, 50.78138323404405 ] } },
{ "type": "Feature", "properties": { "strassenschluessel": "05382000005631047", "bezeichnung": "Im Kleefeld" }, "geometry": { "type": "Point", "coordinates": [ 7.223279230034095, 50.780765631280794 ] } },
{ "type": "Feature", "properties": { "strassenschluessel": "05382000005631048", "bezeichnung": "Im Rosengarten" }, "geometry": { "type": "Point", "coordinates": [ 7.231927732298285, 50.782343948734152 ] } },
{ "type": "Feature", "properties": { "strassenschluessel": "05382000005631049", "bezeichnung": "In der Bitze" }, "geometry": { "type": "Point", "coordinates": [ 7.238244595943509, 50.785007977033516 ] } },
{ "type": "Feature", "properties": { "strassenschluessel": "05382000005631050", "bezeichnung": "Kreuzstraße" }, "geometry": { "type": "Point", "coordinates": [ 7.235661048784133, 50.785021072687321 ] } },
{ "type": "Feature", "properties": { "strassenschluessel": "05382000005631051", "bezeichnung": "Maarstraße" }, "geometry": { "type": "Point", "coordinates": [ 7.231938107354268, 50.784733297953665 ] } },
{ "type": "Feature", "properties": { "strassenschluessel": "05382000005631052", "bezeichnung": "Markusstraße" }, "geometry": { "type": "Point", "coordinates": [ 7.236547625462086, 50.784200696108925 ] } },
{ "type": "Feature", "properties": { "strassenschluessel": "05382000005631053", "bezeichnung": "Michaelsbergstraße" }, "geometry": { "type": "Point", "coordinates": [ 7.227473178572169, 50.784373106266429 ] } },
{ "type": "Feature", "properties": { "strassenschluessel": "05382000005631054", "bezeichnung": "Oberdorfstraße" }, "geometry": { "type": "Point", "coordinates": [ 7.236880195901144, 50.784468745015573 ] } },
{ "type": "Feature", "properties": { "strassenschluessel": "05382000005631055", "bezeichnung": "Prinz-Eugen-Straße" }, "geometry": { "type": "Point", "coordinates": [ 7.236813292289043, 50.781699260899458 ] } },
{ "type": "Feature", "properties": { "strassenschluessel": "05382000005631056", "bezeichnung": "Ringstraße" }, "geometry": { "type": "Point", "coordinates": [ 7.23780641953424, 50.784081923336586 ] } },
{ "type": "Feature", "properties": { "strassenschluessel": "05382000005631057", "bezeichnung": "Rosenweg" }, "geometry": { "type": "Point", "coordinates": [ 7.23424658827218, 50.782019443687204 ] } },
{ "type": "Feature", "properties": { "strassenschluessel": "05382000005631058", "bezeichnung": "Sankt-Georgs-Weg" }, "geometry": { "type": "Point", "coordinates": [ 7.23303499366538, 50.784818967568526 ] } },
{ "type": "Feature", "properties": { "strassenschluessel": "05382000005631059", "bezeichnung": "Schlehdornweg" }, "geometry": null },
{ "type": "Feature", "properties": { "strassenschluessel": "05382000005631060", "bezeichnung": "Steiferhofstraße" }, "geometry": { "type": "Point", "coordinates": [ 7.231141073529808, 50.784674506917625 ] } },
{ "type": "Feature", "properties": { "strassenschluessel": "05382000005631061", "bezeichnung": "Uferstraße" }, "geometry": { "type": "Point", "coordinates": [ 7.226647791329292, 50.78257736865244 ] } },
{ "type": "Feature", "properties": { "strassenschluessel": "05382000005631062", "bezeichnung": "Zissendorfer Straße" }, "geometry": { "type": "Point", "coordinates": [ 7.23332954112189, 50.785062932041662 ] } },
{ "type": "Feature", "properties": { "strassenschluessel": "05382000005631063", "bezeichnung": "Zum Siegblick" }, "geometry": { "type": "Point", "coordinates": [ 7.234720794392929, 50.788837280141166 ] } },
{ "type": "Feature", "properties": { "strassenschluessel": "05382000005631064", "bezeichnung": "Ahrstraße" }, "geometry": { "type": "Point", "coordinates": [ 7.176292839085416, 50.758025051735764 ] } },
{ "type": "Feature", "properties": { "strassenschluessel": "05382000005631065", "bezeichnung": "Am Schiedsberg" }, "geometry": { "type": "Point", "coordinates": [ 7.167897910180931, 50.757648050705733 ] } },
{ "type": "Feature", "properties": { "strassenschluessel": "05382000005631066", "bezeichnung": "Am Wolfsbach" }, "geometry": { "type": "Point", "coordinates": [ 7.166158378822344, 50.756712105000034 ] } },
{ "type": "Feature", "properties": { "strassenschluessel": "05382000005631067", "bezeichnung": "Annastraße" }, "geometry": { "type": "Point", "coordinates": [ 7.167828228767881, 50.760879826676636 ] } },
{ "type": "Feature", "properties": { "strassenschluessel": "05382000005631068", "bezeichnung": "Anton-Groß-Straße" }, "geometry": { "type": "Point", "coordinates": [ 7.157958831342857, 50.756074228649574 ] } },
{ "type": "Feature", "properties": { "strassenschluessel": "05382000005631069", "bezeichnung": "Auf dem Niederberg" }, "geometry": { "type": "Point", "coordinates": [ 7.183516104903841, 50.755602710348519 ] } },
{ "type": "Feature", "properties": { "strassenschluessel": "05382000005631070", "bezeichnung": "Auf den Urden" }, "geometry": { "type": "Point", "coordinates": [ 7.157599228249065, 50.754150923719173 ] } },
{ "type": "Feature", "properties": { "strassenschluessel": "05382000005631071", "bezeichnung": "Bachstraße" }, "geometry": { "type": "Point", "coordinates": [ 7.159810979291582, 50.758274615720801 ] } },
{ "type": "Feature", "properties": { "strassenschluessel": "05382000005631072", "bezeichnung": "Beethovenstraße" }, "geometry": { "type": "Point", "coordinates": [ 7.161115191463212, 50.759313659479972 ] } },
{ "type": "Feature", "properties": { "strassenschluessel": "05382000005631073", "bezeichnung": "Beueler Straße" }, "geometry": null },
{ "type": "Feature", "properties": { "strassenschluessel": "05382000005631075", "bezeichnung": "Brahmsstraße" }, "geometry": { "type": "Point", "coordinates": [ 7.159525626626837, 50.760017884988805 ] } },
{ "type": "Feature", "properties": { "strassenschluessel": "05382000005631076", "bezeichnung": "Bruno-Werntgen-Straße" }, "geometry": { "type": "Point", "coordinates": [ 7.172299445229697, 50.762733747532742 ] } },
{ "type": "Feature", "properties": { "strassenschluessel": "05382000005631077", "bezeichnung": "Buschweg" }, "geometry": { "type": "Point", "coordinates": [ 7.158099634760308, 50.755203631621406 ] } },
{ "type": "Feature", "properties": { "strassenschluessel": "05382000005631078", "bezeichnung": "Burbankstraße" }, "geometry": { "type": "Point", "coordinates": [ 7.165537509418238, 50.758187842435206 ] } },
{ "type": "Feature", "properties": { "strassenschluessel": "05382000005631079", "bezeichnung": "Dornierstraße" }, "geometry": { "type": "Point", "coordinates": [ 7.166426952104577, 50.760671797872156 ] } },
{ "type": "Feature", "properties": { "strassenschluessel": "05382000005631080", "bezeichnung": "Drachenfelsstraße" }, "geometry": { "type": "Point", "coordinates": [ 7.188175050928988, 50.755408844445888 ] } },
{ "type": "Feature", "properties": { "strassenschluessel": "05382000005631081", "bezeichnung": "Eckenerstraße" }, "geometry": { "type": "Point", "coordinates": [ 7.173033978596817, 50.763933571199246 ] } },
{ "type": "Feature", "properties": { "strassenschluessel": "05382000005631082", "bezeichnung": "Eifelstraße" }, "geometry": { "type": "Point", "coordinates": [ 7.169824454573221, 50.755549208560979 ] } },
{ "type": "Feature", "properties": { "strassenschluessel": "05382000005631083", "bezeichnung": "Eisenachstraße" }, "geometry": { "type": "Point", "coordinates": [ 7.189145674584581, 50.758325305189771 ] } },
{ "type": "Feature", "properties": { "strassenschluessel": "05382000005631084", "bezeichnung": "Erftstraße" }, "geometry": { "type": "Point", "coordinates": [ 7.181258477438091, 50.759052728941263 ] } },
{ "type": "Feature", "properties": { "strassenschluessel": "05382000005631085", "bezeichnung": "Erfurtstraße" }, "geometry": { "type": "Point", "coordinates": [ 7.183949797660738, 50.761317454357744 ] } },
{ "type": "Feature", "properties": { "strassenschluessel": "05382000005631086", "bezeichnung": "Falderbaumstraße" }, "geometry": { "type": "Point", "coordinates": [ 7.169810650795092, 50.763249435088603 ] } },
{ "type": "Feature", "properties": { "strassenschluessel": "05382000005631087", "bezeichnung": "Florianstraße" }, "geometry": { "type": "Point", "coordinates": [ 7.169859655382139, 50.76051413391076 ] } },
{ "type": "Feature", "properties": { "strassenschluessel": "05382000005631088", "bezeichnung": "Franz-Jacobi-Straße" }, "geometry": { "type": "Point", "coordinates": [ 7.169097323492241, 50.760290712404768 ] } },
{ "type": "Feature", "properties": { "strassenschluessel": "05382000005631089", "bezeichnung": "Friedrichstraße" }, "geometry": { "type": "Point", "coordinates": [ 7.160895570699798, 50.757315398458118 ] } },
{ "type": "Feature", "properties": { "strassenschluessel": "05382000005631090", "bezeichnung": "Fritz-Pullig-Straße" }, "geometry": { "type": "Point", "coordinates": [ 7.164108502026592, 50.763406048533554 ] } },
{ "type": "Feature", "properties": { "strassenschluessel": "05382000005631091", "bezeichnung": "Gerastraße" }, "geometry": { "type": "Point", "coordinates": [ 7.187165718233233, 50.760095341017383 ] } },
{ "type": "Feature", "properties": { "strassenschluessel": "05382000005631092", "bezeichnung": "Gerhart-Hauptmann-Straße" }, "geometry": { "type": "Point", "coordinates": [ 7.159292746672318, 50.760770739657829 ] } },
{ "type": "Feature", "properties": { "strassenschluessel": "05382000005631093", "bezeichnung": "Gothastraße" }, "geometry": { "type": "Point", "coordinates": [ 7.187911690403156, 50.759687261061778 ] } },
{ "type": "Feature", "properties": { "strassenschluessel": "05382000005631094", "bezeichnung": "Gottfried-Kinkel-Straße" }, "geometry": { "type": "Point", "coordinates": [ 7.159586634491436, 50.761140536031355 ] } },
{ "type": "Feature", "properties": { "strassenschluessel": "05382000005631095", "bezeichnung": "Graf-Zeppelin-Straße" }, "geometry": { "type": "Point", "coordinates": [ 7.166478652475839, 50.762352362323305 ] } },
{ "type": "Feature", "properties": { "strassenschluessel": "05382000005631096", "bezeichnung": "Großenbuschstraße" }, "geometry": { "type": "Point", "coordinates": [ 7.193078570466889, 50.761000098596348 ] } },
{ "type": "Feature", "properties": { "strassenschluessel": "05382000005631097", "bezeichnung": "Händelstraße" }, "geometry": { "type": "Point", "coordinates": [ 7.159229620650247, 50.757860564734372 ] } },
{ "type": "Feature", "properties": { "strassenschluessel": "05382000005631098", "bezeichnung": "Heckenweg" }, "geometry": { "type": "Point", "coordinates": [ 7.163411585161559, 50.755976139261222 ] } },
{ "type": "Feature", "properties": { "strassenschluessel": "05382000005631099", "bezeichnung": "Josef-Menne-Straße" }, "geometry": { "type": "Point", "coordinates": [ 7.16977768440178, 50.758401592031632 ] } },
{ "type": "Feature", "properties": { "strassenschluessel": "05382000005631100", "bezeichnung": "Hirschbergweg" }, "geometry": { "type": "Point", "coordinates": [ 7.182432596926881, 50.760885270933869 ] } },
{ "type": "Feature", "properties": { "strassenschluessel": "05382000005631101", "bezeichnung": "Holzlarer Straße" }, "geometry": { "type": "Point", "coordinates": [ 7.163274800244465, 50.755221590353528 ] } },
{ "type": "Feature", "properties": { "strassenschluessel": "05382000005631102", "bezeichnung": "Humperdinckstraße" }, "geometry": { "type": "Point", "coordinates": [ 7.158631451403277, 50.756319987640445 ] } },
{ "type": "Feature", "properties": { "strassenschluessel": "05382000005631103", "bezeichnung": "Im Erlengrund" }, "geometry": { "type": "Point", "coordinates": [ 7.183794158327971, 50.75464930373321 ] } },
{ "type": "Feature", "properties": { "strassenschluessel": "05382000005631104", "bezeichnung": "Im Goldwinkel" }, "geometry": { "type": "Point", "coordinates": [ 7.177919758848686, 50.760754935234068 ] } },
{ "type": "Feature", "properties": { "strassenschluessel": "05382000005631105", "bezeichnung": "Immelmannstraße" }, "geometry": { "type": "Point", "coordinates": [ 7.161898661196918, 50.76279635793977 ] } },
{ "type": "Feature", "properties": { "strassenschluessel": "05382000005631106", "bezeichnung": "Jagdweg" }, "geometry": { "type": "Point", "coordinates": [ 7.178641556945853, 50.756114136245813 ] } },
{ "type": "Feature", "properties": { "strassenschluessel": "05382000005631107", "bezeichnung": "Jenastraße" }, "geometry": { "type": "Point", "coordinates": [ 7.190114711692328, 50.758422401869666 ] } },
{ "type": "Feature", "properties": { "strassenschluessel": "05382000005631108", "bezeichnung": "Kantstraße" }, "geometry": { "type": "Point", "coordinates": [ 7.1618492950606, 50.756379983173446 ] } },
{ "type": "Feature", "properties": { "strassenschluessel": "05382000005631109", "bezeichnung": "Kapellenstraße" }, "geometry": { "type": "Point", "coordinates": [ 7.168629300926168, 50.758092574367787 ] } },
{ "type": "Feature", "properties": { "strassenschluessel": "05382000005631110", "bezeichnung": "Kohlkauler Straße" }, "geometry": { "type": "Point", "coordinates": [ 7.170668418437359, 50.757162790540448 ] } },
{ "type": "Feature", "properties": { "strassenschluessel": "05382000005631111", "bezeichnung": "Kölnstraße" }, "geometry": { "type": "Point", "coordinates": [ 7.172013719631605, 50.761788968640246 ] } },
{ "type": "Feature", "properties": { "strassenschluessel": "05382000005631112", "bezeichnung": "Konrad-Adenauer-Straße" }, "geometry": { "type": "Point", "coordinates": [ 7.196190051584924, 50.749240002701875 ] } },
{ "type": "Feature", "properties": { "strassenschluessel": "05382000005631113", "bezeichnung": "Lahnstraße" }, "geometry": { "type": "Point", "coordinates": [ 7.17739011064054, 50.758916540145755 ] } },
{ "type": "Feature", "properties": { "strassenschluessel": "05382000005631114", "bezeichnung": "Lessingstraße" }, "geometry": { "type": "Point", "coordinates": [ 7.162581426079353, 50.757231175468746 ] } },
{ "type": "Feature", "properties": { "strassenschluessel": "05382000005631115", "bezeichnung": "Lilienthalstraße" }, "geometry": { "type": "Point", "coordinates": [ 7.166410042290488, 50.761188881543085 ] } },
{ "type": "Feature", "properties": { "strassenschluessel": "05382000005631116", "bezeichnung": "Lindenstraße" }, "geometry": { "type": "Point", "coordinates": [ 7.175930245644399, 50.760925917209548 ] } },
{ "type": "Feature", "properties": { "strassenschluessel": "05382000005631117", "bezeichnung": "Lohrbergstraße" }, "geometry": { "type": "Point", "coordinates": [ 7.183145492792915, 50.759189130298374 ] } },
{ "type": "Feature", "properties": { "strassenschluessel": "05382000005631118", "bezeichnung": "Löwenburgstraße" }, "geometry": { "type": "Point", "coordinates": [ 7.183344534053443, 50.757864696861454 ] } },
{ "type": "Feature", "properties": { "strassenschluessel": "05382000005631119", "bezeichnung": "Mainstraße" }, "geometry": { "type": "Point", "coordinates": [ 7.179906238736899, 50.759127671937989 ] } },
{ "type": "Feature", "properties": { "strassenschluessel": "05382000005631120", "bezeichnung": "Meiningenstraße" }, "geometry": { "type": "Point", "coordinates": [ 7.187554224771799, 50.759339393018728 ] } },
{ "type": "Feature", "properties": { "strassenschluessel": "05382000005631121", "bezeichnung": "Möldersstraße" }, "geometry": { "type": "Point", "coordinates": [ 7.172362954136683, 50.761637430050207 ] } },
{ "type": "Feature", "properties": { "strassenschluessel": "05382000005631122", "bezeichnung": "Moselstraße" }, "geometry": { "type": "Point", "coordinates": [ 7.175574759309963, 50.757220403961291 ] } },
{ "type": "Feature", "properties": { "strassenschluessel": "05382000005631123", "bezeichnung": "Mozartstraße" }, "geometry": { "type": "Point", "coordinates": [ 7.15903497829378, 50.759494146768716 ] } },
{ "type": "Feature", "properties": { "strassenschluessel": "05382000005631124", "bezeichnung": "Nonnenstrombergstraße" }, "geometry": { "type": "Point", "coordinates": [ 7.179492764346122, 50.761662551478508 ] } },
{ "type": "Feature", "properties": { "strassenschluessel": "05382000005631125", "bezeichnung": "Oelbergstraße" }, "geometry": { "type": "Point", "coordinates": [ 7.186459328002969, 50.75690321421807 ] } },
{ "type": "Feature", "properties": { "strassenschluessel": "05382000005631126", "bezeichnung": "Ortsgasse" }, "geometry": { "type": "Point", "coordinates": [ 7.166489486020828, 50.75867771615718 ] } },
{ "type": "Feature", "properties": { "strassenschluessel": "05382000005631127", "bezeichnung": "Parsevalstraße" }, "geometry": { "type": "Point", "coordinates": [ 7.169661263904954, 50.763941859581166 ] } },
{ "type": "Feature", "properties": { "strassenschluessel": "05382000005631128", "bezeichnung": "Paul-Schulte-Straße" }, "geometry": { "type": "Point", "coordinates": [ 7.166342065987993, 50.762189909119741 ] } },
{ "type": "Feature", "properties": { "strassenschluessel": "05382000005631129", "bezeichnung": "Petersbergstraße" }, "geometry": { "type": "Point", "coordinates": [ 7.186472463297193, 50.755904713984812 ] } },
{ "type": "Feature", "properties": { "strassenschluessel": "05382000005631130", "bezeichnung": "Pützchensweg" }, "geometry": { "type": "Point", "coordinates": [ 7.165694282792701, 50.7549407614489 ] } },
{ "type": "Feature", "properties": { "strassenschluessel": "05382000005631131", "bezeichnung": "Rheinstraße" }, "geometry": { "type": "Point", "coordinates": [ 7.177215016911039, 50.761075790050029 ] } },
{ "type": "Feature", "properties": { "strassenschluessel": "05382000005631132", "bezeichnung": "Richard-Wagner-Straße" }, "geometry": { "type": "Point", "coordinates": [ 7.160288796234904, 50.760527798952261 ] } },
{ "type": "Feature", "properties": { "strassenschluessel": "05382000005631133", "bezeichnung": "Richthofenstraße" }, "geometry": { "type": "Point", "coordinates": [ 7.161225231746211, 50.761188568211765 ] } },
{ "type": "Feature", "properties": { "strassenschluessel": "05382000005631134", "bezeichnung": "Schubertstraße" }, "geometry": { "type": "Point", "coordinates": [ 7.159992797359399, 50.759597270863637 ] } },
{ "type": "Feature", "properties": { "strassenschluessel": "05382000005631135", "bezeichnung": "Schumannstraße" }, "geometry": { "type": "Point", "coordinates": [ 7.16111085390214, 50.76004315863333 ] } },
{ "type": "Feature", "properties": { "strassenschluessel": "05382000005631136", "bezeichnung": "Siebengebirgsstraße" }, "geometry": { "type": "Point", "coordinates": [ 7.184708637528315, 50.756773413604776 ] } },
{ "type": "Feature", "properties": { "strassenschluessel": "05382000005631137", "bezeichnung": "Sternenstraße" }, "geometry": { "type": "Point", "coordinates": [ 7.169921652997639, 50.759013783530477 ] } },
{ "type": "Feature", "properties": { "strassenschluessel": "05382000005631138", "bezeichnung": "Teichgraben" }, "geometry": { "type": "Point", "coordinates": [ 7.162841665278461, 50.761651930057617 ] } },
{ "type": "Feature", "properties": { "strassenschluessel": "05382000005631139", "bezeichnung": "Udetstraße" }, "geometry": { "type": "Point", "coordinates": [ 7.165284964843692, 50.761031086592382 ] } },
{ "type": "Feature", "properties": { "strassenschluessel": "05382000005631140", "bezeichnung": "Vilicher Straße" }, "geometry": { "type": "Point", "coordinates": [ 7.162489568815667, 50.75827130821223 ] } },
{ "type": "Feature", "properties": { "strassenschluessel": "05382000005631141", "bezeichnung": "Weimarstraße" }, "geometry": { "type": "Point", "coordinates": [ 7.185820400448812, 50.76089160764473 ] } },
{ "type": "Feature", "properties": { "strassenschluessel": "05382000005631142", "bezeichnung": "Wolkenburgstraße" }, "geometry": { "type": "Point", "coordinates": [ 7.184959311259262, 50.757211805472068 ] } },
{ "type": "Feature", "properties": { "strassenschluessel": "05382000005631143", "bezeichnung": "Adelheidisstraße" }, "geometry": { "type": "Point", "coordinates": [ 7.145483573506356, 50.777068802201477 ] } },
{ "type": "Feature", "properties": { "strassenschluessel": "05382000005631144", "bezeichnung": "Akazienweg" }, "geometry": { "type": "Point", "coordinates": [ 7.132805038143349, 50.776588437805977 ] } },
{ "type": "Feature", "properties": { "strassenschluessel": "05382000005631145", "bezeichnung": "Alter Kirchweg" }, "geometry": { "type": "Point", "coordinates": [ 7.139968225598867, 50.779531360060254 ] } },
{ "type": "Feature", "properties": { "strassenschluessel": "05382000005631146", "bezeichnung": "Am Weiher" }, "geometry": { "type": "Point", "coordinates": [ 7.134921052356627, 50.778577814119167 ] } },
{ "type": "Feature", "properties": { "strassenschluessel": "05382000005631147", "bezeichnung": "Auf dem Hohen Ufer" }, "geometry": { "type": "Point", "coordinates": [ 7.144438604520189, 50.782431737504737 ] } },
{ "type": "Feature", "properties": { "strassenschluessel": "05382000005631148", "bezeichnung": "Bahnhofstraße" }, "geometry": { "type": "Point", "coordinates": [ 7.138049035832672, 50.777821410427144 ] } },
{ "type": "Feature", "properties": { "strassenschluessel": "05382000005631149", "bezeichnung": "Bertha-von-Suttner-Straße" }, "geometry": { "type": "Point", "coordinates": [ 7.141138331218823, 50.779006371233834 ] } },
{ "type": "Feature", "properties": { "strassenschluessel": "05382000005631150", "bezeichnung": "Bodelschwinghstraße" }, "geometry": { "type": "Point", "coordinates": [ 7.13647993610666, 50.779448270665469 ] } },
{ "type": "Feature", "properties": { "strassenschluessel": "05382000005631151", "bezeichnung": "Dürerstraße" }, "geometry": { "type": "Point", "coordinates": [ 7.145862078186578, 50.780334447045497 ] } },
{ "type": "Feature", "properties": { "strassenschluessel": "05382000005631152", "bezeichnung": "Elsa-Brandström-Straße" }, "geometry": { "type": "Point", "coordinates": [ 7.14281335130463, 50.779361693812795 ] } },
{ "type": "Feature", "properties": { "strassenschluessel": "05382000005631153", "bezeichnung": "Geislarer Straße" }, "geometry": { "type": "Point", "coordinates": [ 7.138463470683454, 50.776805424119026 ] } },
{ "type": "Feature", "properties": { "strassenschluessel": "05382000005631154", "bezeichnung": "Hangelarer Straße" }, "geometry": { "type": "Point", "coordinates": [ 7.14083550893175, 50.777339167590711 ] } },
{ "type": "Feature", "properties": { "strassenschluessel": "05382000005631155", "bezeichnung": "Henri-Dunant-Straße" }, "geometry": { "type": "Point", "coordinates": [ 7.142481220498689, 50.777501839816324 ] } },
{ "type": "Feature", "properties": { "strassenschluessel": "05382000005631156", "bezeichnung": "Hofgartenstraße" }, "geometry": { "type": "Point", "coordinates": [ 7.13545750517695, 50.777453193095404 ] } },
{ "type": "Feature", "properties": { "strassenschluessel": "05382000005631157", "bezeichnung": "Im Hofgarten" }, "geometry": { "type": "Point", "coordinates": [ 7.133846096481286, 50.777785611366447 ] } },
{ "type": "Feature", "properties": { "strassenschluessel": "05382000005631158", "bezeichnung": "Im Uferfeld" }, "geometry": { "type": "Point", "coordinates": [ 7.134689044280602, 50.777798406204397 ] } },
{ "type": "Feature", "properties": { "strassenschluessel": "05382000005631159", "bezeichnung": "Im Winkel" }, "geometry": { "type": "Point", "coordinates": [ 7.147631342536639, 50.778273013759232 ] } },
{ "type": "Feature", "properties": { "strassenschluessel": "05382000005631161", "bezeichnung": "Lichweg" }, "geometry": { "type": "Point", "coordinates": [ 7.141459725998149, 50.780574542202679 ] } },
{ "type": "Feature", "properties": { "strassenschluessel": "05382000005631162", "bezeichnung": "Liebfrauenstraße" }, "geometry": { "type": "Point", "coordinates": [ 7.137934573219373, 50.775161089117056 ] } },
{ "type": "Feature", "properties": { "strassenschluessel": "05382000005631163", "bezeichnung": "Martin-Luther-Straße" }, "geometry": { "type": "Point", "coordinates": [ 7.141957906967111, 50.776972968857713 ] } },
{ "type": "Feature", "properties": { "strassenschluessel": "05382000005631164", "bezeichnung": "Michelstraße" }, "geometry": { "type": "Point", "coordinates": [ 7.138259656072414, 50.778026045436363 ] } },
{ "type": "Feature", "properties": { "strassenschluessel": "05382000005631165", "bezeichnung": "Rubensstraße" }, "geometry": { "type": "Point", "coordinates": [ 7.140644840394911, 50.778468751283519 ] } },
{ "type": "Feature", "properties": { "strassenschluessel": "05382000005631166", "bezeichnung": "Schildhofstraße" }, "geometry": { "type": "Point", "coordinates": [ 7.135827544731794, 50.779325168710081 ] } },
{ "type": "Feature", "properties": { "strassenschluessel": "05382000005631167", "bezeichnung": "Theodor-Heuss-Straße" }, "geometry": { "type": "Point", "coordinates": [ 7.144722465907347, 50.777198374126982 ] } },
{ "type": "Feature", "properties": { "strassenschluessel": "05382000005631168", "bezeichnung": "Adam-Riese-Straße" }, "geometry": { "type": "Point", "coordinates": [ 7.164312174323854, 50.783486483137573 ] } },
{ "type": "Feature", "properties": { "strassenschluessel": "05382000005631169", "bezeichnung": "Agnesstraße" }, "geometry": { "type": "Point", "coordinates": [ 7.168799483832082, 50.791866195885255 ] } },
{ "type": "Feature", "properties": { "strassenschluessel": "05382000005631170", "bezeichnung": "Alfred-Delp-Straße" }, "geometry": { "type": "Point", "coordinates": [ 7.157756113020004, 50.792383553187669 ] } },
{ "type": "Feature", "properties": { "strassenschluessel": "05382000005631171", "bezeichnung": "Am Bahnhof" }, "geometry": { "type": "Point", "coordinates": [ 7.150780134301298, 50.77652770698645 ] } },
{ "type": "Feature", "properties": { "strassenschluessel": "05382000005631172", "bezeichnung": "Am Ehrenmal" }, "geometry": null },
{ "type": "Feature", "properties": { "strassenschluessel": "05382000005631173", "bezeichnung": "Am Fronhof" }, "geometry": { "type": "Point", "coordinates": [ 7.169923420110534, 50.79048453861769 ] } },
{ "type": "Feature", "properties": { "strassenschluessel": "05382000005631174", "bezeichnung": "Am Kirchhof" }, "geometry": { "type": "Point", "coordinates": [ 7.162871234834833, 50.790845477761692 ] } },
{ "type": "Feature", "properties": { "strassenschluessel": "05382000005631175", "bezeichnung": "Amselweg" }, "geometry": { "type": "Point", "coordinates": [ 7.152572771419647, 50.782817318126895 ] } },
{ "type": "Feature", "properties": { "strassenschluessel": "05382000005631176", "bezeichnung": "Am Steg" }, "geometry": { "type": "Point", "coordinates": [ 7.169125563515113, 50.792112473790972 ] } },
{ "type": "Feature", "properties": { "strassenschluessel": "05382000005631177", "bezeichnung": "Auf dem Acker" }, "geometry": { "type": "Point", "coordinates": [ 7.164683231141787, 50.7881555760259 ] } },
{ "type": "Feature", "properties": { "strassenschluessel": "05382000005631178", "bezeichnung": "Auf der Mirz" }, "geometry": { "type": "Point", "coordinates": [ 7.155241958301871, 50.792910065743939 ] } },
{ "type": "Feature", "properties": { "strassenschluessel": "05382000005631179", "bezeichnung": "Augustinusstraße" }, "geometry": { "type": "Point", "coordinates": [ 7.162338789618212, 50.791335072670805 ] } },
{ "type": "Feature", "properties": { "strassenschluessel": "05382000005631180", "bezeichnung": "Behringstraße" }, "geometry": { "type": "Point", "coordinates": [ 7.159646226163418, 50.788486543715216 ] } },
{ "type": "Feature", "properties": { "strassenschluessel": "05382000005631181", "bezeichnung": "Benzstraße" }, "geometry": { "type": "Point", "coordinates": [ 7.156247179897173, 50.786516165868413 ] } },
{ "type": "Feature", "properties": { "strassenschluessel": "05382000005631182", "bezeichnung": "Burgstraße" }, "geometry": { "type": "Point", "coordinates": [ 7.158661058519852, 50.789737421095204 ] } },
{ "type": "Feature", "properties": { "strassenschluessel": "05382000005631183", "bezeichnung": "Cäcilienstraße" }, "geometry": { "type": "Point", "coordinates": [ 7.165233931038158, 50.792168159016207 ] } },
{ "type": "Feature", "properties": { "strassenschluessel": "05382000005631184", "bezeichnung": "Daimlerstraße" }, "geometry": { "type": "Point", "coordinates": [ 7.156298811321721, 50.787091629545081 ] } },
{ "type": "Feature", "properties": { "strassenschluessel": "05382000005631185", "bezeichnung": "Drosselweg" }, "geometry": { "type": "Point", "coordinates": [ 7.154658951228034, 50.782720219049423 ] } },
{ "type": "Feature", "properties": { "strassenschluessel": "05382000005631186", "bezeichnung": "Einsteinstraße" }, "geometry": { "type": "Point", "coordinates": [ 7.183903732314933, 50.788553633735319 ] } },
{ "type": "Feature", "properties": { "strassenschluessel": "05382000005631187", "bezeichnung": "Enggasse" }, "geometry": { "type": "Point", "coordinates": [ 7.16965100349177, 50.790763260413335 ] } },
{ "type": "Feature", "properties": { "strassenschluessel": "05382000005631188", "bezeichnung": "Ernst-Reuter-Straße" }, "geometry": { "type": "Point", "coordinates": [ 7.1579776755419, 50.787307712913197 ] } },
{ "type": "Feature", "properties": { "strassenschluessel": "05382000005631189", "bezeichnung": "Ernststraße" }, "geometry": { "type": "Point", "coordinates": [ 7.160106230721587, 50.785208517685469 ] } },
{ "type": "Feature", "properties": { "strassenschluessel": "05382000005631190", "bezeichnung": "Fasanenweg" }, "geometry": { "type": "Point", "coordinates": [ 7.15383920607148, 50.786398825405918 ] } },
{ "type": "Feature", "properties": { "strassenschluessel": "05382000005631191", "bezeichnung": "Finkenweg" }, "geometry": { "type": "Point", "coordinates": [ 7.154320311407155, 50.784896603703856 ] } },
{ "type": "Feature", "properties": { "strassenschluessel": "05382000005631192", "bezeichnung": "Friedrich-Gauß-Straße" }, "geometry": { "type": "Point", "coordinates": [ 7.177816385853992, 50.788475899154754 ] } },
{ "type": "Feature", "properties": { "strassenschluessel": "05382000005631193", "bezeichnung": "Friedrich-Hegel-Straße" }, "geometry": { "type": "Point", "coordinates": [ 7.156114355714147, 50.790707315796617 ] } },
{ "type": "Feature", "properties": { "strassenschluessel": "05382000005631194", "bezeichnung": "Fritz-Schröder-Straße" }, "geometry": { "type": "Point", "coordinates": [ 7.165211790691093, 50.793899484009607 ] } },
{ "type": "Feature", "properties": { "strassenschluessel": "05382000005631195", "bezeichnung": "Frongasse" }, "geometry": { "type": "Point", "coordinates": [ 7.168870639084922, 50.790353054756942 ] } },
{ "type": "Feature", "properties": { "strassenschluessel": "05382000005631196", "bezeichnung": "Gertrudisstraße" }, "geometry": { "type": "Point", "coordinates": [ 7.167634643021545, 50.793053366577261 ] } },
{ "type": "Feature", "properties": { "strassenschluessel": "05382000005631197", "bezeichnung": "Geschwister-Scholl-Straße" }, "geometry": { "type": "Point", "coordinates": [ 7.158901451472147, 50.793513483775229 ] } },
{ "type": "Feature", "properties": { "strassenschluessel": "05382000005631198", "bezeichnung": "Goerdelerstraße" }, "geometry": { "type": "Point", "coordinates": [ 7.158956486705958, 50.793151481805431 ] } },
{ "type": "Feature", "properties": { "strassenschluessel": "05382000005631199", "bezeichnung": "Gutenbergstraße" }, "geometry": { "type": "Point", "coordinates": [ 7.161417358347796, 50.784597772009214 ] } },
{ "type": "Feature", "properties": { "strassenschluessel": "05382000005631200", "bezeichnung": "Haberstraße" }, "geometry": { "type": "Point", "coordinates": [ 7.157768590949869, 50.782699990682652 ] } },
{ "type": "Feature", "properties": { "strassenschluessel": "05382000005631202", "bezeichnung": "Havelweg" }, "geometry": { "type": "Point", "coordinates": [ 7.157529910310252, 50.785511645475204 ] } },
{ "type": "Feature", "properties": { "strassenschluessel": "05382000005631203", "bezeichnung": "Hertzstraße" }, "geometry": { "type": "Point", "coordinates": [ 7.158848794998973, 50.785904880627385 ] } },
{ "type": "Feature", "properties": { "strassenschluessel": "05382000005631204", "bezeichnung": "Im Baumgarten" }, "geometry": { "type": "Point", "coordinates": [ 7.157552424950723, 50.791998523589442 ] } },
{ "type": "Feature", "properties": { "strassenschluessel": "05382000005631205", "bezeichnung": "Jahnstraße" }, "geometry": { "type": "Point", "coordinates": [ 7.169599385385395, 50.789543204497939 ] } },
{ "type": "Feature", "properties": { "strassenschluessel": "05382000005631206", "bezeichnung": "Johannesstraße" }, "geometry": { "type": "Point", "coordinates": [ 7.172638817594561, 50.789614038696698 ] } },
{ "type": "Feature", "properties": { "strassenschluessel": "05382000005631207", "bezeichnung": "Junkersstraße" }, "geometry": { "type": "Point", "coordinates": [ 7.156489012227444, 50.786947039881163 ] } },
{ "type": "Feature", "properties": { "strassenschluessel": "05382000005631208", "bezeichnung": "Karl-Schurz-Straße" }, "geometry": { "type": "Point", "coordinates": [ 7.171458079279671, 50.788583123413346 ] } },
{ "type": "Feature", "properties": { "strassenschluessel": "05382000005631209", "bezeichnung": "Katharinenstraße" }, "geometry": { "type": "Point", "coordinates": [ 7.168363894231562, 50.792664897740146 ] } },
{ "type": "Feature", "properties": { "strassenschluessel": "05382000005631210", "bezeichnung": "Kirchstraße" }, "geometry": { "type": "Point", "coordinates": [ 7.156856078164429, 50.790333361799192 ] } },
{ "type": "Feature", "properties": { "strassenschluessel": "05382000005631211", "bezeichnung": "Klöckner-Mannstaedt-Straße" }, "geometry": { "type": "Point", "coordinates": [ 7.164044285124619, 50.794514080617844 ] } },
{ "type": "Feature", "properties": { "strassenschluessel": "05382000005631212", "bezeichnung": "Kolpingstraße" }, "geometry": { "type": "Point", "coordinates": [ 7.161543579622172, 50.792568416214991 ] } },
{ "type": "Feature", "properties": { "strassenschluessel": "05382000005631213", "bezeichnung": "Krumme Lanke" }, "geometry": { "type": "Point", "coordinates": [ 7.156818049266525, 50.785395771662586 ] } },
{ "type": "Feature", "properties": { "strassenschluessel": "05382000005631214", "bezeichnung": "Ladestraße" }, "geometry": { "type": "Point", "coordinates": [ 7.149800441270942, 50.779012212270068 ] } },
{ "type": "Feature", "properties": { "strassenschluessel": "05382000005631215", "bezeichnung": "Langemarckstraße" }, "geometry": { "type": "Point", "coordinates": [ 7.162485220009316, 50.795333939743372 ] } },
{ "type": "Feature", "properties": { "strassenschluessel": "05382000005631216", "bezeichnung": "Lerchenweg" }, "geometry": { "type": "Point", "coordinates": [ 7.153236581207082, 50.784328155167557 ] } },
{ "type": "Feature", "properties": { "strassenschluessel": "05382000005631217", "bezeichnung": "Luisenstraße" }, "geometry": { "type": "Point", "coordinates": [ 7.166927345170859, 50.791446068794556 ] } },
{ "type": "Feature", "properties": { "strassenschluessel": "05382000005631218", "bezeichnung": "Marienstraße" }, "geometry": { "type": "Point", "coordinates": [ 7.173533216876246, 50.78637817047133 ] } },
{ "type": "Feature", "properties": { "strassenschluessel": "05382000005631219", "bezeichnung": "Märkischer Weg" }, "geometry": { "type": "Point", "coordinates": [ 7.159988591731283, 50.785760236426214 ] } },
{ "type": "Feature", "properties": { "strassenschluessel": "05382000005631220", "bezeichnung": "Marktstraße" }, "geometry": { "type": "Point", "coordinates": [ 7.162421083643533, 50.789526916900229 ] } },
{ "type": "Feature", "properties": { "strassenschluessel": "05382000005631221", "bezeichnung": "Martinstraße" }, "geometry": { "type": "Point", "coordinates": [ 7.168455721646676, 50.788161913342286 ] } },
{ "type": "Feature", "properties": { "strassenschluessel": "05382000005631222", "bezeichnung": "Meindorfer Straße" }, "geometry": { "type": "Point", "coordinates": [ 7.153280282731556, 50.780548675735261 ] } },
{ "type": "Feature", "properties": { "strassenschluessel": "05382000005631223", "bezeichnung": "Mittelstraße" }, "geometry": { "type": "Point", "coordinates": [ 7.15942361087074, 50.783182729275104 ] } },
{ "type": "Feature", "properties": { "strassenschluessel": "05382000005631224", "bezeichnung": "Nachtigallenweg" }, "geometry": { "type": "Point", "coordinates": [ 7.154342086136245, 50.784016971269104 ] } },
{ "type": "Feature", "properties": { "strassenschluessel": "05382000005631225", "bezeichnung": "Nobelstraße" }, "geometry": { "type": "Point", "coordinates": [ 7.158786828060403, 50.781862159336669 ] } },
{ "type": "Feature", "properties": { "strassenschluessel": "05382000005631226", "bezeichnung": "Ohmstraße" }, "geometry": { "type": "Point", "coordinates": [ 7.157451245107907, 50.786917368487352 ] } },
{ "type": "Feature", "properties": { "strassenschluessel": "05382000005631227", "bezeichnung": "Ottostraße" }, "geometry": { "type": "Point", "coordinates": [ 7.156406085461362, 50.786804931580569 ] } },
{ "type": "Feature", "properties": { "strassenschluessel": "05382000005631228", "bezeichnung": "Otto-v.-Guericke-Straße" }, "geometry": { "type": "Point", "coordinates": [ 7.178191730223936, 50.788908102494901 ] } },
{ "type": "Feature", "properties": { "strassenschluessel": "05382000005631229", "bezeichnung": "Pädchensweg" }, "geometry": null },
{ "type": "Feature", "properties": { "strassenschluessel": "05382000005631230", "bezeichnung": "Paracelsusstraße" }, "geometry": { "type": "Point", "coordinates": [ 7.166385468119898, 50.782208540778683 ] } },
{ "type": "Feature", "properties": { "strassenschluessel": "05382000005631231", "bezeichnung": "Raiffeisenstraße" }, "geometry": { "type": "Point", "coordinates": [ 7.164679033147836, 50.791048016436811 ] } },
{ "type": "Feature", "properties": { "strassenschluessel": "05382000005631232", "bezeichnung": "Robert-Koch-Straße" }, "geometry": { "type": "Point", "coordinates": [ 7.157827657736823, 50.788726284959935 ] } },
{ "type": "Feature", "properties": { "strassenschluessel": "05382000005631233", "bezeichnung": "Röntgenstraße" }, "geometry": { "type": "Point", "coordinates": [ 7.159703652773287, 50.786643891771483 ] } },
{ "type": "Feature", "properties": { "strassenschluessel": "05382000005631234", "bezeichnung": "Siegburger Straße" }, "geometry": { "type": "Point", "coordinates": [ 7.168152797150256, 50.790767571916454 ] } },
{ "type": "Feature", "properties": { "strassenschluessel": "05382000005631235", "bezeichnung": "Siegstraße" }, "geometry": { "type": "Point", "coordinates": [ 7.165635393979121, 50.789209245365136 ] } },
{ "type": "Feature", "properties": { "strassenschluessel": "05382000005631236", "bezeichnung": "Sofienstraße" }, "geometry": { "type": "Point", "coordinates": [ 7.167027214712875, 50.792936561632338 ] } },
{ "type": "Feature", "properties": { "strassenschluessel": "05382000005631237", "bezeichnung": "Steglitzer Weg" }, "geometry": { "type": "Point", "coordinates": [ 7.15916643280264, 50.785051557705586 ] } },
{ "type": "Feature", "properties": { "strassenschluessel": "05382000005631238", "bezeichnung": "Steinergasse" }, "geometry": { "type": "Point", "coordinates": [ 7.166371244287306, 50.791352902175262 ] } },
{ "type": "Feature", "properties": { "strassenschluessel": "05382000005631239", "bezeichnung": "Stresemannstraße" }, "geometry": { "type": "Point", "coordinates": [ 7.158012849407682, 50.783563167427708 ] } },
{ "type": "Feature", "properties": { "strassenschluessel": "05382000005631240", "bezeichnung": "Taubenweg" }, "geometry": { "type": "Point", "coordinates": [ 7.155100626394206, 50.788328991449745 ] } },
{ "type": "Feature", "properties": { "strassenschluessel": "05382000005631241", "bezeichnung": "Tegeler Weg" }, "geometry": { "type": "Point", "coordinates": [ 7.159898012511035, 50.785046078736073 ] } },
{ "type": "Feature", "properties": { "strassenschluessel": "05382000005631242", "bezeichnung": "Theresienstraße" }, "geometry": { "type": "Point", "coordinates": [ 7.166799988285596, 50.793254093567171 ] } },
{ "type": "Feature", "properties": { "strassenschluessel": "05382000005631243", "bezeichnung": "Von-Galen-Straße" }, "geometry": { "type": "Point", "coordinates": [ 7.155176558661486, 50.786078100834658 ] } },
{ "type": "Feature", "properties": { "strassenschluessel": "05382000005631244", "bezeichnung": "Von-Ketteler-Straße" }, "geometry": { "type": "Point", "coordinates": [ 7.168028717142532, 50.786505896612809 ] } },
{ "type": "Feature", "properties": { "strassenschluessel": "05382000005631245", "bezeichnung": "Von-Stauffenberg-Straße" }, "geometry": { "type": "Point", "coordinates": [ 7.158395508991847, 50.792423466245786 ] } },
{ "type": "Feature", "properties": { "strassenschluessel": "05382000005631246", "bezeichnung": "Wilhelm-Mittelmeier-Straße" }, "geometry": { "type": "Point", "coordinates": [ 7.163492844721413, 50.792169866526777 ] } },
{ "type": "Feature", "properties": { "strassenschluessel": "05382000005631247", "bezeichnung": "Albert-Schweitzer-Straße" }, "geometry": { "type": "Point", "coordinates": [ 7.196866000446529, 50.77988465165808 ] } },
{ "type": "Feature", "properties": { "strassenschluessel": "05382000005631248", "bezeichnung": "Alte Bonner Straße" }, "geometry": { "type": "Point", "coordinates": [ 7.200278946818109, 50.786425752305178 ] } },
{ "type": "Feature", "properties": { "strassenschluessel": "05382000005631249", "bezeichnung": "Am Lindenhof" }, "geometry": { "type": "Point", "coordinates": [ 7.194523144370568, 50.783522645434957 ] } },
{ "type": "Feature", "properties": { "strassenschluessel": "05382000005631250", "bezeichnung": "Ankerstraße" }, "geometry": { "type": "Point", "coordinates": [ 7.189250229120344, 50.786980910369046 ] } },
{ "type": "Feature", "properties": { "strassenschluessel": "05382000005631251", "bezeichnung": "An der Hongsburg" }, "geometry": { "type": "Point", "coordinates": [ 7.199780075161116, 50.782504029925995 ] } },
{ "type": "Feature", "properties": { "strassenschluessel": "05382000005631252", "bezeichnung": "An der Ziegelei" }, "geometry": { "type": "Point", "coordinates": [ 7.203464233976923, 50.784283035081558 ] } },
{ "type": "Feature", "properties": { "strassenschluessel": "05382000005631253", "bezeichnung": "Blumenstraße" }, "geometry": { "type": "Point", "coordinates": [ 7.190687252714534, 50.783791886998216 ] } },
{ "type": "Feature", "properties": { "strassenschluessel": "05382000005631254", "bezeichnung": "Bonner Straße" }, "geometry": { "type": "Point", "coordinates": [ 7.192155370473594, 50.779953287276079 ] } },
{ "type": "Feature", "properties": { "strassenschluessel": "05382000005631255", "bezeichnung": "Bootsweg" }, "geometry": { "type": "Point", "coordinates": [ 7.19163523747839, 50.785462669697111 ] } },
{ "type": "Feature", "properties": { "strassenschluessel": "05382000005631256", "bezeichnung": "Dahlienweg" }, "geometry": { "type": "Point", "coordinates": [ 7.191325338109688, 50.781437863941107 ] } },
{ "type": "Feature", "properties": { "strassenschluessel": "05382000005631257", "bezeichnung": "Dammstraße" }, "geometry": { "type": "Point", "coordinates": [ 7.195295420828647, 50.784992365633144 ] } },
{ "type": "Feature", "properties": { "strassenschluessel": "05382000005631258", "bezeichnung": "Fährstraße" }, "geometry": { "type": "Point", "coordinates": [ 7.189290428994004, 50.785152911600235 ] } },
{ "type": "Feature", "properties": { "strassenschluessel": "05382000005631259", "bezeichnung": "Gartenstraße" }, "geometry": { "type": "Point", "coordinates": [ 7.19391186459707, 50.778250074929247 ] } },
{ "type": "Feature", "properties": { "strassenschluessel": "05382000005631260", "bezeichnung": "Gottfried-Salz-Straße" }, "geometry": { "type": "Point", "coordinates": [ 7.19740229080606, 50.784166249198648 ] } },
{ "type": "Feature", "properties": { "strassenschluessel": "05382000005631261", "bezeichnung": "Grüner Weg" }, "geometry": { "type": "Point", "coordinates": [ 7.200763799117733, 50.780710268363151 ] } },
{ "type": "Feature", "properties": { "strassenschluessel": "05382000005631262", "bezeichnung": "Haus Heidefeld" }, "geometry": null },
{ "type": "Feature", "properties": { "strassenschluessel": "05382000005631263", "bezeichnung": "Holzweg" }, "geometry": { "type": "Point", "coordinates": [ 7.196466951832138, 50.77686568806719 ] } },
{ "type": "Feature", "properties": { "strassenschluessel": "05382000005631264", "bezeichnung": "Im Feldchen" }, "geometry": { "type": "Point", "coordinates": [ 7.200614691925999, 50.782313617222393 ] } },
{ "type": "Feature", "properties": { "strassenschluessel": "05382000005631265", "bezeichnung": "Im Wehrfeld" }, "geometry": { "type": "Point", "coordinates": [ 7.194227299514281, 50.779931733807977 ] } },
{ "type": "Feature", "properties": { "strassenschluessel": "05382000005631266", "bezeichnung": "In den Erlen" }, "geometry": { "type": "Point", "coordinates": [ 7.192207879442024, 50.785504941990673 ] } },
{ "type": "Feature", "properties": { "strassenschluessel": "05382000005631267", "bezeichnung": "In den Tannen" }, "geometry": { "type": "Point", "coordinates": [ 7.202968087606914, 50.783335906703925 ] } },
{ "type": "Feature", "properties": { "strassenschluessel": "05382000005631268", "bezeichnung": "Josef-Decker-Straße" }, "geometry": { "type": "Point", "coordinates": [ 7.198619960094892, 50.782393569444579 ] } },
{ "type": "Feature", "properties": { "strassenschluessel": "05382000005631269", "bezeichnung": "Jüchstraße" }, "geometry": { "type": "Point", "coordinates": [ 7.194494139546923, 50.784064904831375 ] } },
{ "type": "Feature", "properties": { "strassenschluessel": "05382000005631270", "bezeichnung": "Kahnweg" }, "geometry": { "type": "Point", "coordinates": [ 7.193332919108739, 50.785185094371798 ] } },
{ "type": "Feature", "properties": { "strassenschluessel": "05382000005631271", "bezeichnung": "Laubenweg" }, "geometry": { "type": "Point", "coordinates": [ 7.196346047986927, 50.781324079407668 ] } },
{ "type": "Feature", "properties": { "strassenschluessel": "05382000005631272", "bezeichnung": "Liegnitzstraße" }, "geometry": { "type": "Point", "coordinates": [ 7.200279500713934, 50.780182166182463 ] } },
{ "type": "Feature", "properties": { "strassenschluessel": "05382000005631273", "bezeichnung": "Marienburgstraße" }, "geometry": { "type": "Point", "coordinates": [ 7.198192829866325, 50.780600690578098 ] } },
{ "type": "Feature", "properties": { "strassenschluessel": "05382000005631274", "bezeichnung": "Meerstraße" }, "geometry": { "type": "Point", "coordinates": [ 7.202246212087258, 50.784036858068767 ] } },
{ "type": "Feature", "properties": { "strassenschluessel": "05382000005631276", "bezeichnung": "Mendener Straße" }, "geometry": { "type": "Point", "coordinates": [ 7.194041602995661, 50.784654442366275 ] } },
{ "type": "Feature", "properties": { "strassenschluessel": "05382000005631277", "bezeichnung": "Narzissenweg" }, "geometry": { "type": "Point", "coordinates": [ 7.192181101419362, 50.783112329982615 ] } },
{ "type": "Feature", "properties": { "strassenschluessel": "05382000005631278", "bezeichnung": "Niederpleiser Straße" }, "geometry": { "type": "Point", "coordinates": [ 7.199477120318954, 50.78166772994792 ] } },
{ "type": "Feature", "properties": { "strassenschluessel": "05382000005631279", "bezeichnung": "Pfarrweg" }, "geometry": { "type": "Point", "coordinates": [ 7.196996352538297, 50.783433748346049 ] } },
{ "type": "Feature", "properties": { "strassenschluessel": "05382000005631280", "bezeichnung": "Schiffsstraße" }, "geometry": { "type": "Point", "coordinates": [ 7.190233020655715, 50.786612997630989 ] } },
{ "type": "Feature", "properties": { "strassenschluessel": "05382000005631281", "bezeichnung": "Stralsunder Straße" }, "geometry": { "type": "Point", "coordinates": [ 7.199399226569165, 50.779695003450591 ] } },
{ "type": "Feature", "properties": { "strassenschluessel": "05382000005631282", "bezeichnung": "Südstraße" }, "geometry": { "type": "Point", "coordinates": [ 7.191695359374034, 50.779996312777108 ] } },
{ "type": "Feature", "properties": { "strassenschluessel": "05382000005631283", "bezeichnung": "Tulpenweg" }, "geometry": { "type": "Point", "coordinates": [ 7.189047116685837, 50.781756103765531 ] } },
{ "type": "Feature", "properties": { "strassenschluessel": "05382000005631284", "bezeichnung": "Veilchenweg" }, "geometry": { "type": "Point", "coordinates": [ 7.191495626701744, 50.782187902197862 ] } },
{ "type": "Feature", "properties": { "strassenschluessel": "05382000005631285", "bezeichnung": "Wehrfeldstraße" }, "geometry": { "type": "Point", "coordinates": [ 7.19315274530596, 50.778451115748297 ] } },
{ "type": "Feature", "properties": { "strassenschluessel": "05382000005631286", "bezeichnung": "Wellenstraße" }, "geometry": { "type": "Point", "coordinates": [ 7.190508768737057, 50.787173025976109 ] } },
{ "type": "Feature", "properties": { "strassenschluessel": "05382000005631287", "bezeichnung": "Ahornweg" }, "geometry": { "type": "Point", "coordinates": [ 7.205674005013572, 50.778417617970497 ] } },
{ "type": "Feature", "properties": { "strassenschluessel": "05382000005631288", "bezeichnung": "Alte Heerstraße" }, "geometry": { "type": "Point", "coordinates": [ 7.189158789670961, 50.767735753243059 ] } },
{ "type": "Feature", "properties": { "strassenschluessel": "05382000005631289", "bezeichnung": "Alte Marktstraße" }, "geometry": { "type": "Point", "coordinates": [ 7.219667417682172, 50.778086757031183 ] } },
{ "type": "Feature", "properties": { "strassenschluessel": "05382000005631290", "bezeichnung": "Alte Schulstraße" }, "geometry": { "type": "Point", "coordinates": [ 7.211271469421066, 50.772558322880293 ] } },
{ "type": "Feature", "properties": { "strassenschluessel": "05382000005631291", "bezeichnung": "Am Dachsbau" }, "geometry": { "type": "Point", "coordinates": [ 7.201349845809599, 50.763916032896724 ] } },
{ "type": "Feature", "properties": { "strassenschluessel": "05382000005631292", "bezeichnung": "Am Eichelkämpchen" }, "geometry": { "type": "Point", "coordinates": [ 7.208624352279333, 50.76914212286038 ] } },
{ "type": "Feature", "properties": { "strassenschluessel": "05382000005631293", "bezeichnung": "Am Engelsgraben" }, "geometry": { "type": "Point", "coordinates": [ 7.200921114702431, 50.781352005432034 ] } },
{ "type": "Feature", "properties": { "strassenschluessel": "05382000005631294", "bezeichnung": "Am Jesuitenhof" }, "geometry": { "type": "Point", "coordinates": [ 7.214053773007785, 50.775335241405713 ] } },
{ "type": "Feature", "properties": { "strassenschluessel": "05382000005631295", "bezeichnung": "Am Kreuzeck" }, "geometry": { "type": "Point", "coordinates": [ 7.197020514062473, 50.766790447835348 ] } },
{ "type": "Feature", "properties": { "strassenschluessel": "05382000005631296", "bezeichnung": "Am Mühlengraben" }, "geometry": { "type": "Point", "coordinates": [ 7.216651256989352, 50.762672085709752 ] } },
{ "type": "Feature", "properties": { "strassenschluessel": "05382000005631297", "bezeichnung": "Am Pleisbach" }, "geometry": { "type": "Point", "coordinates": [ 7.212026078607224, 50.779405582516084 ] } },
{ "type": "Feature", "properties": { "strassenschluessel": "05382000005631298", "bezeichnung": "Am Pleistalwerk" }, "geometry": null },
{ "type": "Feature", "properties": { "strassenschluessel": "05382000005631299", "bezeichnung": "Am Pleiser Wald" }, "geometry": { "type": "Point", "coordinates": [ 7.201113862736268, 50.762704495879177 ] } },
{ "type": "Feature", "properties": { "strassenschluessel": "05382000005631300", "bezeichnung": "Am Rehsprung" }, "geometry": { "type": "Point", "coordinates": [ 7.213709241038321, 50.769151995044339 ] } },
{ "type": "Feature", "properties": { "strassenschluessel": "05382000005631301", "bezeichnung": "Am Schmerbroich" }, "geometry": { "type": "Point", "coordinates": [ 7.21448399920478, 50.763212331159068 ] } },
{ "type": "Feature", "properties": { "strassenschluessel": "05382000005631302", "bezeichnung": "Am Siemensbach" }, "geometry": { "type": "Point", "coordinates": [ 7.199453205844143, 50.765576199408102 ] } },
{ "type": "Feature", "properties": { "strassenschluessel": "05382000005631303", "bezeichnung": "Antoniusstraße" }, "geometry": { "type": "Point", "coordinates": [ 7.208664802193933, 50.771710688534299 ] } },
{ "type": "Feature", "properties": { "strassenschluessel": "05382000005631304", "bezeichnung": "Bahnstraße" }, "geometry": { "type": "Point", "coordinates": [ 7.211085347602604, 50.770462303379659 ] } },
{ "type": "Feature", "properties": { "strassenschluessel": "05382000005631305", "bezeichnung": "Baumschulweg" }, "geometry": { "type": "Point", "coordinates": [ 7.216059644217443, 50.756851946636978 ] } },
{ "type": "Feature", "properties": { "strassenschluessel": "05382000005631306", "bezeichnung": "Biberweg" }, "geometry": { "type": "Point", "coordinates": [ 7.2136088538998, 50.774449775725266 ] } },
{ "type": "Feature", "properties": { "strassenschluessel": "05382000005631307", "bezeichnung": "Birkenweg" }, "geometry": { "type": "Point", "coordinates": [ 7.205078716009711, 50.778687207988526 ] } },
{ "type": "Feature", "properties": { "strassenschluessel": "05382000005631308", "bezeichnung": "Birlinghovener Straße" }, "geometry": { "type": "Point", "coordinates": [ 7.224892613517972, 50.753232146382373 ] } },
{ "type": "Feature", "properties": { "strassenschluessel": "05382000005631309", "bezeichnung": "Bönnscher Weg" }, "geometry": { "type": "Point", "coordinates": [ 7.209926082517952, 50.773096178338605 ] } },
{ "type": "Feature", "properties": { "strassenschluessel": "05382000005631310", "bezeichnung": "Brueghelstraße" }, "geometry": { "type": "Point", "coordinates": [ 7.205915868018314, 50.78168335295306 ] } },
{ "type": "Feature", "properties": { "strassenschluessel": "05382000005631311", "bezeichnung": "Buchenweg" }, "geometry": { "type": "Point", "coordinates": [ 7.204457585258466, 50.778346217859706 ] } },
{ "type": "Feature", "properties": { "strassenschluessel": "05382000005631312", "bezeichnung": "Cranachstraße" }, "geometry": { "type": "Point", "coordinates": [ 7.20414884450473, 50.781829633871425 ] } },
{ "type": "Feature", "properties": { "strassenschluessel": "05382000005631313", "bezeichnung": "Eibenweg" }, "geometry": { "type": "Point", "coordinates": [ 7.198684826309647, 50.777600590569641 ] } },
{ "type": "Feature", "properties": { "strassenschluessel": "05382000005631314", "bezeichnung": "Eichhörnchenweg" }, "geometry": { "type": "Point", "coordinates": [ 7.201458651832576, 50.762021658081132 ] } },
{ "type": "Feature", "properties": { "strassenschluessel": "05382000005631315", "bezeichnung": "Eschenweg" }, "geometry": { "type": "Point", "coordinates": [ 7.206450466468531, 50.776612561038668 ] } },
{ "type": "Feature", "properties": { "strassenschluessel": "05382000005631316", "bezeichnung": "Feuerbachstraße" }, "geometry": { "type": "Point", "coordinates": [ 7.208531927734872, 50.780572501665496 ] } },
{ "type": "Feature", "properties": { "strassenschluessel": "05382000005631317", "bezeichnung": "Fichtenweg" }, "geometry": { "type": "Point", "coordinates": [ 7.206274989660342, 50.778183610773496 ] } },
{ "type": "Feature", "properties": { "strassenschluessel": "05382000005631318", "bezeichnung": "Frans-Hals-Straße" }, "geometry": { "type": "Point", "coordinates": [ 7.207824914303696, 50.780786804672744 ] } },
{ "type": "Feature", "properties": { "strassenschluessel": "05382000005631319", "bezeichnung": "Freie Buschstraße" }, "geometry": { "type": "Point", "coordinates": [ 7.211306699602262, 50.77399266095717 ] } },
{ "type": "Feature", "properties": { "strassenschluessel": "05382000005631320", "bezeichnung": "Friedhofstraße" }, "geometry": { "type": "Point", "coordinates": [ 7.218760173585029, 50.777577186905397 ] } },
{ "type": "Feature", "properties": { "strassenschluessel": "05382000005631321", "bezeichnung": "Fuchspfad" }, "geometry": { "type": "Point", "coordinates": [ 7.213082217644717, 50.769672900780805 ] } },
{ "type": "Feature", "properties": { "strassenschluessel": "05382000005631322", "bezeichnung": "Grüner Weg" }, "geometry": { "type": "Point", "coordinates": [ 7.20256399536313, 50.780089132985083 ] } },
{ "type": "Feature", "properties": { "strassenschluessel": "05382000005631323", "bezeichnung": "Habichtweg" }, "geometry": { "type": "Point", "coordinates": [ 7.209853273605836, 50.762436433191702 ] } },
{ "type": "Feature", "properties": { "strassenschluessel": "05382000005631324", "bezeichnung": "Hauptstraße" }, "geometry": { "type": "Point", "coordinates": [ 7.208004004347152, 50.770474383793889 ] } },
{ "type": "Feature", "properties": { "strassenschluessel": "05382000005631325", "bezeichnung": "Höldersteg" }, "geometry": null },
{ "type": "Feature", "properties": { "strassenschluessel": "05382000005631326", "bezeichnung": "Holunderweg" }, "geometry": { "type": "Point", "coordinates": [ 7.207284728432856, 50.777643074572616 ] } },
{ "type": "Feature", "properties": { "strassenschluessel": "05382000005631327", "bezeichnung": "Ignatiusstraße" }, "geometry": { "type": "Point", "coordinates": [ 7.212874470907921, 50.775619920084644 ] } },
{ "type": "Feature", "properties": { "strassenschluessel": "05382000005631328", "bezeichnung": "Iltisweg" }, "geometry": { "type": "Point", "coordinates": [ 7.200225684184648, 50.762083792169925 ] } },
{ "type": "Feature", "properties": { "strassenschluessel": "05382000005631329", "bezeichnung": "Im Feldgarten" }, "geometry": { "type": "Point", "coordinates": [ 7.208877471650744, 50.771634360958565 ] } },
{ "type": "Feature", "properties": { "strassenschluessel": "05382000005631330", "bezeichnung": "Im Gässchen" }, "geometry": { "type": "Point", "coordinates": [ 7.213215423972051, 50.773826679554112 ] } },
{ "type": "Feature", "properties": { "strassenschluessel": "05382000005631331", "bezeichnung": "Im Rehefeld" }, "geometry": { "type": "Point", "coordinates": [ 7.208325936684793, 50.761809637222143 ] } },
{ "type": "Feature", "properties": { "strassenschluessel": "05382000005631332", "bezeichnung": "In der Aue" }, "geometry": { "type": "Point", "coordinates": [ 7.215908128594216, 50.763685895087669 ] } },
{ "type": "Feature", "properties": { "strassenschluessel": "05382000005631333", "bezeichnung": "In der Mersbach" }, "geometry": { "type": "Point", "coordinates": [ 7.215840307803576, 50.776683065445255 ] } },
{ "type": "Feature", "properties": { "strassenschluessel": "05382000005631334", "bezeichnung": "Kastanienweg" }, "geometry": { "type": "Point", "coordinates": [ 7.205595337522371, 50.774142957345902 ] } },
{ "type": "Feature", "properties": { "strassenschluessel": "05382000005631335", "bezeichnung": "Kiefernweg" }, "geometry": { "type": "Point", "coordinates": [ 7.206851664631655, 50.777558134629089 ] } },
{ "type": "Feature", "properties": { "strassenschluessel": "05382000005631336", "bezeichnung": "Kuckuckweg" }, "geometry": { "type": "Point", "coordinates": [ 7.209401839582027, 50.76498976738673 ] } },
{ "type": "Feature", "properties": { "strassenschluessel": "05382000005631337", "bezeichnung": "Langstraße" }, "geometry": { "type": "Point", "coordinates": [ 7.224666238452266, 50.772541756326028 ] } },
{ "type": "Feature", "properties": { "strassenschluessel": "05382000005631338", "bezeichnung": "Lochnerstraße" }, "geometry": { "type": "Point", "coordinates": [ 7.206363286232589, 50.78060304786564 ] } },
{ "type": "Feature", "properties": { "strassenschluessel": "05382000005631339", "bezeichnung": "Marderweg" }, "geometry": { "type": "Point", "coordinates": [ 7.199279767472839, 50.763654587726421 ] } },
{ "type": "Feature", "properties": { "strassenschluessel": "05382000005631340", "bezeichnung": "Martinuskirchstraße" }, "geometry": { "type": "Point", "coordinates": [ 7.215478316831344, 50.775337885134235 ] } },
{ "type": "Feature", "properties": { "strassenschluessel": "05382000005631341", "bezeichnung": "Meisenweg" }, "geometry": { "type": "Point", "coordinates": [ 7.212259790211601, 50.768911440438366 ] } },
{ "type": "Feature", "properties": { "strassenschluessel": "05382000005631342", "bezeichnung": "Menzelstraße" }, "geometry": { "type": "Point", "coordinates": [ 7.209726436020023, 50.780157385142772 ] } },
{ "type": "Feature", "properties": { "strassenschluessel": "05382000005631343", "bezeichnung": "Mülldorfer Straße" }, "geometry": { "type": "Point", "coordinates": [ 7.209307064590159, 50.778468994722665 ] } },
{ "type": "Feature", "properties": { "strassenschluessel": "05382000005631344", "bezeichnung": "Niederpleiser Straße" }, "geometry": { "type": "Point", "coordinates": [ 7.206768573257388, 50.777052254996065 ] } },
{ "type": "Feature", "properties": { "strassenschluessel": "05382000005631345", "bezeichnung": "Nordstraße" }, "geometry": { "type": "Point", "coordinates": [ 7.20742013609955, 50.775653702826951 ] } },
{ "type": "Feature", "properties": { "strassenschluessel": "05382000005631346", "bezeichnung": "Oelgartenstraße" }, "geometry": { "type": "Point", "coordinates": [ 7.221572771568534, 50.77094695119527 ] } },
{ "type": "Feature", "properties": { "strassenschluessel": "05382000005631347", "bezeichnung": "Pappelweg" }, "geometry": { "type": "Point", "coordinates": [ 7.203034635899153, 50.775722961942044 ] } },
{ "type": "Feature", "properties": { "strassenschluessel": "05382000005631348", "bezeichnung": "Parkweg" }, "geometry": null },
{ "type": "Feature", "properties": { "strassenschluessel": "05382000005631349", "bezeichnung": "Pastoratsweg" }, "geometry": { "type": "Point", "coordinates": [ 7.217751842518199, 50.776720580097482 ] } },
{ "type": "Feature", "properties": { "strassenschluessel": "05382000005631350", "bezeichnung": "Pastor-Hochhard-Straße" }, "geometry": { "type": "Point", "coordinates": [ 7.214853405611581, 50.775952484127721 ] } },
{ "type": "Feature", "properties": { "strassenschluessel": "05382000005631351", "bezeichnung": "Paul-Gerhardt-Straße" }, "geometry": { "type": "Point", "coordinates": [ 7.210858495764714, 50.776472729098963 ] } },
{ "type": "Feature", "properties": { "strassenschluessel": "05382000005631352", "bezeichnung": "Platanenweg" }, "geometry": { "type": "Point", "coordinates": [ 7.203825111698601, 50.778777187941188 ] } },
{ "type": "Feature", "properties": { "strassenschluessel": "05382000005631353", "bezeichnung": "Pleistalstraße" }, "geometry": { "type": "Point", "coordinates": [ 7.213981909022325, 50.755260351923575 ] } },
{ "type": "Feature", "properties": { "strassenschluessel": "05382000005631354", "bezeichnung": "Pleisufer" }, "geometry": { "type": "Point", "coordinates": [ 7.215707259776394, 50.77323901670421 ] } },
{ "type": "Feature", "properties": { "strassenschluessel": "05382000005631355", "bezeichnung": "Rebenstraße" }, "geometry": { "type": "Point", "coordinates": [ 7.214220176268146, 50.772153409846446 ] } },
{ "type": "Feature", "properties": { "strassenschluessel": "05382000005631356", "bezeichnung": "Rethelstraße" }, "geometry": { "type": "Point", "coordinates": [ 7.204085125464214, 50.781300433374831 ] } },
{ "type": "Feature", "properties": { "strassenschluessel": "05382000005631357", "bezeichnung": "Roncallistraße" }, "geometry": { "type": "Point", "coordinates": [ 7.212985055357546, 50.773449631037018 ] } },
{ "type": "Feature", "properties": { "strassenschluessel": "05382000005631358", "bezeichnung": "Rotdornweg" }, "geometry": { "type": "Point", "coordinates": [ 7.204237000161005, 50.775278901114916 ] } },
{ "type": "Feature", "properties": { "strassenschluessel": "05382000005631359", "bezeichnung": "Schnepfenweg" }, "geometry": { "type": "Point", "coordinates": [ 7.212996795491722, 50.760402540418021 ] } },
{ "type": "Feature", "properties": { "strassenschluessel": "05382000005631360", "bezeichnung": "Schützenweg" }, "geometry": { "type": "Point", "coordinates": [ 7.206725150826928, 50.769323608014219 ] } },
{ "type": "Feature", "properties": { "strassenschluessel": "05382000005631361", "bezeichnung": "Schulstraße" }, "geometry": { "type": "Point", "coordinates": [ 7.210112173277353, 50.776037041927125 ] } },
{ "type": "Feature", "properties": { "strassenschluessel": "05382000005631362", "bezeichnung": "Schwalbenweg" }, "geometry": { "type": "Point", "coordinates": [ 7.209221001067426, 50.768090440839629 ] } },
{ "type": "Feature", "properties": { "strassenschluessel": "05382000005631363", "bezeichnung": "Sonnenrain" }, "geometry": { "type": "Point", "coordinates": [ 7.212311961103334, 50.762309264983962 ] } },
{ "type": "Feature", "properties": { "strassenschluessel": "05382000005631364", "bezeichnung": "Spechtweg" }, "geometry": { "type": "Point", "coordinates": [ 7.211306540059065, 50.76387948654839 ] } },
{ "type": "Feature", "properties": { "strassenschluessel": "05382000005631365", "bezeichnung": "Sperlingsweg" }, "geometry": { "type": "Point", "coordinates": [ 7.210982760938003, 50.763088142532695 ] } },
{ "type": "Feature", "properties": { "strassenschluessel": "05382000005631366", "bezeichnung": "Spitzwegstraße" }, "geometry": { "type": "Point", "coordinates": [ 7.208974555237654, 50.779483533124285 ] } },
{ "type": "Feature", "properties": { "strassenschluessel": "05382000005631367", "bezeichnung": "Steinkreuzstraße" }, "geometry": { "type": "Point", "coordinates": [ 7.209079700133514, 50.775461662798158 ] } },
{ "type": "Feature", "properties": { "strassenschluessel": "05382000005631368", "bezeichnung": "Ulmenweg" }, "geometry": { "type": "Point", "coordinates": [ 7.204033354069042, 50.77739536162084 ] } },
{ "type": "Feature", "properties": { "strassenschluessel": "05382000005631369", "bezeichnung": "Van-Dyck-Straße" }, "geometry": { "type": "Point", "coordinates": [ 7.207076961143323, 50.781517145092671 ] } },
{ "type": "Feature", "properties": { "strassenschluessel": "05382000005631370", "bezeichnung": "Viehtrift" }, "geometry": { "type": "Point", "coordinates": [ 7.213988287717578, 50.756416029201752 ] } },
{ "type": "Feature", "properties": { "strassenschluessel": "05382000005631371", "bezeichnung": "Wacholderweg" }, "geometry": { "type": "Point", "coordinates": [ 7.200052199649924, 50.778064772081038 ] } },
{ "type": "Feature", "properties": { "strassenschluessel": "05382000005631372", "bezeichnung": "Wiesenpfad" }, "geometry": { "type": "Point", "coordinates": [ 7.213126958155796, 50.762704126628307 ] } },
{ "type": "Feature", "properties": { "strassenschluessel": "05382000005631373", "bezeichnung": "Zeisigweg" }, "geometry": { "type": "Point", "coordinates": [ 7.209111687962015, 50.769404949897115 ] } },
{ "type": "Feature", "properties": { "strassenschluessel": "05382000005631374", "bezeichnung": "Alte Heerstraße" }, "geometry": { "type": "Point", "coordinates": [ 7.191011839142179, 50.766175194698462 ] } },
{ "type": "Feature", "properties": { "strassenschluessel": "05382000005631375", "bezeichnung": "Am Kirschbäumchen" }, "geometry": { "type": "Point", "coordinates": [ 7.192811541498343, 50.773685603956217 ] } },
{ "type": "Feature", "properties": { "strassenschluessel": "05382000005631376", "bezeichnung": "Am Rotbusch" }, "geometry": { "type": "Point", "coordinates": [ 7.192402118149585, 50.7755462327762 ] } },
{ "type": "Feature", "properties": { "strassenschluessel": "05382000005631377", "bezeichnung": "An den Drei Eichen" }, "geometry": { "type": "Point", "coordinates": [ 7.189978899355492, 50.769441722739543 ] } },
{ "type": "Feature", "properties": { "strassenschluessel": "05382000005631378", "bezeichnung": "An der Schleuterbach" }, "geometry": { "type": "Point", "coordinates": [ 7.192433432798928, 50.772635992346352 ] } },
{ "type": "Feature", "properties": { "strassenschluessel": "05382000005631379", "bezeichnung": "Arnold-Janssen-Straße" }, "geometry": { "type": "Point", "coordinates": [ 7.17993596103944, 50.775275531859656 ] } },
{ "type": "Feature", "properties": { "strassenschluessel": "05382000005631380", "bezeichnung": "Auf der Heide" }, "geometry": { "type": "Point", "coordinates": [ 7.185370938609337, 50.769666077401745 ] } },
{ "type": "Feature", "properties": { "strassenschluessel": "05382000005631381", "bezeichnung": "Berliner Straße" }, "geometry": { "type": "Point", "coordinates": [ 7.188414177086834, 50.765706878147036 ] } },
{ "type": "Feature", "properties": { "strassenschluessel": "05382000005631382", "bezeichnung": "Boelckestraße" }, "geometry": { "type": "Point", "coordinates": [ 7.183731117623703, 50.769706641113167 ] } },
{ "type": "Feature", "properties": { "strassenschluessel": "05382000005631383", "bezeichnung": "Bonner Straße" }, "geometry": { "type": "Point", "coordinates": [ 7.187229054561651, 50.775060570067787 ] } },
{ "type": "Feature", "properties": { "strassenschluessel": "05382000005631384", "bezeichnung": "Breslauer Straße" }, "geometry": { "type": "Point", "coordinates": [ 7.181157368463058, 50.768493951706539 ] } },
{ "type": "Feature", "properties": { "strassenschluessel": "05382000005631385", "bezeichnung": "Brunnenstraße" }, "geometry": { "type": "Point", "coordinates": [ 7.192455044645694, 50.775878301657741 ] } },
{ "type": "Feature", "properties": { "strassenschluessel": "05382000005631386", "bezeichnung": "Danziger Straße" }, "geometry": { "type": "Point", "coordinates": [ 7.181035522806477, 50.766837162647491 ] } },
{ "type": "Feature", "properties": { "strassenschluessel": "05382000005631387", "bezeichnung": "Von-Eichendorff-Straße" }, "geometry": { "type": "Point", "coordinates": [ 7.188447791216327, 50.770771747693203 ] } },
{ "type": "Feature", "properties": { "strassenschluessel": "05382000005631388", "bezeichnung": "Ernst-Moritz-Arndt-Straße" }, "geometry": { "type": "Point", "coordinates": [ 7.182211143061303, 50.769864089365889 ] } },
{ "type": "Feature", "properties": { "strassenschluessel": "05382000005631389", "bezeichnung": "Friedensstraße" }, "geometry": { "type": "Point", "coordinates": [ 7.189672492137361, 50.774648968928851 ] } },
{ "type": "Feature", "properties": { "strassenschluessel": "05382000005631390", "bezeichnung": "Fröbelstraße" }, "geometry": { "type": "Point", "coordinates": [ 7.187973971260648, 50.769272537712986 ] } },
{ "type": "Feature", "properties": { "strassenschluessel": "05382000005631391", "bezeichnung": "Goethestraße" }, "geometry": { "type": "Point", "coordinates": [ 7.185232605841431, 50.771398540973429 ] } },
{ "type": "Feature", "properties": { "strassenschluessel": "05382000005631392", "bezeichnung": "Gottfried-Keller-Straße" }, "geometry": { "type": "Point", "coordinates": [ 7.182860165320456, 50.7721579631841 ] } },
{ "type": "Feature", "properties": { "strassenschluessel": "05382000005631393", "bezeichnung": "Großenbuschstraße" }, "geometry": null },
{ "type": "Feature", "properties": { "strassenschluessel": "05382000005631394", "bezeichnung": "Hammstraße" }, "geometry": { "type": "Point", "coordinates": [ 7.182875409633719, 50.768110389272259 ] } },
{ "type": "Feature", "properties": { "strassenschluessel": "05382000005631395", "bezeichnung": "Heinrich-Heine-Straße" }, "geometry": { "type": "Point", "coordinates": [ 7.182653295751109, 50.770701042418622 ] } },
{ "type": "Feature", "properties": { "strassenschluessel": "05382000005631396", "bezeichnung": "Heilsberger Straße" }, "geometry": { "type": "Point", "coordinates": [ 7.182421070720916, 50.767001446171783 ] } },
{ "type": "Feature", "properties": { "strassenschluessel": "05382000005631397", "bezeichnung": "Herderstraße" }, "geometry": { "type": "Point", "coordinates": [ 7.190839340935509, 50.770584340484994 ] } },
{ "type": "Feature", "properties": { "strassenschluessel": "05382000005631398", "bezeichnung": "Hermann-Löns-Straße" }, "geometry": { "type": "Point", "coordinates": [ 7.182805761071615, 50.773014202132678 ] } },
{ "type": "Feature", "properties": { "strassenschluessel": "05382000005631399", "bezeichnung": "Hennefer Straße" }, "geometry": { "type": "Point", "coordinates": [ 7.188178278288733, 50.772863751502307 ] } },
{ "type": "Feature", "properties": { "strassenschluessel": "05382000005631400", "bezeichnung": "Holzweg" }, "geometry": { "type": "Point", "coordinates": [ 7.196243111078775, 50.775406364797185 ] } },
{ "type": "Feature", "properties": { "strassenschluessel": "05382000005631401", "bezeichnung": "Hubert-Minz-Straße" }, "geometry": { "type": "Point", "coordinates": [ 7.183385427240305, 50.775835733195841 ] } },
{ "type": "Feature", "properties": { "strassenschluessel": "05382000005631402", "bezeichnung": "Hubertusstraße" }, "geometry": { "type": "Point", "coordinates": [ 7.18550764672791, 50.768539722264613 ] } },
{ "type": "Feature", "properties": { "strassenschluessel": "05382000005631403", "bezeichnung": "Husarenstraße" }, "geometry": { "type": "Point", "coordinates": [ 7.175535814645051, 50.773289604963601 ] } },
{ "type": "Feature", "properties": { "strassenschluessel": "05382000005631404", "bezeichnung": "Kleiststraße" }, "geometry": { "type": "Point", "coordinates": [ 7.187475860266002, 50.773544949046375 ] } },
{ "type": "Feature", "properties": { "strassenschluessel": "05382000005631405", "bezeichnung": "Klosterstraße" }, "geometry": { "type": "Point", "coordinates": [ 7.18030406975336, 50.771707410354729 ] } },
{ "type": "Feature", "properties": { "strassenschluessel": "05382000005631406", "bezeichnung": "Königsberger Straße" }, "geometry": { "type": "Point", "coordinates": [ 7.17992233046998, 50.768875019292075 ] } },
{ "type": "Feature", "properties": { "strassenschluessel": "05382000005631407", "bezeichnung": "Marienkirchstraße" }, "geometry": { "type": "Point", "coordinates": [ 7.189642023141659, 50.772041388690084 ] } },
{ "type": "Feature", "properties": { "strassenschluessel": "05382000005631408", "bezeichnung": "Matthias-Claudius-Straße" }, "geometry": { "type": "Point", "coordinates": [ 7.187160554680438, 50.771899443632947 ] } },
{ "type": "Feature", "properties": { "strassenschluessel": "05382000005631409", "bezeichnung": "Pauluskirchstraße" }, "geometry": { "type": "Point", "coordinates": [ 7.187394236895304, 50.769663668134463 ] } },
{ "type": "Feature", "properties": { "strassenschluessel": "05382000005631410", "bezeichnung": "Pestalozzistraße" }, "geometry": { "type": "Point", "coordinates": [ 7.183839600427221, 50.767533747928177 ] } },
{ "type": "Feature", "properties": { "strassenschluessel": "05382000005631411", "bezeichnung": "Rilkestraße" }, "geometry": { "type": "Point", "coordinates": [ 7.188396690324942, 50.774299705056514 ] } },
{ "type": "Feature", "properties": { "strassenschluessel": "05382000005631412", "bezeichnung": "Sandstraße" }, "geometry": { "type": "Point", "coordinates": [ 7.192037193907726, 50.776856089650209 ] } },
{ "type": "Feature", "properties": { "strassenschluessel": "05382000005631413", "bezeichnung": "Schillerstraße" }, "geometry": { "type": "Point", "coordinates": [ 7.187240763624137, 50.772328937035226 ] } },
{ "type": "Feature", "properties": { "strassenschluessel": "05382000005631414", "bezeichnung": "Sonnenweg" }, "geometry": { "type": "Point", "coordinates": [ 7.184207186556458, 50.774627918791893 ] } },
{ "type": "Feature", "properties": { "strassenschluessel": "05382000005631415", "bezeichnung": "Stettiner Straße" }, "geometry": { "type": "Point", "coordinates": [ 7.181028551444602, 50.767600777306086 ] } },
{ "type": "Feature", "properties": { "strassenschluessel": "05382000005631416", "bezeichnung": "Tannenweg" }, "geometry": { "type": "Point", "coordinates": [ 7.192971977124161, 50.765479028539666 ] } },
{ "type": "Feature", "properties": { "strassenschluessel": "05382000005631417", "bezeichnung": "Theodor-Storm-Allee" }, "geometry": { "type": "Point", "coordinates": [ 7.180755597209795, 50.771720742585224 ] } },
{ "type": "Feature", "properties": { "strassenschluessel": "05382000005631418", "bezeichnung": "Uhlandstraße" }, "geometry": { "type": "Point", "coordinates": [ 7.185925618561407, 50.769091939959878 ] } },
{ "type": "Feature", "properties": { "strassenschluessel": "05382000005631419", "bezeichnung": "Vom-Stein-Straße" }, "geometry": { "type": "Point", "coordinates": [ 7.189173503078872, 50.775580122939701 ] } },
{ "type": "Feature", "properties": { "strassenschluessel": "05382000005631420", "bezeichnung": "Waldstraße" }, "geometry": { "type": "Point", "coordinates": [ 7.19334091554281, 50.76460659553041 ] } },
{ "type": "Feature", "properties": { "strassenschluessel": "05382000005631424", "bezeichnung": "Thüringer Allee" }, "geometry": { "type": "Point", "coordinates": [ 7.192132580278984, 50.758018832544344 ] } },
{ "type": "Feature", "properties": { "strassenschluessel": "05382000005631427", "bezeichnung": "Boettgerstraße" }, "geometry": { "type": "Point", "coordinates": [ 7.16689242195503, 50.784044087138049 ] } },
{ "type": "Feature", "properties": { "strassenschluessel": "05382000005631430", "bezeichnung": "Am Jeuchel" }, "geometry": null },
{ "type": "Feature", "properties": { "strassenschluessel": "05382000005631432", "bezeichnung": "Bussardstraße" }, "geometry": { "type": "Point", "coordinates": [ 7.214144512719779, 50.767557346849223 ] } },
{ "type": "Feature", "properties": { "strassenschluessel": "05382000005631433", "bezeichnung": "Falkenweg" }, "geometry": { "type": "Point", "coordinates": [ 7.211962658792029, 50.766449176217634 ] } },
{ "type": "Feature", "properties": { "strassenschluessel": "05382000005631437", "bezeichnung": "Hasenweg" }, "geometry": { "type": "Point", "coordinates": [ 7.201428707497121, 50.760638514798529 ] } },
{ "type": "Feature", "properties": { "strassenschluessel": "05382000005631441", "bezeichnung": "Am Thomaskreuzchen" }, "geometry": { "type": "Point", "coordinates": [ 7.1948895013715, 50.768758118096329 ] } },
{ "type": "Feature", "properties": { "strassenschluessel": "05382000005631442", "bezeichnung": "Fliederweg" }, "geometry": { "type": "Point", "coordinates": [ 7.193528999444108, 50.76884541388894 ] } },
{ "type": "Feature", "properties": { "strassenschluessel": "05382000005631443", "bezeichnung": "Ginsterweg" }, "geometry": { "type": "Point", "coordinates": [ 7.196085058443638, 50.770536237640442 ] } },
{ "type": "Feature", "properties": { "strassenschluessel": "05382000005631445", "bezeichnung": "Rathausallee" }, "geometry": { "type": "Point", "coordinates": [ 7.185267887364438, 50.775352913751298 ] } },
{ "type": "Feature", "properties": { "strassenschluessel": "05382000005631446", "bezeichnung": "Louis-Hagen-Straße" }, "geometry": { "type": "Point", "coordinates": [ 7.219475565678848, 50.75294345290304 ] } },
{ "type": "Feature", "properties": { "strassenschluessel": "05382000005631447", "bezeichnung": "Rautenstrauchstraße" }, "geometry": { "type": "Point", "coordinates": [ 7.220785339462949, 50.750690629556473 ] } },
{ "type": "Feature", "properties": { "strassenschluessel": "05382000005631448", "bezeichnung": "Im Spichelsfeld" }, "geometry": { "type": "Point", "coordinates": [ 7.186835602779061, 50.78235066169772 ] } },
{ "type": "Feature", "properties": { "strassenschluessel": "05382000005631449", "bezeichnung": "Dietrich-Bonhoeffer-Straße" }, "geometry": { "type": "Point", "coordinates": [ 7.192987352460396, 50.783116740849771 ] } },
{ "type": "Feature", "properties": { "strassenschluessel": "05382000005631450", "bezeichnung": "Von-Claer-Straße" }, "geometry": { "type": "Point", "coordinates": [ 7.188185666310946, 50.781237445420054 ] } },
{ "type": "Feature", "properties": { "strassenschluessel": "05382000005631451", "bezeichnung": "Am Scherenstück" }, "geometry": { "type": "Point", "coordinates": [ 7.199119778274264, 50.771382384629256 ] } },
{ "type": "Feature", "properties": { "strassenschluessel": "05382000005631452", "bezeichnung": "Am Struch" }, "geometry": { "type": "Point", "coordinates": [ 7.199089104465878, 50.772569444178899 ] } },
{ "type": "Feature", "properties": { "strassenschluessel": "05382000005631453", "bezeichnung": "Pleiser Dreieck" }, "geometry": { "type": "Point", "coordinates": [ 7.194503651757581, 50.774094958834326 ] } },
{ "type": "Feature", "properties": { "strassenschluessel": "05382000005631454", "bezeichnung": "Sanddornweg" }, "geometry": { "type": "Point", "coordinates": [ 7.203487220915673, 50.774570167058258 ] } },
{ "type": "Feature", "properties": { "strassenschluessel": "05382000005631456", "bezeichnung": "Weißdornweg" }, "geometry": { "type": "Point", "coordinates": [ 7.204001258858621, 50.774215170466235 ] } },
{ "type": "Feature", "properties": { "strassenschluessel": "05382000005631457", "bezeichnung": "Zedernweg" }, "geometry": { "type": "Point", "coordinates": [ 7.196813320414853, 50.775580335748828 ] } },
{ "type": "Feature", "properties": { "strassenschluessel": "05382000005631458", "bezeichnung": "Markt" }, "geometry": { "type": "Point", "coordinates": [ 7.186463616629872, 50.776511968505872 ] } },
{ "type": "Feature", "properties": { "strassenschluessel": "05382000005631459", "bezeichnung": "Boschstraße" }, "geometry": { "type": "Point", "coordinates": [ 7.162892794576429, 50.786812389657456 ] } },
{ "type": "Feature", "properties": { "strassenschluessel": "05382000005631460", "bezeichnung": "Keplerstraße" }, "geometry": { "type": "Point", "coordinates": [ 7.162749530525456, 50.782244577499689 ] } },
{ "type": "Feature", "properties": { "strassenschluessel": "05382000005631462", "bezeichnung": "Rostocker Straße" }, "geometry": { "type": "Point", "coordinates": [ 7.197652174858626, 50.778786484516793 ] } },
{ "type": "Feature", "properties": { "strassenschluessel": "05382000005631463", "bezeichnung": "Westerwaldstraße" }, "geometry": { "type": "Point", "coordinates": [ 7.172643972934541, 50.757344380552375 ] } },
{ "type": "Feature", "properties": { "strassenschluessel": "05382000005631464", "bezeichnung": "Rathausallee" }, "geometry": { "type": "Point", "coordinates": [ 7.185250121669061, 50.775700830206958 ] } },
{ "type": "Feature", "properties": { "strassenschluessel": "05382000005631465", "bezeichnung": "Zedernweg" }, "geometry": { "type": "Point", "coordinates": [ 7.198249347487248, 50.777260761860568 ] } },
{ "type": "Feature", "properties": { "strassenschluessel": "05382000005631466", "bezeichnung": "Am Park" }, "geometry": { "type": "Point", "coordinates": [ 7.197096361050155, 50.773354211422976 ] } },
{ "type": "Feature", "properties": { "strassenschluessel": "05382000005631467", "bezeichnung": "Ilmenaustraße" }, "geometry": { "type": "Point", "coordinates": [ 7.182891313546342, 50.762356345717549 ] } },
{ "type": "Feature", "properties": { "strassenschluessel": "05382000005631468", "bezeichnung": "Siemensstraße" }, "geometry": { "type": "Point", "coordinates": [ 7.162926287523605, 50.785876235696612 ] } },
{ "type": "Feature", "properties": { "strassenschluessel": "05382000005631469", "bezeichnung": "Zedernweg" }, "geometry": null },
{ "type": "Feature", "properties": { "strassenschluessel": "05382000005631470", "bezeichnung": "Neckarstraße" }, "geometry": { "type": "Point", "coordinates": [ 7.181184774797444, 50.759804546992946 ] } },
{ "type": "Feature", "properties": { "strassenschluessel": "05382000005631471", "bezeichnung": "Eibenweg" }, "geometry": null },
{ "type": "Feature", "properties": { "strassenschluessel": "05382000005631472", "bezeichnung": "Holzweg" }, "geometry": null },
{ "type": "Feature", "properties": { "strassenschluessel": "05382000005631473", "bezeichnung": "Otto-Wels-Straße" }, "geometry": { "type": "Point", "coordinates": [ 7.231870063390022, 50.787268207310106 ] } },
{ "type": "Feature", "properties": { "strassenschluessel": "05382000005631474", "bezeichnung": "Am Sandberg" }, "geometry": { "type": "Point", "coordinates": [ 7.203293986296734, 50.770716657552974 ] } },
{ "type": "Feature", "properties": { "strassenschluessel": "05382000005631475", "bezeichnung": "Steinkaule" }, "geometry": { "type": "Point", "coordinates": [ 7.204841396477741, 50.771083125116441 ] } },
{ "type": "Feature", "properties": { "strassenschluessel": "05382000005631476", "bezeichnung": "Sandkaule" }, "geometry": { "type": "Point", "coordinates": [ 7.207185469436473, 50.772091843423709 ] } },
{ "type": "Feature", "properties": { "strassenschluessel": "05382000005631477", "bezeichnung": "Schützeiche" }, "geometry": { "type": "Point", "coordinates": [ 7.203567762711632, 50.771926629899923 ] } },
{ "type": "Feature", "properties": { "strassenschluessel": "05382000005631478", "bezeichnung": "Birkenbusch" }, "geometry": { "type": "Point", "coordinates": [ 7.205671751979447, 50.772519541707581 ] } },
{ "type": "Feature", "properties": { "strassenschluessel": "05382000005631479", "bezeichnung": "Johannes-Görgens-Straße" }, "geometry": { "type": "Point", "coordinates": [ 7.229054444182056, 50.781896037895805 ] } },
{ "type": "Feature", "properties": { "strassenschluessel": "05382000005631480", "bezeichnung": "Wacholderweg" }, "geometry": null },
{ "type": "Feature", "properties": { "strassenschluessel": "05382000005631481", "bezeichnung": "Marie-Curie-Straße" }, "geometry": { "type": "Point", "coordinates": [ 7.178163327146047, 50.793574929444794 ] } },
{ "type": "Feature", "properties": { "strassenschluessel": "05382000005631482", "bezeichnung": "Im Werthchen" }, "geometry": { "type": "Point", "coordinates": [ 7.171840577896536, 50.790251298674697 ] } },
{ "type": "Feature", "properties": { "strassenschluessel": "05382000005631483", "bezeichnung": "Wismarer Straße" }, "geometry": { "type": "Point", "coordinates": [ 7.199901010864635, 50.779080348525262 ] } },
{ "type": "Feature", "properties": { "strassenschluessel": "05382000005631484", "bezeichnung": "Am Kirchenberg" }, "geometry": { "type": "Point", "coordinates": [ 7.219841327195073, 50.775670301431958 ] } },
{ "type": "Feature", "properties": { "strassenschluessel": "05382000005631485", "bezeichnung": "Nahestraße" }, "geometry": { "type": "Point", "coordinates": [ 7.176178445546162, 50.761754574207963 ] } },
{ "type": "Feature", "properties": { "strassenschluessel": "05382000005631486", "bezeichnung": "An der Alten Kirche" }, "geometry": { "type": "Point", "coordinates": [ 7.160352389992508, 50.792962957365646 ] } },
{ "type": "Feature", "properties": { "strassenschluessel": "05382000005631487", "bezeichnung": "Kapellenplatz" }, "geometry": { "type": "Point", "coordinates": [ 7.197225627235595, 50.784635967534584 ] } },
{ "type": "Feature", "properties": { "strassenschluessel": "05382000005631488", "bezeichnung": "Agnes-Miegel-Straße" }, "geometry": { "type": "Point", "coordinates": [ 7.191755784983818, 50.770749579042423 ] } },
{ "type": "Feature", "properties": { "strassenschluessel": "05382000005631489", "bezeichnung": "Ina-Seidel-Straße" }, "geometry": { "type": "Point", "coordinates": [ 7.192199103154381, 50.771346460829164 ] } },
{ "type": "Feature", "properties": { "strassenschluessel": "05382000005631490", "bezeichnung": "Nelly-Sachs-Straße" }, "geometry": { "type": "Point", "coordinates": [ 7.192751643409887, 50.771499933232185 ] } },
{ "type": "Feature", "properties": { "strassenschluessel": "05382000005631491", "bezeichnung": "Bundesgrenzschutzstraße" }, "geometry": { "type": "Point", "coordinates": [ 7.150818616738817, 50.764176471752229 ] } },
{ "type": "Feature", "properties": { "strassenschluessel": "05382000005631492", "bezeichnung": "Milanweg" }, "geometry": { "type": "Point", "coordinates": [ 7.211790031159698, 50.767955677317261 ] } },
{ "type": "Feature", "properties": { "strassenschluessel": "05382000005631493", "bezeichnung": "Sperberweg" }, "geometry": { "type": "Point", "coordinates": [ 7.210093405343519, 50.766135341294344 ] } },
{ "type": "Feature", "properties": { "strassenschluessel": "05382000005631494", "bezeichnung": "Waldkauzweg" }, "geometry": { "type": "Point", "coordinates": [ 7.210400473154426, 50.766602152774162 ] } },
{ "type": "Feature", "properties": { "strassenschluessel": "05382000005631495", "bezeichnung": "In den Hasenkaulen" }, "geometry": { "type": "Point", "coordinates": [ 7.1561691527155, 50.776504813911494 ] } },
{ "type": "Feature", "properties": { "strassenschluessel": "05382000005631496", "bezeichnung": "Alte Heerstraße" }, "geometry": { "type": "Point", "coordinates": [ 7.182967544147059, 50.763114826960241 ] } },
{ "type": "Feature", "properties": { "strassenschluessel": "05382000005631498", "bezeichnung": "Kamillenweg" }, "geometry": null },
{ "type": "Feature", "properties": { "strassenschluessel": "05382000005631502", "bezeichnung": "Am Bauhof" }, "geometry": { "type": "Point", "coordinates": [ 7.17076564546714, 50.795191548330507 ] } },
{ "type": "Feature", "properties": { "strassenschluessel": "05382000005631503", "bezeichnung": "Zur Kleinbahn" }, "geometry": { "type": "Point", "coordinates": [ 7.226722258827849, 50.750641173585031 ] } },
{ "type": "Feature", "properties": { "strassenschluessel": "05382000005631504", "bezeichnung": "An der Evangelischen Kirche" }, "geometry": { "type": "Point", "coordinates": [ 7.166034500954622, 50.759447722595468 ] } },
{ "type": "Feature", "properties": { "strassenschluessel": "05382000005631506", "bezeichnung": "Kopernikusstraße" }, "geometry": { "type": "Point", "coordinates": [ 7.161836823482903, 50.781859704922034 ] } },
{ "type": "Feature", "properties": { "strassenschluessel": "05382000005631507", "bezeichnung": "Distelweg" }, "geometry": { "type": "Point", "coordinates": [ 7.199614167153208, 50.769953709811439 ] } },
{ "type": "Feature", "properties": { "strassenschluessel": "05382000005631508", "bezeichnung": "Goldregenweg" }, "geometry": { "type": "Point", "coordinates": [ 7.197061349655485, 50.768722018729612 ] } },
{ "type": "Feature", "properties": { "strassenschluessel": "05382000005631509", "bezeichnung": "Huflattichweg" }, "geometry": { "type": "Point", "coordinates": [ 7.1982512318501, 50.769185358555234 ] } },
{ "type": "Feature", "properties": { "strassenschluessel": "05382000005631510", "bezeichnung": "Jasminweg" }, "geometry": { "type": "Point", "coordinates": [ 7.195227523153602, 50.769355723660446 ] } },
{ "type": "Feature", "properties": { "strassenschluessel": "05382000005631511", "bezeichnung": "Kamillenweg" }, "geometry": { "type": "Point", "coordinates": [ 7.200509845818945, 50.769142342222715 ] } },
{ "type": "Feature", "properties": { "strassenschluessel": "05382000005631512", "bezeichnung": "Magnolienweg" }, "geometry": { "type": "Point", "coordinates": [ 7.197138640719343, 50.769417027267536 ] } },
{ "type": "Feature", "properties": { "strassenschluessel": "05382000005631513", "bezeichnung": "Malvenweg" }, "geometry": { "type": "Point", "coordinates": [ 7.199062891715364, 50.770104709635731 ] } },