{
"type": "FeatureCollection",
"features": [
{ "type": "Feature", "properties": { "strassenschluessel": "05170000003637601", "bezeichnung": "Ahornstraße" }, "geometry": { "type": "Point", "coordinates": [ 6.877216865819176, 51.690940482291346 ] } },
{ "type": "Feature", "properties": { "strassenschluessel": "05170000003637602", "bezeichnung": "Am Alten Friedhof" }, "geometry": { "type": "Point", "coordinates": [ 6.88181272583329, 51.697164929239158 ] } },
{ "type": "Feature", "properties": { "strassenschluessel": "05170000003637603", "bezeichnung": "An der Kirche" }, "geometry": { "type": "Point", "coordinates": [ 6.874020868678473, 51.69505059514676 ] } },
{ "type": "Feature", "properties": { "strassenschluessel": "05170000003637604", "bezeichnung": "An der Vogelstange" }, "geometry": null },
{ "type": "Feature", "properties": { "strassenschluessel": "05170000003637605", "bezeichnung": "Auf dem Berg" }, "geometry": { "type": "Point", "coordinates": [ 6.907940826698681, 51.690416154754473 ] } },
{ "type": "Feature", "properties": { "strassenschluessel": "05170000003637606", "bezeichnung": "Barkeler Weg" }, "geometry": null },
{ "type": "Feature", "properties": { "strassenschluessel": "05170000003637607", "bezeichnung": "Birkenstraße" }, "geometry": { "type": "Point", "coordinates": [ 6.879420314741321, 51.69157177091185 ] } },
{ "type": "Feature", "properties": { "strassenschluessel": "05170000003637608", "bezeichnung": "Bonifatiusstrasse" }, "geometry": { "type": "Point", "coordinates": [ 6.876334837435393, 51.697439777340385 ] } },
{ "type": "Feature", "properties": { "strassenschluessel": "05170000003637609", "bezeichnung": "Brannenweg" }, "geometry": null },
{ "type": "Feature", "properties": { "strassenschluessel": "05170000003637610", "bezeichnung": "Bruchdamm" }, "geometry": null },
{ "type": "Feature", "properties": { "strassenschluessel": "05170000003637611", "bezeichnung": "Brunnenstraße" }, "geometry": { "type": "Point", "coordinates": [ 6.875017343797037, 51.695029448627182 ] } },
{ "type": "Feature", "properties": { "strassenschluessel": "05170000003637612", "bezeichnung": "Buschhausener Weg" }, "geometry": { "type": "Point", "coordinates": [ 6.885149850062496, 51.681752137323947 ] } },
{ "type": "Feature", "properties": { "strassenschluessel": "05170000003637613", "bezeichnung": "Dorstener Straße" }, "geometry": { "type": "Point", "coordinates": [ 6.885048799853845, 51.692815545819485 ] } },
{ "type": "Feature", "properties": { "strassenschluessel": "05170000003637614", "bezeichnung": "Drievweg" }, "geometry": { "type": "Point", "coordinates": [ 6.867328716529826, 51.711088434742514 ] } },
{ "type": "Feature", "properties": { "strassenschluessel": "05170000003637615", "bezeichnung": "Eichenstraße" }, "geometry": { "type": "Point", "coordinates": [ 6.878520421790348, 51.69081007244958 ] } },
{ "type": "Feature", "properties": { "strassenschluessel": "05170000003637616", "bezeichnung": "Entenpoete" }, "geometry": null },
{ "type": "Feature", "properties": { "strassenschluessel": "05170000003637618", "bezeichnung": "Eschenstraße" }, "geometry": { "type": "Point", "coordinates": [ 6.882468984924272, 51.692166291937603 ] } },
{ "type": "Feature", "properties": { "strassenschluessel": "05170000003637619", "bezeichnung": "Forsthausweg" }, "geometry": { "type": "Point", "coordinates": [ 6.87459098591732, 51.709323255140433 ] } },
{ "type": "Feature", "properties": { "strassenschluessel": "05170000003637620", "bezeichnung": "Freudenbergstraße" }, "geometry": { "type": "Point", "coordinates": [ 6.891462770167796, 51.698186466888217 ] } },
{ "type": "Feature", "properties": { "strassenschluessel": "05170000003637621", "bezeichnung": "Grenzweg" }, "geometry": { "type": "Point", "coordinates": [ 6.869557464686611, 51.7323926039508 ] } },
{ "type": "Feature", "properties": { "strassenschluessel": "05170000003637622", "bezeichnung": "Hatkampweg" }, "geometry": { "type": "Point", "coordinates": [ 6.886563702199538, 51.706696126870668 ] } },
{ "type": "Feature", "properties": { "strassenschluessel": "05170000003637623", "bezeichnung": "Heggenkamp" }, "geometry": { "type": "Point", "coordinates": [ 6.877708177609738, 51.695636069636699 ] } },
{ "type": "Feature", "properties": { "strassenschluessel": "05170000003637625", "bezeichnung": "Huxelweg" }, "geometry": { "type": "Point", "coordinates": [ 6.912288693518798, 51.739739653857839 ] } },
{ "type": "Feature", "properties": { "strassenschluessel": "05170000003637626", "bezeichnung": "Im Espel" }, "geometry": { "type": "Point", "coordinates": [ 6.861026633376038, 51.727142819841156 ] } },
{ "type": "Feature", "properties": { "strassenschluessel": "05170000003637627", "bezeichnung": "Im Hagelhorst" }, "geometry": null },
{ "type": "Feature", "properties": { "strassenschluessel": "05170000003637628", "bezeichnung": "Im Trog" }, "geometry": { "type": "Point", "coordinates": [ 6.882918342237611, 51.699167094646114 ] } },
{ "type": "Feature", "properties": { "strassenschluessel": "05170000003637629", "bezeichnung": "Kämpweg" }, "geometry": { "type": "Point", "coordinates": [ 6.885594975521269, 51.695632919522261 ] } },
{ "type": "Feature", "properties": { "strassenschluessel": "05170000003637631", "bezeichnung": "Kardinal-von-Galen-Str." }, "geometry": { "type": "Point", "coordinates": [ 6.876372552652816, 51.693262028883744 ] } },
{ "type": "Feature", "properties": { "strassenschluessel": "05170000003637632", "bezeichnung": "Kerkerfeld" }, "geometry": { "type": "Point", "coordinates": [ 6.880193161901707, 51.699929243631338 ] } },
{ "type": "Feature", "properties": { "strassenschluessel": "05170000003637633", "bezeichnung": "Kettches Hee" }, "geometry": { "type": "Point", "coordinates": [ 6.891382155297165, 51.693467208551311 ] } },
{ "type": "Feature", "properties": { "strassenschluessel": "05170000003637634", "bezeichnung": "Kettelerstraße" }, "geometry": { "type": "Point", "coordinates": [ 6.882456294785852, 51.698637737234911 ] } },
{ "type": "Feature", "properties": { "strassenschluessel": "05170000003637635", "bezeichnung": "Kilianstraße" }, "geometry": { "type": "Point", "coordinates": [ 6.883089143289705, 51.697129311278822 ] } },
{ "type": "Feature", "properties": { "strassenschluessel": "05170000003637636", "bezeichnung": "Kolpingstraße" }, "geometry": { "type": "Point", "coordinates": [ 6.879771123660554, 51.697048105396661 ] } },
{ "type": "Feature", "properties": { "strassenschluessel": "05170000003637637", "bezeichnung": "Kruesbergweg" }, "geometry": { "type": "Point", "coordinates": [ 6.872342850506746, 51.72381126903705 ] } },
{ "type": "Feature", "properties": { "strassenschluessel": "05170000003637638", "bezeichnung": "Linnenhee" }, "geometry": { "type": "Point", "coordinates": [ 6.912139425705126, 51.69181173277051 ] } },
{ "type": "Feature", "properties": { "strassenschluessel": "05170000003637639", "bezeichnung": "Lippeweg" }, "geometry": { "type": "Point", "coordinates": [ 6.893098955235033, 51.683218108551401 ] } },
{ "type": "Feature", "properties": { "strassenschluessel": "05170000003637640", "bezeichnung": "Lofkampweg" }, "geometry": { "type": "Point", "coordinates": [ 6.851089461167181, 51.719706468570216 ] } },
{ "type": "Feature", "properties": { "strassenschluessel": "05170000003637641", "bezeichnung": "Ludgerusstraße" }, "geometry": { "type": "Point", "coordinates": [ 6.883813769578492, 51.700007192819498 ] } },
{ "type": "Feature", "properties": { "strassenschluessel": "05170000003637642", "bezeichnung": "Marellenkämpe" }, "geometry": { "type": "Point", "coordinates": [ 6.877494347538722, 51.691979442701658 ] } },
{ "type": "Feature", "properties": { "strassenschluessel": "05170000003637644", "bezeichnung": "Nottkamp" }, "geometry": { "type": "Point", "coordinates": [ 6.888156683764761, 51.711285049096787 ] } },
{ "type": "Feature", "properties": { "strassenschluessel": "05170000003637645", "bezeichnung": "Overbecker Straße" }, "geometry": { "type": "Point", "coordinates": [ 6.858955527434794, 51.714761296014956 ] } },
{ "type": "Feature", "properties": { "strassenschluessel": "05170000003637646", "bezeichnung": "Pastoratsweg" }, "geometry": { "type": "Point", "coordinates": [ 6.878878873100841, 51.693473261587911 ] } },
{ "type": "Feature", "properties": { "strassenschluessel": "05170000003637647", "bezeichnung": "Raiffeisenweg" }, "geometry": { "type": "Point", "coordinates": [ 6.888356610498392, 51.699551434598071 ] } },
{ "type": "Feature", "properties": { "strassenschluessel": "05170000003637648", "bezeichnung": "Rhader Weg" }, "geometry": { "type": "Point", "coordinates": [ 6.88313429131669, 51.718685087835858 ] } },
{ "type": "Feature", "properties": { "strassenschluessel": "05170000003637649", "bezeichnung": "Rüster Weg" }, "geometry": { "type": "Point", "coordinates": [ 6.900829088894461, 51.690289980993064 ] } },
{ "type": "Feature", "properties": { "strassenschluessel": "05170000003637650", "bezeichnung": "Schetterstraße" }, "geometry": { "type": "Point", "coordinates": [ 6.882894931269286, 51.700445661132242 ] } },
{ "type": "Feature", "properties": { "strassenschluessel": "05170000003637651", "bezeichnung": "Schlenke" }, "geometry": { "type": "Point", "coordinates": [ 6.882209438288145, 51.692924070286438 ] } },
{ "type": "Feature", "properties": { "strassenschluessel": "05170000003637652", "bezeichnung": "Schloßstraße" }, "geometry": { "type": "Point", "coordinates": [ 6.876498587562257, 51.695353195260942 ] } },
{ "type": "Feature", "properties": { "strassenschluessel": "05170000003637653", "bezeichnung": "Schöttnerweg" }, "geometry": { "type": "Point", "coordinates": [ 6.904608266690916, 51.687197081990092 ] } },
{ "type": "Feature", "properties": { "strassenschluessel": "05170000003637654", "bezeichnung": "Schreiberstraße" }, "geometry": { "type": "Point", "coordinates": [ 6.878968070917294, 51.699038748233413 ] } },
{ "type": "Feature", "properties": { "strassenschluessel": "05170000003637655", "bezeichnung": "Schulweg" }, "geometry": { "type": "Point", "coordinates": [ 6.876579544252689, 51.721171778538405 ] } },
{ "type": "Feature", "properties": { "strassenschluessel": "05170000003637656", "bezeichnung": "Steinbrede" }, "geometry": { "type": "Point", "coordinates": [ 6.879067029811323, 51.712817622892651 ] } },
{ "type": "Feature", "properties": { "strassenschluessel": "05170000003637657", "bezeichnung": "Wolwerskamp" }, "geometry": { "type": "Point", "coordinates": [ 6.869191794295044, 51.72328066042332 ] } },
{ "type": "Feature", "properties": { "strassenschluessel": "05170000003637658", "bezeichnung": "Widau" }, "geometry": { "type": "Point", "coordinates": [ 6.871813355270593, 51.710986902630104 ] } },
{ "type": "Feature", "properties": { "strassenschluessel": "05170000003637659", "bezeichnung": "Witte Berge" }, "geometry": { "type": "Point", "coordinates": [ 6.881010379278109, 51.680347150397672 ] } },
{ "type": "Feature", "properties": { "strassenschluessel": "05170000003637660", "bezeichnung": "Worthuesweg" }, "geometry": { "type": "Point", "coordinates": [ 6.863100576951279, 51.708401624486655 ] } },
{ "type": "Feature", "properties": { "strassenschluessel": "05170000003637661", "bezeichnung": "Zum Dicken Stein" }, "geometry": { "type": "Point", "coordinates": [ 6.888752604368532, 51.698131022925033 ] } },
{ "type": "Feature", "properties": { "strassenschluessel": "05170000003637662", "bezeichnung": "Overhagen" }, "geometry": { "type": "Point", "coordinates": [ 6.885826278732057, 51.701157075889554 ] } },
{ "type": "Feature", "properties": { "strassenschluessel": "05170000003637663", "bezeichnung": "Alte Dorstener Straße" }, "geometry": { "type": "Point", "coordinates": [ 6.875987998997693, 51.694412319809906 ] } },
{ "type": "Feature", "properties": { "strassenschluessel": "05170000003637664", "bezeichnung": "Auf der Bree" }, "geometry": null },
{ "type": "Feature", "properties": { "strassenschluessel": "05170000003637665", "bezeichnung": "Böckenbusch" }, "geometry": null },
{ "type": "Feature", "properties": { "strassenschluessel": "05170000003637666", "bezeichnung": "Buckelsberg" }, "geometry": null },
{ "type": "Feature", "properties": { "strassenschluessel": "05170000003637667", "bezeichnung": "Hofwiese" }, "geometry": null },
{ "type": "Feature", "properties": { "strassenschluessel": "05170000003637668", "bezeichnung": "In der Delle" }, "geometry": null },
{ "type": "Feature", "properties": { "strassenschluessel": "05170000003637669", "bezeichnung": "Kreuzgasse" }, "geometry": { "type": "Point", "coordinates": [ 6.874740265968777, 51.69467014303892 ] } },
{ "type": "Feature", "properties": { "strassenschluessel": "05170000003637670", "bezeichnung": "Rüster-Feld" }, "geometry": { "type": "Point", "coordinates": [ 6.911637893342579, 51.695184893487998 ] } },
{ "type": "Feature", "properties": { "strassenschluessel": "05170000003637671", "bezeichnung": "Schalbree" }, "geometry": null },
{ "type": "Feature", "properties": { "strassenschluessel": "05170000003637672", "bezeichnung": "Stockacker" }, "geometry": null },
{ "type": "Feature", "properties": { "strassenschluessel": "05170000003637673", "bezeichnung": "Schoopsweg" }, "geometry": { "type": "Point", "coordinates": [ 6.899610697079035, 51.696168990318775 ] } },
{ "type": "Feature", "properties": { "strassenschluessel": "05170000003637674", "bezeichnung": "Tennschürsnummer" }, "geometry": { "type": "Point", "coordinates": [ 6.891230603655347, 51.712358283562139 ] } },
{ "type": "Feature", "properties": { "strassenschluessel": "05170000003637675", "bezeichnung": "Prozessionsweg" }, "geometry": { "type": "Point", "coordinates": [ 6.880950170375902, 51.695033873274674 ] } },
{ "type": "Feature", "properties": { "strassenschluessel": "05170000003637677", "bezeichnung": "Hoogen Diek" }, "geometry": null },
{ "type": "Feature", "properties": { "strassenschluessel": "05170000003637678", "bezeichnung": "Borkener Straße" }, "geometry": { "type": "Point", "coordinates": [ 6.931652739926554, 51.703449563454619 ] } },
{ "type": "Feature", "properties": { "strassenschluessel": "05170000003637679", "bezeichnung": "Markenweg" }, "geometry": null },
{ "type": "Feature", "properties": { "strassenschluessel": "05170000003637680", "bezeichnung": "Op de Kuhlen" }, "geometry": null },
{ "type": "Feature", "properties": { "strassenschluessel": "05170000003637681", "bezeichnung": "Kastanienstraße" }, "geometry": { "type": "Point", "coordinates": [ 6.883974231724372, 51.691724321722148 ] } },
{ "type": "Feature", "properties": { "strassenschluessel": "05170000003637682", "bezeichnung": "Ulmenweg" }, "geometry": { "type": "Point", "coordinates": [ 6.880355530031587, 51.690198449899761 ] } },
{ "type": "Feature", "properties": { "strassenschluessel": "05170000003637683", "bezeichnung": "Pfarrer-Heinrich-Paschen-Str." }, "geometry": null },
{ "type": "Feature", "properties": { "strassenschluessel": "05170000003637684", "bezeichnung": "Zur Obstwiese" }, "geometry": { "type": "Point", "coordinates": [ 6.883280189712092, 51.695627829610856 ] } },
{ "type": "Feature", "properties": { "strassenschluessel": "05170000003637685", "bezeichnung": "Bonhoeffer Straße" }, "geometry": { "type": "Point", "coordinates": [ 6.876054577236006, 51.697777003858711 ] } },
{ "type": "Feature", "properties": { "strassenschluessel": "05170000003637686", "bezeichnung": "Bruchweg" }, "geometry": null },
{ "type": "Feature", "properties": { "strassenschluessel": "05170000003637687", "bezeichnung": "Hufenkampweg" }, "geometry": { "type": "Point", "coordinates": [ 6.881291767963099, 51.685401621951186 ] } },
{ "type": "Feature", "properties": { "strassenschluessel": "05170000003637688", "bezeichnung": "Wilsingweg" }, "geometry": null },
{ "type": "Feature", "properties": { "strassenschluessel": "05170000003637702", "bezeichnung": "Alte Fährstraße" }, "geometry": { "type": "Point", "coordinates": [ 6.864797302968372, 51.677379015672749 ] } },
{ "type": "Feature", "properties": { "strassenschluessel": "05170000003637703", "bezeichnung": "Alte Poststraße" }, "geometry": { "type": "Point", "coordinates": [ 6.84420197412159, 51.681308856073265 ] } },
{ "type": "Feature", "properties": { "strassenschluessel": "05170000003637704", "bezeichnung": "Am Adler" }, "geometry": { "type": "Point", "coordinates": [ 6.843160872607466, 51.681912020024875 ] } },
{ "type": "Feature", "properties": { "strassenschluessel": "05170000003637705", "bezeichnung": "Am Frankenhof" }, "geometry": { "type": "Point", "coordinates": [ 6.847137760551879, 51.682493622928511 ] } },
{ "type": "Feature", "properties": { "strassenschluessel": "05170000003637706", "bezeichnung": "Am Kaisershecken" }, "geometry": { "type": "Point", "coordinates": [ 6.847399763433457, 51.682276912961854 ] } },
{ "type": "Feature", "properties": { "strassenschluessel": "05170000003637709", "bezeichnung": "Gartroper Weg" }, "geometry": { "type": "Point", "coordinates": [ 6.844910141439145, 51.675921473316166 ] } },
{ "type": "Feature", "properties": { "strassenschluessel": "05170000003637710", "bezeichnung": "Gietlingsweg" }, "geometry": { "type": "Point", "coordinates": [ 6.85434863927352, 51.675708311490332 ] } },
{ "type": "Feature", "properties": { "strassenschluessel": "05170000003637711", "bezeichnung": "Heideweg" }, "geometry": { "type": "Point", "coordinates": [ 6.836497608862983, 51.685095649161525 ] } },
{ "type": "Feature", "properties": { "strassenschluessel": "05170000003637713", "bezeichnung": "Kolkweg" }, "geometry": null },
{ "type": "Feature", "properties": { "strassenschluessel": "05170000003637715", "bezeichnung": "Lanterweg" }, "geometry": null },
{ "type": "Feature", "properties": { "strassenschluessel": "05170000003637717", "bezeichnung": "Pontenweg" }, "geometry": { "type": "Point", "coordinates": [ 6.833667256368895, 51.675036284791261 ] } },
{ "type": "Feature", "properties": { "strassenschluessel": "05170000003637718", "bezeichnung": "Steinkampsweg" }, "geometry": null },
{ "type": "Feature", "properties": { "strassenschluessel": "05170000003637719", "bezeichnung": "Tiefer Weg" }, "geometry": { "type": "Point", "coordinates": [ 6.864014835513734, 51.69161594325184 ] } },
{ "type": "Feature", "properties": { "strassenschluessel": "05170000003637720", "bezeichnung": "Vossenbergweg" }, "geometry": { "type": "Point", "coordinates": [ 6.841204105121657, 51.687753821264742 ] } },
{ "type": "Feature", "properties": { "strassenschluessel": "05170000003637726", "bezeichnung": "Auf der Kotte" }, "geometry": { "type": "Point", "coordinates": [ 6.857250045869041, 51.701648997338715 ] } },
{ "type": "Feature", "properties": { "strassenschluessel": "05170000003637728", "bezeichnung": "Zur Gietlingsmühle" }, "geometry": { "type": "Point", "coordinates": [ 6.852320896202202, 51.682394057904318 ] } },
{ "type": "Feature", "properties": { "strassenschluessel": "05170000003637730", "bezeichnung": "Am Breiten Winkel" }, "geometry": { "type": "Point", "coordinates": [ 6.790535689545022, 51.745824898720379 ] } },
{ "type": "Feature", "properties": { "strassenschluessel": "05170000003637731", "bezeichnung": "An der Isselkant" }, "geometry": { "type": "Point", "coordinates": [ 6.767378281029343, 51.738680156885941 ] } },
{ "type": "Feature", "properties": { "strassenschluessel": "05170000003637732", "bezeichnung": "Dämmerwalder Straße" }, "geometry": { "type": "Point", "coordinates": [ 6.766807108250599, 51.733320346420996 ] } },
{ "type": "Feature", "properties": { "strassenschluessel": "05170000003637734", "bezeichnung": "Fuhlenbeek" }, "geometry": null },
{ "type": "Feature", "properties": { "strassenschluessel": "05170000003637735", "bezeichnung": "Hogefeldsweg" }, "geometry": { "type": "Point", "coordinates": [ 6.782395999926884, 51.742504542568675 ] } },
{ "type": "Feature", "properties": { "strassenschluessel": "05170000003637736", "bezeichnung": "Hülsenweg" }, "geometry": { "type": "Point", "coordinates": [ 6.781726492413693, 51.729053846913622 ] } },
{ "type": "Feature", "properties": { "strassenschluessel": "05170000003637737", "bezeichnung": "Im Birkenschladt" }, "geometry": { "type": "Point", "coordinates": [ 6.789234858248058, 51.732187247422893 ] } },
{ "type": "Feature", "properties": { "strassenschluessel": "05170000003637739", "bezeichnung": "Klusenweg" }, "geometry": { "type": "Point", "coordinates": [ 6.802601364337865, 51.739623086152939 ] } },
{ "type": "Feature", "properties": { "strassenschluessel": "05170000003637740", "bezeichnung": "Lohwiesenweg" }, "geometry": null },
{ "type": "Feature", "properties": { "strassenschluessel": "05170000003637741", "bezeichnung": "Rauendahlsweg" }, "geometry": { "type": "Point", "coordinates": [ 6.771532991031033, 51.734291296499656 ] } },
{ "type": "Feature", "properties": { "strassenschluessel": "05170000003637742", "bezeichnung": "Schultenweg" }, "geometry": { "type": "Point", "coordinates": [ 6.766348485844592, 51.730194226737872 ] } },
{ "type": "Feature", "properties": { "strassenschluessel": "05170000003637744", "bezeichnung": "Zum Jakobsbrunnen" }, "geometry": null },
{ "type": "Feature", "properties": { "strassenschluessel": "05170000003637745", "bezeichnung": "Zum Kuhschott" }, "geometry": null },
{ "type": "Feature", "properties": { "strassenschluessel": "05170000003637746", "bezeichnung": "Zum Abendhorst" }, "geometry": { "type": "Point", "coordinates": [ 6.814821044121333, 51.736940734981474 ] } },
{ "type": "Feature", "properties": { "strassenschluessel": "05170000003637747", "bezeichnung": "Laurenzweg" }, "geometry": { "type": "Point", "coordinates": [ 6.793019380014361, 51.741059785401852 ] } },
{ "type": "Feature", "properties": { "strassenschluessel": "05170000003637748", "bezeichnung": "Mölmsfeld" }, "geometry": null },
{ "type": "Feature", "properties": { "strassenschluessel": "05170000003637749", "bezeichnung": "Alte Landstraße" }, "geometry": { "type": "Point", "coordinates": [ 6.79558671502456, 51.674714916193032 ] } },
{ "type": "Feature", "properties": { "strassenschluessel": "05170000003637750", "bezeichnung": "Am Dellbach" }, "geometry": null },
{ "type": "Feature", "properties": { "strassenschluessel": "05170000003637751", "bezeichnung": "Am Festplatz" }, "geometry": { "type": "Point", "coordinates": [ 6.7964768651686, 51.683456034476755 ] } },
{ "type": "Feature", "properties": { "strassenschluessel": "05170000003637752", "bezeichnung": "Am Kamp" }, "geometry": { "type": "Point", "coordinates": [ 6.80955687412763, 51.678671110255785 ] } },
{ "type": "Feature", "properties": { "strassenschluessel": "05170000003637753", "bezeichnung": "Am Siebenstern" }, "geometry": null },
{ "type": "Feature", "properties": { "strassenschluessel": "05170000003637754", "bezeichnung": "An dem Osterbach" }, "geometry": { "type": "Point", "coordinates": [ 6.773190136428792, 51.712619996027989 ] } },
{ "type": "Feature", "properties": { "strassenschluessel": "05170000003637755", "bezeichnung": "Auf dem Bruch" }, "geometry": { "type": "Point", "coordinates": [ 6.800415372327649, 51.68483583851696 ] } },
{ "type": "Feature", "properties": { "strassenschluessel": "05170000003637756", "bezeichnung": "Auf dem Rahm" }, "geometry": { "type": "Point", "coordinates": [ 6.811713129431984, 51.679593678870013 ] } },
{ "type": "Feature", "properties": { "strassenschluessel": "05170000003637757", "bezeichnung": "Auf dem Winkel" }, "geometry": { "type": "Point", "coordinates": [ 6.783392585277217, 51.675087219546313 ] } },
{ "type": "Feature", "properties": { "strassenschluessel": "05170000003637758", "bezeichnung": "Auf der Hemsteege" }, "geometry": { "type": "Point", "coordinates": [ 6.809538669930381, 51.681139375572947 ] } },
{ "type": "Feature", "properties": { "strassenschluessel": "05170000003637759", "bezeichnung": "Barnefeldsheide" }, "geometry": null },
{ "type": "Feature", "properties": { "strassenschluessel": "05170000003637760", "bezeichnung": "Beckenbreiter Stege" }, "geometry": { "type": "Point", "coordinates": [ 6.805918502391593, 51.679443958297917 ] } },
{ "type": "Feature", "properties": { "strassenschluessel": "05170000003637761", "bezeichnung": "Beckmanns Stege" }, "geometry": { "type": "Point", "coordinates": [ 6.765476200328695, 51.687337221343689 ] } },
{ "type": "Feature", "properties": { "strassenschluessel": "05170000003637763", "bezeichnung": "Bovelandsweg" }, "geometry": { "type": "Point", "coordinates": [ 6.79851273361907, 51.682470569756518 ] } },
{ "type": "Feature", "properties": { "strassenschluessel": "05170000003637764", "bezeichnung": "Brüner Weg" }, "geometry": { "type": "Point", "coordinates": [ 6.806828204443687, 51.698074621790262 ] } },
{ "type": "Feature", "properties": { "strassenschluessel": "05170000003637765", "bezeichnung": "Dammer Weg" }, "geometry": { "type": "Point", "coordinates": [ 6.816249274698148, 51.684211757347789 ] } },
{ "type": "Feature", "properties": { "strassenschluessel": "05170000003637766", "bezeichnung": "Baubruch" }, "geometry": { "type": "Point", "coordinates": [ 6.873379822643011, 51.700263962644513 ] } },
{ "type": "Feature", "properties": { "strassenschluessel": "05170000003637767", "bezeichnung": "Grüner Weg" }, "geometry": { "type": "Point", "coordinates": [ 6.804931548314251, 51.678739779445337 ] } },
{ "type": "Feature", "properties": { "strassenschluessel": "05170000003637769", "bezeichnung": "In der Steege" }, "geometry": { "type": "Point", "coordinates": [ 6.76570741533316, 51.689880700014911 ] } },
{ "type": "Feature", "properties": { "strassenschluessel": "05170000003637770", "bezeichnung": "Jägerheideweg" }, "geometry": { "type": "Point", "coordinates": [ 6.805897009226748, 51.701586400413724 ] } },
{ "type": "Feature", "properties": { "strassenschluessel": "05170000003637771", "bezeichnung": "Kirchweg" }, "geometry": { "type": "Point", "coordinates": [ 6.797119346839682, 51.675655462704562 ] } },
{ "type": "Feature", "properties": { "strassenschluessel": "05170000003637772", "bezeichnung": "Klein-Else-Weg" }, "geometry": { "type": "Point", "coordinates": [ 6.768115935343204, 51.68461485181701 ] } },
{ "type": "Feature", "properties": { "strassenschluessel": "05170000003637773", "bezeichnung": "Kranzweg" }, "geometry": null },
{ "type": "Feature", "properties": { "strassenschluessel": "05170000003637776", "bezeichnung": "Loosenberge" }, "geometry": { "type": "Point", "coordinates": [ 6.782293515301292, 51.674228091627512 ] } },
{ "type": "Feature", "properties": { "strassenschluessel": "05170000003637777", "bezeichnung": "Malberger Straße" }, "geometry": { "type": "Point", "coordinates": [ 6.756687191931819, 51.715402442482322 ] } },
{ "type": "Feature", "properties": { "strassenschluessel": "05170000003637778", "bezeichnung": "Melkweg" }, "geometry": { "type": "Point", "coordinates": [ 6.799697509807202, 51.678223558521253 ] } },
{ "type": "Feature", "properties": { "strassenschluessel": "05170000003637779", "bezeichnung": "Rittstege" }, "geometry": { "type": "Point", "coordinates": [ 6.799950148554125, 51.685023259558498 ] } },
{ "type": "Feature", "properties": { "strassenschluessel": "05170000003637780", "bezeichnung": "Schwalbensteg" }, "geometry": { "type": "Point", "coordinates": [ 6.796918438953165, 51.677730098304394 ] } },
{ "type": "Feature", "properties": { "strassenschluessel": "05170000003637781", "bezeichnung": "Üfter Weg" }, "geometry": { "type": "Point", "coordinates": [ 6.805045733367751, 51.696824924258976 ] } },
{ "type": "Feature", "properties": { "strassenschluessel": "05170000003637782", "bezeichnung": "Vor der Burg" }, "geometry": { "type": "Point", "coordinates": [ 6.818628403398084, 51.678723983528499 ] } },
{ "type": "Feature", "properties": { "strassenschluessel": "05170000003637783", "bezeichnung": "Wachtenbrinker Weg" }, "geometry": { "type": "Point", "coordinates": [ 6.763954727311305, 51.71339776718996 ] } },
{ "type": "Feature", "properties": { "strassenschluessel": "05170000003637784", "bezeichnung": "Waldbachweg" }, "geometry": { "type": "Point", "coordinates": [ 6.820227458125553, 51.688467787860226 ] } },
{ "type": "Feature", "properties": { "strassenschluessel": "05170000003637786", "bezeichnung": "Zum Brand" }, "geometry": { "type": "Point", "coordinates": [ 6.818679900488501, 51.695262827966211 ] } },
{ "type": "Feature", "properties": { "strassenschluessel": "05170000003637787", "bezeichnung": "Zum Elsenberg" }, "geometry": { "type": "Point", "coordinates": [ 6.796703557419643, 51.682861275082338 ] } },
{ "type": "Feature", "properties": { "strassenschluessel": "05170000003637789", "bezeichnung": "Zum Tüssen Brand" }, "geometry": null },
{ "type": "Feature", "properties": { "strassenschluessel": "05170000003637790", "bezeichnung": "Zum Venn" }, "geometry": null },
{ "type": "Feature", "properties": { "strassenschluessel": "05170000003637791", "bezeichnung": "Zur Alten Lippe" }, "geometry": { "type": "Point", "coordinates": [ 6.791719459991978, 51.675778707033253 ] } },
{ "type": "Feature", "properties": { "strassenschluessel": "05170000003637792", "bezeichnung": "Am Fuchsbau" }, "geometry": { "type": "Point", "coordinates": [ 6.803764140156098, 51.689379256312016 ] } },
{ "type": "Feature", "properties": { "strassenschluessel": "05170000003637803", "bezeichnung": "Mühlenweg" }, "geometry": null },
{ "type": "Feature", "properties": { "strassenschluessel": "05170000003637805", "bezeichnung": "Zur Dicken Linde" }, "geometry": { "type": "Point", "coordinates": [ 6.879438662499791, 51.66399591654978 ] } },
{ "type": "Feature", "properties": { "strassenschluessel": "05170000003637806", "bezeichnung": "Am Halswick" }, "geometry": { "type": "Point", "coordinates": [ 6.881498318661377, 51.66739475755297 ] } },
{ "type": "Feature", "properties": { "strassenschluessel": "05170000003637807", "bezeichnung": "Am Rehrbach" }, "geometry": { "type": "Point", "coordinates": [ 6.875903822162729, 51.6560487141587 ] } },
{ "type": "Feature", "properties": { "strassenschluessel": "05170000003637808", "bezeichnung": "Bestener Straße" }, "geometry": { "type": "Point", "coordinates": [ 6.886442277370315, 51.662012251062187 ] } },
{ "type": "Feature", "properties": { "strassenschluessel": "05170000003637809", "bezeichnung": "Brackenberg" }, "geometry": { "type": "Point", "coordinates": [ 6.883570389517844, 51.637449516826564 ] } },
{ "type": "Feature", "properties": { "strassenschluessel": "05170000003637810", "bezeichnung": "Bruchmühlenweg" }, "geometry": { "type": "Point", "coordinates": [ 6.857780957194225, 51.65274193235085 ] } },
{ "type": "Feature", "properties": { "strassenschluessel": "05170000003637811", "bezeichnung": "Bruchstraße" }, "geometry": { "type": "Point", "coordinates": [ 6.872350426194474, 51.664617610988266 ] } },
{ "type": "Feature", "properties": { "strassenschluessel": "05170000003637812", "bezeichnung": "Brückenweg" }, "geometry": { "type": "Point", "coordinates": [ 6.889804222492081, 51.66776997413362 ] } },
{ "type": "Feature", "properties": { "strassenschluessel": "05170000003637813", "bezeichnung": "Bühnenberg" }, "geometry": { "type": "Point", "coordinates": [ 6.88064537477074, 51.637417378992588 ] } },
{ "type": "Feature", "properties": { "strassenschluessel": "05170000003637814", "bezeichnung": "Bühnendorf" }, "geometry": { "type": "Point", "coordinates": [ 6.859805533567354, 51.651492276957299 ] } },
{ "type": "Feature", "properties": { "strassenschluessel": "05170000003637815", "bezeichnung": "Elsenweg" }, "geometry": { "type": "Point", "coordinates": [ 6.859833397658756, 51.660707334588061 ] } },
{ "type": "Feature", "properties": { "strassenschluessel": "05170000003637816", "bezeichnung": "Espelsgarten" }, "geometry": { "type": "Point", "coordinates": [ 6.864378799043978, 51.668766117218524 ] } },
{ "type": "Feature", "properties": { "strassenschluessel": "05170000003637817", "bezeichnung": "Haus-Gahlen-Straße" }, "geometry": { "type": "Point", "coordinates": [ 6.875760044282379, 51.668498749822056 ] } },
{ "type": "Feature", "properties": { "strassenschluessel": "05170000003637818", "bezeichnung": "Heisterkampstraße" }, "geometry": { "type": "Point", "coordinates": [ 6.860259377176063, 51.664387618424847 ] } },
{ "type": "Feature", "properties": { "strassenschluessel": "05170000003637819", "bezeichnung": "Hoher Berg" }, "geometry": { "type": "Point", "coordinates": [ 6.893713413981572, 51.640353936635989 ] } },
{ "type": "Feature", "properties": { "strassenschluessel": "05170000003637820", "bezeichnung": "Holzweg" }, "geometry": { "type": "Point", "coordinates": [ 6.890909684099838, 51.652891152121853 ] } },
{ "type": "Feature", "properties": { "strassenschluessel": "05170000003637821", "bezeichnung": "Hünxer Straße" }, "geometry": { "type": "Point", "coordinates": [ 6.849975241272897, 51.671885080157857 ] } },
{ "type": "Feature", "properties": { "strassenschluessel": "05170000003637822", "bezeichnung": "Im Aap" }, "geometry": { "type": "Point", "coordinates": [ 6.882402816872583, 51.669522711122205 ] } },
{ "type": "Feature", "properties": { "strassenschluessel": "05170000003637823", "bezeichnung": "Janbrucksfeld" }, "geometry": { "type": "Point", "coordinates": [ 6.889184301600015, 51.648454243065949 ] } },
{ "type": "Feature", "properties": { "strassenschluessel": "05170000003637824", "bezeichnung": "Kirchhellener Straße" }, "geometry": { "type": "Point", "coordinates": [ 6.900898888540769, 51.641355438356548 ] } },
{ "type": "Feature", "properties": { "strassenschluessel": "05170000003637825", "bezeichnung": "Kirchstraße" }, "geometry": { "type": "Point", "coordinates": [ 6.859102933702206, 51.668083982528756 ] } },
{ "type": "Feature", "properties": { "strassenschluessel": "05170000003637826", "bezeichnung": "Kuhweg" }, "geometry": { "type": "Point", "coordinates": [ 6.882000996987905, 51.641542925220328 ] } },
{ "type": "Feature", "properties": { "strassenschluessel": "05170000003637827", "bezeichnung": "Lehmbruckstraße" }, "geometry": { "type": "Point", "coordinates": [ 6.892543739481958, 51.648604044955569 ] } },
{ "type": "Feature", "properties": { "strassenschluessel": "05170000003637828", "bezeichnung": "Meesenmühlenweg" }, "geometry": { "type": "Point", "coordinates": [ 6.85194019971272, 51.657258158751176 ] } },
{ "type": "Feature", "properties": { "strassenschluessel": "05170000003637830", "bezeichnung": "Nierleistraße" }, "geometry": null },
{ "type": "Feature", "properties": { "strassenschluessel": "05170000003637831", "bezeichnung": "Niewerth" }, "geometry": { "type": "Point", "coordinates": [ 6.873768144260149, 51.664758970331484 ] } },
{ "type": "Feature", "properties": { "strassenschluessel": "05170000003637832", "bezeichnung": "Östricher Straße" }, "geometry": { "type": "Point", "coordinates": [ 6.89521128720451, 51.658502627991638 ] } },
{ "type": "Feature", "properties": { "strassenschluessel": "05170000003637833", "bezeichnung": "Pannacker Straße" }, "geometry": { "type": "Point", "coordinates": [ 6.892852029198913, 51.647005399577324 ] } },
{ "type": "Feature", "properties": { "strassenschluessel": "05170000003637834", "bezeichnung": "Paßstraße" }, "geometry": { "type": "Point", "coordinates": [ 6.879337020850658, 51.666399031151236 ] } },
{ "type": "Feature", "properties": { "strassenschluessel": "05170000003637835", "bezeichnung": "Pfannhüttenstraße" }, "geometry": { "type": "Point", "coordinates": [ 6.856829912200642, 51.663062323817947 ] } },
{ "type": "Feature", "properties": { "strassenschluessel": "05170000003637836", "bezeichnung": "Rottstraße" }, "geometry": { "type": "Point", "coordinates": [ 6.87219256915547, 51.668587902131485 ] } },
{ "type": "Feature", "properties": { "strassenschluessel": "05170000003637837", "bezeichnung": "Schmetzberg" }, "geometry": { "type": "Point", "coordinates": [ 6.8753260456882, 51.665949082814471 ] } },
{ "type": "Feature", "properties": { "strassenschluessel": "05170000003637838", "bezeichnung": "Steinbergweg" }, "geometry": { "type": "Point", "coordinates": [ 6.881145235866314, 51.666250642198058 ] } },
{ "type": "Feature", "properties": { "strassenschluessel": "05170000003637839", "bezeichnung": "Torfstraße" }, "geometry": { "type": "Point", "coordinates": [ 6.888018933887754, 51.647595917598188 ] } },
{ "type": "Feature", "properties": { "strassenschluessel": "05170000003637840", "bezeichnung": "Vennweg" }, "geometry": { "type": "Point", "coordinates": [ 6.869543490806063, 51.64653782909555 ] } },
{ "type": "Feature", "properties": { "strassenschluessel": "05170000003637841", "bezeichnung": "Waldaustraße" }, "geometry": { "type": "Point", "coordinates": [ 6.854352664248544, 51.664694463273285 ] } },
{ "type": "Feature", "properties": { "strassenschluessel": "05170000003637842", "bezeichnung": "Widemweg" }, "geometry": { "type": "Point", "coordinates": [ 6.870384509022359, 51.664528801586741 ] } },
{ "type": "Feature", "properties": { "strassenschluessel": "05170000003637843", "bezeichnung": "Wiesengrund" }, "geometry": { "type": "Point", "coordinates": [ 6.878269793058593, 51.666147292355092 ] } },
{ "type": "Feature", "properties": { "strassenschluessel": "05170000003637844", "bezeichnung": "Zum Gahlener Grind" }, "geometry": { "type": "Point", "coordinates": [ 6.866926272917222, 51.672411457238951 ] } },
{ "type": "Feature", "properties": { "strassenschluessel": "05170000003637845", "bezeichnung": "Heckenweg" }, "geometry": { "type": "Point", "coordinates": [ 6.87635503559212, 51.668227307397366 ] } },
{ "type": "Feature", "properties": { "strassenschluessel": "05170000003637846", "bezeichnung": "Am Tannenbaum" }, "geometry": null },
{ "type": "Feature", "properties": { "strassenschluessel": "05170000003637847", "bezeichnung": "Bergweg" }, "geometry": null },
{ "type": "Feature", "properties": { "strassenschluessel": "05170000003637848", "bezeichnung": "Brömmelweg" }, "geometry": null },
{ "type": "Feature", "properties": { "strassenschluessel": "05170000003637849", "bezeichnung": "Bruchwiesenweg" }, "geometry": null },
{ "type": "Feature", "properties": { "strassenschluessel": "05170000003637850", "bezeichnung": "Buschmannsweg" }, "geometry": null },
{ "type": "Feature", "properties": { "strassenschluessel": "05170000003637851", "bezeichnung": "Gerlingsweg" }, "geometry": null },
{ "type": "Feature", "properties": { "strassenschluessel": "05170000003637852", "bezeichnung": "Holthausener Straße" }, "geometry": null },
{ "type": "Feature", "properties": { "strassenschluessel": "05170000003637853", "bezeichnung": "Krummeweg" }, "geometry": null },
{ "type": "Feature", "properties": { "strassenschluessel": "05170000003637854", "bezeichnung": "Langevennweg" }, "geometry": null },
{ "type": "Feature", "properties": { "strassenschluessel": "05170000003637855", "bezeichnung": "Mittelweg" }, "geometry": null },
{ "type": "Feature", "properties": { "strassenschluessel": "05170000003637856", "bezeichnung": "Neuer Kirchweg" }, "geometry": null },
{ "type": "Feature", "properties": { "strassenschluessel": "05170000003637857", "bezeichnung": "Pottgartenweg" }, "geometry": null },
{ "type": "Feature", "properties": { "strassenschluessel": "05170000003637858", "bezeichnung": "Schnellenbergweg" }, "geometry": null },
{ "type": "Feature", "properties": { "strassenschluessel": "05170000003637859", "bezeichnung": "Vennkampsweg" }, "geometry": null },
{ "type": "Feature", "properties": { "strassenschluessel": "05170000003637860", "bezeichnung": "Vornsberg" }, "geometry": null },
{ "type": "Feature", "properties": { "strassenschluessel": "05170000003637863", "bezeichnung": "Am Paeppelnberg" }, "geometry": null },
{ "type": "Feature", "properties": { "strassenschluessel": "05170000003637866", "bezeichnung": "Hilgenbergweg" }, "geometry": { "type": "Point", "coordinates": [ 6.86455165794122, 51.710221821072473 ] } },
{ "type": "Feature", "properties": { "strassenschluessel": "05170000003637870", "bezeichnung": "Sylhorstweg" }, "geometry": null },
{ "type": "Feature", "properties": { "strassenschluessel": "05170000003637871", "bezeichnung": "Westricher Straße" }, "geometry": { "type": "Point", "coordinates": [ 6.847157535103813, 51.736253875200724 ] } },
{ "type": "Feature", "properties": { "strassenschluessel": "05170000003637872", "bezeichnung": "Krämers Kamp" }, "geometry": { "type": "Point", "coordinates": [ 6.87554030719618, 51.70126720610228 ] } },
{ "type": "Feature", "properties": { "strassenschluessel": "05170000003637873", "bezeichnung": "Zur Waldheide" }, "geometry": { "type": "Point", "coordinates": [ 6.841012326157175, 51.733446291046953 ] } },
{ "type": "Feature", "properties": { "strassenschluessel": "05170000003637874", "bezeichnung": "Tüschenbachweg" }, "geometry": null },
{ "type": "Feature", "properties": { "strassenschluessel": "05170000003637875", "bezeichnung": "Dörnekamp" }, "geometry": { "type": "Point", "coordinates": [ 6.874870143005539, 51.700585177016023 ] } },
{ "type": "Feature", "properties": { "strassenschluessel": "05170000003637878", "bezeichnung": "Adolf-von-Kleve-Straße" }, "geometry": { "type": "Point", "coordinates": [ 6.870481089074959, 51.688695563146013 ] } },
{ "type": "Feature", "properties": { "strassenschluessel": "05170000003637881", "bezeichnung": "Am Scherenbach" }, "geometry": { "type": "Point", "coordinates": [ 6.862739712961091, 51.684587207179355 ] } },
{ "type": "Feature", "properties": { "strassenschluessel": "05170000003637882", "bezeichnung": "An der Voßkuhle" }, "geometry": { "type": "Point", "coordinates": [ 6.864719403638272, 51.686951732057793 ] } },
{ "type": "Feature", "properties": { "strassenschluessel": "05170000003637884", "bezeichnung": "Bachstraße" }, "geometry": { "type": "Point", "coordinates": [ 6.871773729359112, 51.693644569615181 ] } },
{ "type": "Feature", "properties": { "strassenschluessel": "05170000003637885", "bezeichnung": "Bahnhofstraße" }, "geometry": { "type": "Point", "coordinates": [ 6.862885153085774, 51.681834262569581 ] } },
{ "type": "Feature", "properties": { "strassenschluessel": "05170000003637886", "bezeichnung": "Bösenberg" }, "geometry": { "type": "Point", "coordinates": [ 6.868306821489005, 51.696960136746448 ] } },
{ "type": "Feature", "properties": { "strassenschluessel": "05170000003637887", "bezeichnung": "Brüggerfeld" }, "geometry": { "type": "Point", "coordinates": [ 6.866754912437329, 51.681915340163663 ] } },
{ "type": "Feature", "properties": { "strassenschluessel": "05170000003637888", "bezeichnung": "Burgstraße" }, "geometry": { "type": "Point", "coordinates": [ 6.870127068199177, 51.692863128337962 ] } },
{ "type": "Feature", "properties": { "strassenschluessel": "05170000003637889", "bezeichnung": "Buschkamp" }, "geometry": { "type": "Point", "coordinates": [ 6.87580252300835, 51.690409688090242 ] } },
{ "type": "Feature", "properties": { "strassenschluessel": "05170000003637890", "bezeichnung": "Corte-Derik-Weg" }, "geometry": null },
{ "type": "Feature", "properties": { "strassenschluessel": "05170000003637891", "bezeichnung": "Derick-Baegert-Weg" }, "geometry": { "type": "Point", "coordinates": [ 6.871171293599044, 51.687056429083228 ] } },
{ "type": "Feature", "properties": { "strassenschluessel": "05170000003637892", "bezeichnung": "Duvenkamp" }, "geometry": { "type": "Point", "coordinates": [ 6.876389159670285, 51.689625967864472 ] } },
{ "type": "Feature", "properties": { "strassenschluessel": "05170000003637893", "bezeichnung": "Erler Straße" }, "geometry": { "type": "Point", "coordinates": [ 6.873736704950345, 51.713565666542266 ] } },
{ "type": "Feature", "properties": { "strassenschluessel": "05170000003637894", "bezeichnung": "Feldmark" }, "geometry": { "type": "Point", "coordinates": [ 6.855041944458651, 51.685444743007096 ] } },
{ "type": "Feature", "properties": { "strassenschluessel": "05170000003637895", "bezeichnung": "Fischerskamp" }, "geometry": { "type": "Point", "coordinates": [ 6.877142567762619, 51.688654952791516 ] } },
{ "type": "Feature", "properties": { "strassenschluessel": "05170000003637896", "bezeichnung": "Gartenstraße" }, "geometry": { "type": "Point", "coordinates": [ 6.868693243533432, 51.696150112859925 ] } },
{ "type": "Feature", "properties": { "strassenschluessel": "05170000003637897", "bezeichnung": "Georg-Rawe-Straße" }, "geometry": { "type": "Point", "coordinates": [ 6.875207971268837, 51.688516653632391 ] } },
{ "type": "Feature", "properties": { "strassenschluessel": "05170000003637898", "bezeichnung": "Georgstraße" }, "geometry": { "type": "Point", "coordinates": [ 6.870548286987857, 51.6918920286966 ] } },
{ "type": "Feature", "properties": { "strassenschluessel": "05170000003637899", "bezeichnung": "Gerhard-Schuirmann-Weg" }, "geometry": null },
{ "type": "Feature", "properties": { "strassenschluessel": "05170000003637900", "bezeichnung": "Gietlingswiese" }, "geometry": { "type": "Point", "coordinates": [ 6.861151117565113, 51.681949453719724 ] } },
{ "type": "Feature", "properties": { "strassenschluessel": "05170000003637901", "bezeichnung": "Grünkamp" }, "geometry": { "type": "Point", "coordinates": [ 6.87588548232274, 51.689603665733927 ] } },
{ "type": "Feature", "properties": { "strassenschluessel": "05170000003637902", "bezeichnung": "Gustav-Sack-Straße" }, "geometry": { "type": "Point", "coordinates": [ 6.875340881890008, 51.687462243998525 ] } },
{ "type": "Feature", "properties": { "strassenschluessel": "05170000003637903", "bezeichnung": "Heinrich-von-Gemen-Str." }, "geometry": { "type": "Point", "coordinates": [ 6.873763046807617, 51.688729647155355 ] } },
{ "type": "Feature", "properties": { "strassenschluessel": "05170000003637904", "bezeichnung": "Hinter der Mauer" }, "geometry": { "type": "Point", "coordinates": [ 6.870480065803677, 51.691803497838038 ] } },
{ "type": "Feature", "properties": { "strassenschluessel": "05170000003637905", "bezeichnung": "Hogen Mai" }, "geometry": { "type": "Point", "coordinates": [ 6.869207789799461, 51.692440774643543 ] } },
{ "type": "Feature", "properties": { "strassenschluessel": "05170000003637906", "bezeichnung": "Hoher Weg" }, "geometry": { "type": "Point", "coordinates": [ 6.873435592801024, 51.687720014759861 ] } },
{ "type": "Feature", "properties": { "strassenschluessel": "05170000003637907", "bezeichnung": "Im Bruch" }, "geometry": { "type": "Point", "coordinates": [ 6.868181315530986, 51.698563632837789 ] } },
{ "type": "Feature", "properties": { "strassenschluessel": "05170000003637908", "bezeichnung": "Im Heetwinkel" }, "geometry": { "type": "Point", "coordinates": [ 6.878694108742227, 51.683279143659696 ] } },
{ "type": "Feature", "properties": { "strassenschluessel": "05170000003637909", "bezeichnung": "Im Vogelsang" }, "geometry": { "type": "Point", "coordinates": [ 6.856974630769842, 51.686104695055761 ] } },
{ "type": "Feature", "properties": { "strassenschluessel": "05170000003637910", "bezeichnung": "Johann-von-der-Recke-Str." }, "geometry": { "type": "Point", "coordinates": [ 6.869140984688482, 51.689403066231478 ] } },
{ "type": "Feature", "properties": { "strassenschluessel": "05170000003637911", "bezeichnung": "Kapellenweg" }, "geometry": { "type": "Point", "coordinates": [ 6.877994297034832, 51.680800123951585 ] } },
{ "type": "Feature", "properties": { "strassenschluessel": "05170000003637912", "bezeichnung": "Kempkesstege" }, "geometry": { "type": "Point", "coordinates": [ 6.870607350441581, 51.690220858104446 ] } },
{ "type": "Feature", "properties": { "strassenschluessel": "05170000003637913", "bezeichnung": "Kinskamp" }, "geometry": { "type": "Point", "coordinates": [ 6.877360159113727, 51.68898773709126 ] } },
{ "type": "Feature", "properties": { "strassenschluessel": "05170000003637914", "bezeichnung": "Landwehr" }, "geometry": { "type": "Point", "coordinates": [ 6.875054535511107, 51.684382338236134 ] } },
{ "type": "Feature", "properties": { "strassenschluessel": "05170000003637915", "bezeichnung": "Lichtenhagen" }, "geometry": { "type": "Point", "coordinates": [ 6.858961753265125, 51.697500598653235 ] } },
{ "type": "Feature", "properties": { "strassenschluessel": "05170000003637916", "bezeichnung": "Maassenstraße" }, "geometry": { "type": "Point", "coordinates": [ 6.860923904672328, 51.671168907715604 ] } },
{ "type": "Feature", "properties": { "strassenschluessel": "05170000003637917", "bezeichnung": "Mittelstraße" }, "geometry": { "type": "Point", "coordinates": [ 6.874091008436776, 51.694486564886908 ] } },
{ "type": "Feature", "properties": { "strassenschluessel": "05170000003637918", "bezeichnung": "Moritz-von-Oranien-Straße" }, "geometry": { "type": "Point", "coordinates": [ 6.874845303629553, 51.688008828568215 ] } },
{ "type": "Feature", "properties": { "strassenschluessel": "05170000003637919", "bezeichnung": "Mühlentor" }, "geometry": { "type": "Point", "coordinates": [ 6.869010649700233, 51.69218796008407 ] } },
{ "type": "Feature", "properties": { "strassenschluessel": "05170000003637920", "bezeichnung": "Peter-Gypken-Weg" }, "geometry": null },
{ "type": "Feature", "properties": { "strassenschluessel": "05170000003637921", "bezeichnung": "Pfarrer-Disselhoff-Str." }, "geometry": { "type": "Point", "coordinates": [ 6.867827728726251, 51.688868928132948 ] } },
{ "type": "Feature", "properties": { "strassenschluessel": "05170000003637922", "bezeichnung": "Pfarrer-Holtrichter-Str." }, "geometry": { "type": "Point", "coordinates": [ 6.869699714638909, 51.689204694835979 ] } },
{ "type": "Feature", "properties": { "strassenschluessel": "05170000003637923", "bezeichnung": "Pöttekamp" }, "geometry": { "type": "Point", "coordinates": [ 6.873948650634333, 51.693708569500515 ] } },
{ "type": "Feature", "properties": { "strassenschluessel": "05170000003637924", "bezeichnung": "Rosenweg" }, "geometry": { "type": "Point", "coordinates": [ 6.86929806754501, 51.694868337020928 ] } },
{ "type": "Feature", "properties": { "strassenschluessel": "05170000003637925", "bezeichnung": "Schembusch" }, "geometry": { "type": "Point", "coordinates": [ 6.871980437771611, 51.692205167940365 ] } },
{ "type": "Feature", "properties": { "strassenschluessel": "05170000003637926", "bezeichnung": "Schienebergstege" }, "geometry": { "type": "Point", "coordinates": [ 6.870123114197897, 51.691284844561054 ] } },
{ "type": "Feature", "properties": { "strassenschluessel": "05170000003637927", "bezeichnung": "Schollkamp" }, "geometry": { "type": "Point", "coordinates": [ 6.876944172390465, 51.688206381283635 ] } },
{ "type": "Feature", "properties": { "strassenschluessel": "05170000003637928", "bezeichnung": "Siegelhof" }, "geometry": { "type": "Point", "coordinates": [ 6.872171233601913, 51.698463716369979 ] } },
{ "type": "Feature", "properties": { "strassenschluessel": "05170000003637929", "bezeichnung": "Steintorstraße" }, "geometry": { "type": "Point", "coordinates": [ 6.871629847368492, 51.69338686146105 ] } },
{ "type": "Feature", "properties": { "strassenschluessel": "05170000003637930", "bezeichnung": "Theodor-Crato-Weg" }, "geometry": null },
{ "type": "Feature", "properties": { "strassenschluessel": "05170000003637931", "bezeichnung": "Spechort" }, "geometry": { "type": "Point", "coordinates": [ 6.873189308783705, 51.700090844524858 ] } },
{ "type": "Feature", "properties": { "strassenschluessel": "05170000003637932", "bezeichnung": "Töpfergasse" }, "geometry": { "type": "Point", "coordinates": [ 6.870716542819333, 51.69312339707264 ] } },
{ "type": "Feature", "properties": { "strassenschluessel": "05170000003637933", "bezeichnung": "Vogelrute" }, "geometry": { "type": "Point", "coordinates": [ 6.856510969440912, 51.688258797805062 ] } },
{ "type": "Feature", "properties": { "strassenschluessel": "05170000003637934", "bezeichnung": "Waldweg" }, "geometry": { "type": "Point", "coordinates": [ 6.851212313205028, 51.695471677713869 ] } },
{ "type": "Feature", "properties": { "strassenschluessel": "05170000003637935", "bezeichnung": "Weseler Straße" }, "geometry": { "type": "Point", "coordinates": [ 6.867527479428566, 51.691302459997473 ] } },
{ "type": "Feature", "properties": { "strassenschluessel": "05170000003637936", "bezeichnung": "Wiesenstraße" }, "geometry": { "type": "Point", "coordinates": [ 6.870987457704041, 51.693309479179675 ] } },
{ "type": "Feature", "properties": { "strassenschluessel": "05170000003637937", "bezeichnung": "Am Rathaus" }, "geometry": { "type": "Point", "coordinates": [ 6.867765058719281, 51.690341677089393 ] } },
{ "type": "Feature", "properties": { "strassenschluessel": "05170000003637938", "bezeichnung": "Lüttge Feld" }, "geometry": { "type": "Point", "coordinates": [ 6.856599552748537, 51.68210941032428 ] } },
{ "type": "Feature", "properties": { "strassenschluessel": "05170000003637939", "bezeichnung": "Mühlenbachweg" }, "geometry": { "type": "Point", "coordinates": [ 6.866168753884549, 51.687262046081173 ] } },
{ "type": "Feature", "properties": { "strassenschluessel": "05170000003637940", "bezeichnung": "Apothekerstege" }, "geometry": null },
{ "type": "Feature", "properties": { "strassenschluessel": "05170000003637941", "bezeichnung": "Fontanestraße" }, "geometry": { "type": "Point", "coordinates": [ 6.872938513833059, 51.695935254699442 ] } },
{ "type": "Feature", "properties": { "strassenschluessel": "05170000003637942", "bezeichnung": "Goethestraße" }, "geometry": { "type": "Point", "coordinates": [ 6.871927158267147, 51.696609840897949 ] } },
{ "type": "Feature", "properties": { "strassenschluessel": "05170000003637943", "bezeichnung": "Heinestraße" }, "geometry": { "type": "Point", "coordinates": [ 6.87268210507192, 51.695608171297195 ] } },
{ "type": "Feature", "properties": { "strassenschluessel": "05170000003637944", "bezeichnung": "Lessingstraße" }, "geometry": { "type": "Point", "coordinates": [ 6.871186502773957, 51.695682274987384 ] } },
{ "type": "Feature", "properties": { "strassenschluessel": "05170000003637945", "bezeichnung": "Schillerstraße" }, "geometry": { "type": "Point", "coordinates": [ 6.874075785624389, 51.698467039576727 ] } },
{ "type": "Feature", "properties": { "strassenschluessel": "05170000003637946", "bezeichnung": "Schustergasse" }, "geometry": { "type": "Point", "coordinates": [ 6.870362604356657, 51.692163078784816 ] } },
{ "type": "Feature", "properties": { "strassenschluessel": "05170000003637947", "bezeichnung": "Zum Bleichwall" }, "geometry": { "type": "Point", "coordinates": [ 6.869899746306602, 51.693513820672415 ] } },
{ "type": "Feature", "properties": { "strassenschluessel": "05170000003637948", "bezeichnung": "Dörnebruch" }, "geometry": { "type": "Point", "coordinates": [ 6.868567156475274, 51.701736949474217 ] } },
{ "type": "Feature", "properties": { "strassenschluessel": "05170000003637949", "bezeichnung": "Lohstege" }, "geometry": { "type": "Point", "coordinates": [ 6.872458010107302, 51.685543074002815 ] } },
{ "type": "Feature", "properties": { "strassenschluessel": "05170000003637950", "bezeichnung": "Bollsweg" }, "geometry": null },
{ "type": "Feature", "properties": { "strassenschluessel": "05170000003637951", "bezeichnung": "Lönsweg" }, "geometry": { "type": "Point", "coordinates": [ 6.870225444884137, 51.700015387618521 ] } },
{ "type": "Feature", "properties": { "strassenschluessel": "05170000003637952", "bezeichnung": "Am Hallenbad" }, "geometry": { "type": "Point", "coordinates": [ 6.863735123754513, 51.688172059639101 ] } },
{ "type": "Feature", "properties": { "strassenschluessel": "05170000003637953", "bezeichnung": "Borgskamp" }, "geometry": { "type": "Point", "coordinates": [ 6.862742108250035, 51.688576727737562 ] } },
{ "type": "Feature", "properties": { "strassenschluessel": "05170000003637954", "bezeichnung": "Martin-Luther-Straße" }, "geometry": { "type": "Point", "coordinates": [ 6.862132522398053, 51.687580578012863 ] } },
{ "type": "Feature", "properties": { "strassenschluessel": "05170000003637973", "bezeichnung": "Im Hasselt" }, "geometry": { "type": "Point", "coordinates": [ 6.700244519713087, 51.713344053928061 ] } },
{ "type": "Feature", "properties": { "strassenschluessel": "05170000003637974", "bezeichnung": "Hanßemannsweg" }, "geometry": null },
{ "type": "Feature", "properties": { "strassenschluessel": "05170000003637975", "bezeichnung": "Streitweg" }, "geometry": null },
{ "type": "Feature", "properties": { "strassenschluessel": "05170000003637976", "bezeichnung": "Lühlerheimer Weg" }, "geometry": null },
{ "type": "Feature", "properties": { "strassenschluessel": "05170000003637977", "bezeichnung": "Alte Raesfelder Straße" }, "geometry": { "type": "Point", "coordinates": [ 6.71893908848181, 51.715487019129029 ] } },
{ "type": "Feature", "properties": { "strassenschluessel": "05170000003637978", "bezeichnung": "Am Bauernschott" }, "geometry": { "type": "Point", "coordinates": [ 6.733191891963171, 51.708444801741599 ] } },
{ "type": "Feature", "properties": { "strassenschluessel": "05170000003637979", "bezeichnung": "Am Egelsberg" }, "geometry": { "type": "Point", "coordinates": [ 6.708010662713065, 51.711908783434339 ] } },
{ "type": "Feature", "properties": { "strassenschluessel": "05170000003637980", "bezeichnung": "Am Gruenen Rock" }, "geometry": null },
{ "type": "Feature", "properties": { "strassenschluessel": "05170000003637981", "bezeichnung": "Rehbach" }, "geometry": { "type": "Point", "coordinates": [ 6.756742881945176, 51.729497229343821 ] } },
{ "type": "Feature", "properties": { "strassenschluessel": "05170000003637982", "bezeichnung": "Am Voshövel" }, "geometry": { "type": "Point", "coordinates": [ 6.7196526931961, 51.715512549543767 ] } },
{ "type": "Feature", "properties": { "strassenschluessel": "05170000003637983", "bezeichnung": "An der Friedenseiche" }, "geometry": { "type": "Point", "coordinates": [ 6.74661816306859, 51.718157659527932 ] } },
{ "type": "Feature", "properties": { "strassenschluessel": "05170000003637984", "bezeichnung": "An der Windmühle" }, "geometry": { "type": "Point", "coordinates": [ 6.740876426861917, 51.711024803328201 ] } },
{ "type": "Feature", "properties": { "strassenschluessel": "05170000003637986", "bezeichnung": "Buchenweg" }, "geometry": { "type": "Point", "coordinates": [ 6.719124589819436, 51.714027488865597 ] } },
{ "type": "Feature", "properties": { "strassenschluessel": "05170000003637988", "bezeichnung": "Gertendorfer Weg" }, "geometry": { "type": "Point", "coordinates": [ 6.751447409617795, 51.732568154376203 ] } },
{ "type": "Feature", "properties": { "strassenschluessel": "05170000003637989", "bezeichnung": "Im Schwarzen Grund" }, "geometry": { "type": "Point", "coordinates": [ 6.739363441335473, 51.721375789921488 ] } },
{ "type": "Feature", "properties": { "strassenschluessel": "05170000003637990", "bezeichnung": "Klosterweg" }, "geometry": { "type": "Point", "coordinates": [ 6.734367563637639, 51.72840435046993 ] } },
{ "type": "Feature", "properties": { "strassenschluessel": "05170000003637991", "bezeichnung": "Logsteenweg" }, "geometry": { "type": "Point", "coordinates": [ 6.75477818547677, 51.708455895900372 ] } },
{ "type": "Feature", "properties": { "strassenschluessel": "05170000003637992", "bezeichnung": "Marienthaler Straße" }, "geometry": { "type": "Point", "coordinates": [ 6.742138856954806, 51.727721308955367 ] } },
{ "type": "Feature", "properties": { "strassenschluessel": "05170000003637993", "bezeichnung": "Postweg" }, "geometry": { "type": "Point", "coordinates": [ 6.719377797957217, 51.715203183955403 ] } },
{ "type": "Feature", "properties": { "strassenschluessel": "05170000003637995", "bezeichnung": "Steenbecksweg" }, "geometry": { "type": "Point", "coordinates": [ 6.715092339988831, 51.719480538656249 ] } },
{ "type": "Feature", "properties": { "strassenschluessel": "05170000003637996", "bezeichnung": "Straatmannsweg" }, "geometry": { "type": "Point", "coordinates": [ 6.729296052551088, 51.70216870118248 ] } },
{ "type": "Feature", "properties": { "strassenschluessel": "05170000003637998", "bezeichnung": "Wöllenbruch" }, "geometry": { "type": "Point", "coordinates": [ 6.738648015435128, 51.724804721638556 ] } },
{ "type": "Feature", "properties": { "strassenschluessel": "05170000003637999", "bezeichnung": "Zum Teufelstein" }, "geometry": { "type": "Point", "coordinates": [ 6.76012882334654, 51.711353034383428 ] } },
{ "type": "Feature", "properties": { "strassenschluessel": "051700000036=0031", "bezeichnung": "Autobahn Bottrop-Emden" }, "geometry": null }
]
}
