{
"type": "FeatureCollection",
"features": [
{ "type": "Feature", "properties": { "strassenschluessel": "05754000003610000", "bezeichnung": "Achatiusweg" }, "geometry": { "type": "Point", "coordinates": [ 8.690962556615995, 51.870926857730268 ] } },
{ "type": "Feature", "properties": { "strassenschluessel": "05754000003610050", "bezeichnung": "Abt-Kruse-Weg" }, "geometry": { "type": "Point", "coordinates": [ 8.656443711590537, 51.907363989969603 ] } },
{ "type": "Feature", "properties": { "strassenschluessel": "05754000003610100", "bezeichnung": "Adlerstraße" }, "geometry": { "type": "Point", "coordinates": [ 8.605393435970758, 51.918782505518607 ] } },
{ "type": "Feature", "properties": { "strassenschluessel": "05754000003610150", "bezeichnung": "Adolf-Reichwein-Weg" }, "geometry": { "type": "Point", "coordinates": [ 8.664253497294522, 51.905089254576367 ] } },
{ "type": "Feature", "properties": { "strassenschluessel": "05754000003610200", "bezeichnung": "Ahornweg" }, "geometry": { "type": "Point", "coordinates": [ 8.643485750787168, 51.905932150509834 ] } },
{ "type": "Feature", "properties": { "strassenschluessel": "05754000003610300", "bezeichnung": "Akazienweg" }, "geometry": { "type": "Point", "coordinates": [ 8.646532705075799, 51.912312883849054 ] } },
{ "type": "Feature", "properties": { "strassenschluessel": "05754000003610400", "bezeichnung": "Albert-Schweitzer-Weg" }, "geometry": { "type": "Point", "coordinates": [ 8.663647876565472, 51.907231687434908 ] } },
{ "type": "Feature", "properties": { "strassenschluessel": "05754000003610450", "bezeichnung": "Alfred-Delp-Weg" }, "geometry": { "type": "Point", "coordinates": [ 8.658538163557383, 51.904022197324508 ] } },
{ "type": "Feature", "properties": { "strassenschluessel": "05754000003610500", "bezeichnung": "Alte Paderborner Landstraße" }, "geometry": { "type": "Point", "coordinates": [ 8.564247602102059, 51.923390459036263 ] } },
{ "type": "Feature", "properties": { "strassenschluessel": "05754000003610600", "bezeichnung": "Alte Poststraße" }, "geometry": { "type": "Point", "coordinates": [ 8.636568383406592, 51.880097276528652 ] } },
{ "type": "Feature", "properties": { "strassenschluessel": "05754000003610630", "bezeichnung": "Alte Spellerstraße" }, "geometry": { "type": "Point", "coordinates": [ 8.641017383154189, 51.902859547822551 ] } },
{ "type": "Feature", "properties": { "strassenschluessel": "05754000003610650", "bezeichnung": "Altenkamp" }, "geometry": { "type": "Point", "coordinates": [ 8.612735087083276, 51.882413998876622 ] } },
{ "type": "Feature", "properties": { "strassenschluessel": "05754000003610700", "bezeichnung": "Alter Markt" }, "geometry": { "type": "Point", "coordinates": [ 8.658055215656265, 51.912156345334381 ] } },
{ "type": "Feature", "properties": { "strassenschluessel": "05754000003610750", "bezeichnung": "Altes Oestervenn" }, "geometry": { "type": "Point", "coordinates": [ 8.601487703520776, 51.914438792780977 ] } },
{ "type": "Feature", "properties": { "strassenschluessel": "05754000003610780", "bezeichnung": "Am Anger" }, "geometry": { "type": "Point", "coordinates": [ 8.645293042072156, 51.904893460290573 ] } },
{ "type": "Feature", "properties": { "strassenschluessel": "05754000003610800", "bezeichnung": "Am Bärenbach" }, "geometry": { "type": "Point", "coordinates": [ 8.724119845002681, 51.880457933884301 ] } },
{ "type": "Feature", "properties": { "strassenschluessel": "05754000003610850", "bezeichnung": "Am Ehrenmal" }, "geometry": { "type": "Point", "coordinates": [ 8.61239391102845, 51.903721628646394 ] } },
{ "type": "Feature", "properties": { "strassenschluessel": "05754000003610900", "bezeichnung": "Am Fahrenstau" }, "geometry": { "type": "Point", "coordinates": [ 8.627515214624223, 51.87995844815979 ] } },
{ "type": "Feature", "properties": { "strassenschluessel": "05754000003610950", "bezeichnung": "Am Forthof" }, "geometry": { "type": "Point", "coordinates": [ 8.662923043945762, 51.919025174909578 ] } },
{ "type": "Feature", "properties": { "strassenschluessel": "05754000003611000", "bezeichnung": "Am Furlbach" }, "geometry": { "type": "Point", "coordinates": [ 8.665843088999821, 51.871857582075329 ] } },
{ "type": "Feature", "properties": { "strassenschluessel": "05754000003611030", "bezeichnung": "Am Hain" }, "geometry": { "type": "Point", "coordinates": [ 8.645195580404838, 51.903489351828583 ] } },
{ "type": "Feature", "properties": { "strassenschluessel": "05754000003611050", "bezeichnung": "Am Hallenbad" }, "geometry": { "type": "Point", "coordinates": [ 8.630502298796294, 51.904815777096829 ] } },
{ "type": "Feature", "properties": { "strassenschluessel": "05754000003611100", "bezeichnung": "Am Landerbach" }, "geometry": { "type": "Point", "coordinates": [ 8.573251482887695, 51.909433274534848 ] } },
{ "type": "Feature", "properties": { "strassenschluessel": "05754000003611200", "bezeichnung": "Am Menkebach" }, "geometry": { "type": "Point", "coordinates": [ 8.57673841053461, 51.91731232122428 ] } },
{ "type": "Feature", "properties": { "strassenschluessel": "05754000003611300", "bezeichnung": "Am Ölbach" }, "geometry": { "type": "Point", "coordinates": [ 8.613224387028387, 51.903285745133438 ] } },
{ "type": "Feature", "properties": { "strassenschluessel": "05754000003611400", "bezeichnung": "Am Ottenhof" }, "geometry": { "type": "Point", "coordinates": [ 8.662057335931806, 51.911780538792414 ] } },
{ "type": "Feature", "properties": { "strassenschluessel": "05754000003611500", "bezeichnung": "Am Pastorat" }, "geometry": { "type": "Point", "coordinates": [ 8.654081363478774, 51.91040726031077 ] } },
{ "type": "Feature", "properties": { "strassenschluessel": "05754000003611550", "bezeichnung": "Am Rathaus" }, "geometry": { "type": "Point", "coordinates": [ 8.639198842269815, 51.901502949774091 ] } },
{ "type": "Feature", "properties": { "strassenschluessel": "05754000003611600", "bezeichnung": "Am Schloss" }, "geometry": { "type": "Point", "coordinates": [ 8.602547193451583, 51.898600978441323 ] } },
{ "type": "Feature", "properties": { "strassenschluessel": "05754000003611700", "bezeichnung": "Am Schützenplatz" }, "geometry": { "type": "Point", "coordinates": [ 8.656048060199463, 51.908944645382078 ] } },
{ "type": "Feature", "properties": { "strassenschluessel": "05754000003611800", "bezeichnung": "Am Schulhof" }, "geometry": { "type": "Point", "coordinates": [ 8.573407601169908, 51.918653851069713 ] } },
{ "type": "Feature", "properties": { "strassenschluessel": "05754000003611800", "bezeichnung": "Am Schulhof" }, "geometry": { "type": "Point", "coordinates": [ 8.573407601169908, 51.918653851069713 ] } },
{ "type": "Feature", "properties": { "strassenschluessel": "05754000003611900", "bezeichnung": "Am Sportplatz" }, "geometry": { "type": "Point", "coordinates": [ 8.660481492029021, 51.917021274878792 ] } },
{ "type": "Feature", "properties": { "strassenschluessel": "05754000003612000", "bezeichnung": "Am Stallfeld" }, "geometry": { "type": "Point", "coordinates": [ 8.660376672658149, 51.883864806905272 ] } },
{ "type": "Feature", "properties": { "strassenschluessel": "05754000003612100", "bezeichnung": "Amselweg" }, "geometry": { "type": "Point", "coordinates": [ 8.607743266096826, 51.921562091365701 ] } },
{ "type": "Feature", "properties": { "strassenschluessel": "05754000003612200", "bezeichnung": "An der Gießerei" }, "geometry": { "type": "Point", "coordinates": [ 8.665395047568824, 51.909081216844498 ] } },
{ "type": "Feature", "properties": { "strassenschluessel": "05754000003612300", "bezeichnung": "An der Heller" }, "geometry": { "type": "Point", "coordinates": [ 8.618853944702252, 51.885983147419807 ] } },
{ "type": "Feature", "properties": { "strassenschluessel": "05754000003612350", "bezeichnung": "Anemonenweg" }, "geometry": { "type": "Point", "coordinates": [ 8.661647581736013, 51.912741934108304 ] } },
{ "type": "Feature", "properties": { "strassenschluessel": "05754000003612370", "bezeichnung": "Annastraße" }, "geometry": { "type": "Point", "coordinates": [ 8.615573938763214, 51.90190391350847 ] } },
{ "type": "Feature", "properties": { "strassenschluessel": "05754000003612400", "bezeichnung": "Asternweg" }, "geometry": { "type": "Point", "coordinates": [ 8.660705011077296, 51.916768594456883 ] } },
{ "type": "Feature", "properties": { "strassenschluessel": "05754000003612450", "bezeichnung": "Auenweg" }, "geometry": null },
{ "type": "Feature", "properties": { "strassenschluessel": "05754000003612500", "bezeichnung": "Auf dem Sande" }, "geometry": { "type": "Point", "coordinates": [ 8.68875764201645, 51.909020363087897 ] } },
{ "type": "Feature", "properties": { "strassenschluessel": "05754000003612600", "bezeichnung": "Auf den Holen" }, "geometry": { "type": "Point", "coordinates": [ 8.686363849227098, 51.877468102761476 ] } },
{ "type": "Feature", "properties": { "strassenschluessel": "05754000003612700", "bezeichnung": "Augustdorfer Straße" }, "geometry": { "type": "Point", "coordinates": [ 8.672894807631163, 51.908498992986964 ] } },
{ "type": "Feature", "properties": { "strassenschluessel": "05754000003612800", "bezeichnung": "Bachweg" }, "geometry": { "type": "Point", "coordinates": [ 8.616455645304027, 51.874470578866713 ] } },
{ "type": "Feature", "properties": { "strassenschluessel": "05754000003612900", "bezeichnung": "Bahndamm" }, "geometry": { "type": "Point", "coordinates": [ 8.611223101579487, 51.908420040678898 ] } },
{ "type": "Feature", "properties": { "strassenschluessel": "05754000003613000", "bezeichnung": "Bahnhofstraße" }, "geometry": { "type": "Point", "coordinates": [ 8.61620614717126, 51.903319530363554 ] } },
{ "type": "Feature", "properties": { "strassenschluessel": "05754000003613100", "bezeichnung": "Barbaraweg" }, "geometry": { "type": "Point", "coordinates": [ 8.691349362602072, 51.869281064825806 ] } },
{ "type": "Feature", "properties": { "strassenschluessel": "05754000003613200", "bezeichnung": "Bartokweg" }, "geometry": { "type": "Point", "coordinates": [ 8.611603660210257, 51.900657830965969 ] } },
{ "type": "Feature", "properties": { "strassenschluessel": "05754000003613250", "bezeichnung": "Beckersheide" }, "geometry": { "type": "Point", "coordinates": [ 8.588001291130198, 51.916456457617251 ] } },
{ "type": "Feature", "properties": { "strassenschluessel": "05754000003613300", "bezeichnung": "Beethovenstraße" }, "geometry": { "type": "Point", "coordinates": [ 8.618264882724542, 51.897254351998193 ] } },
{ "type": "Feature", "properties": { "strassenschluessel": "05754000003613400", "bezeichnung": "Berliner Straße" }, "geometry": { "type": "Point", "coordinates": [ 8.63170594022132, 51.897641434515187 ] } },
{ "type": "Feature", "properties": { "strassenschluessel": "05754000003613430", "bezeichnung": "Bernhard-Letterhaus-Weg" }, "geometry": { "type": "Point", "coordinates": [ 8.656745070911786, 51.90500114319935 ] } },
{ "type": "Feature", "properties": { "strassenschluessel": "05754000003613440", "bezeichnung": "Bernsteinweg" }, "geometry": { "type": "Point", "coordinates": [ 8.61726215806801, 51.892248940054998 ] } },
{ "type": "Feature", "properties": { "strassenschluessel": "05754000003613450", "bezeichnung": "Bexterweg" }, "geometry": { "type": "Point", "coordinates": [ 8.604027606315015, 51.911076854422987 ] } },
{ "type": "Feature", "properties": { "strassenschluessel": "05754000003613500", "bezeichnung": "Bielefelder Straße" }, "geometry": { "type": "Point", "coordinates": [ 8.635066527098829, 51.916451756994249 ] } },
{ "type": "Feature", "properties": { "strassenschluessel": "05754000003613500", "bezeichnung": "Bielefelder Straße" }, "geometry": { "type": "Point", "coordinates": [ 8.635066527098829, 51.916451756994249 ] } },
{ "type": "Feature", "properties": { "strassenschluessel": "05754000003613520", "bezeichnung": "Bienenweg" }, "geometry": null },
{ "type": "Feature", "properties": { "strassenschluessel": "05754000003613600", "bezeichnung": "Birkenweg" }, "geometry": { "type": "Point", "coordinates": [ 8.643747592362931, 51.906696246487058 ] } },
{ "type": "Feature", "properties": { "strassenschluessel": "05754000003613700", "bezeichnung": "Blumenweg" }, "geometry": { "type": "Point", "coordinates": [ 8.661572555185794, 51.916928103886534 ] } },
{ "type": "Feature", "properties": { "strassenschluessel": "05754000003613750", "bezeichnung": "Bodelschwinghweg" }, "geometry": { "type": "Point", "coordinates": [ 8.660985372355631, 51.90687293581324 ] } },
{ "type": "Feature", "properties": { "strassenschluessel": "05754000003613800", "bezeichnung": "Bokelfenner Straße" }, "geometry": { "type": "Point", "coordinates": [ 8.671190521354157, 51.918404111327398 ] } },
{ "type": "Feature", "properties": { "strassenschluessel": "05754000003613900", "bezeichnung": "Bonifatiusweg" }, "geometry": { "type": "Point", "coordinates": [ 8.677584452841019, 51.881715489925654 ] } },
{ "type": "Feature", "properties": { "strassenschluessel": "05754000003614000", "bezeichnung": "Brahmsweg" }, "geometry": { "type": "Point", "coordinates": [ 8.611935873013806, 51.897847570192724 ] } },
{ "type": "Feature", "properties": { "strassenschluessel": "05754000003614100", "bezeichnung": "Brandkuhle" }, "geometry": { "type": "Point", "coordinates": [ 8.592827721513444, 51.870259594938851 ] } },
{ "type": "Feature", "properties": { "strassenschluessel": "05754000003614200", "bezeichnung": "Breslauer Straße" }, "geometry": { "type": "Point", "coordinates": [ 8.632227968629213, 51.899647438875412 ] } },
{ "type": "Feature", "properties": { "strassenschluessel": "05754000003614300", "bezeichnung": "Brinkeweg" }, "geometry": { "type": "Point", "coordinates": [ 8.616949810004705, 51.879140498134824 ] } },
{ "type": "Feature", "properties": { "strassenschluessel": "05754000003614400", "bezeichnung": "Brockweg" }, "geometry": null },
{ "type": "Feature", "properties": { "strassenschluessel": "05754000003614500", "bezeichnung": "Brucknerweg" }, "geometry": { "type": "Point", "coordinates": [ 8.611777733600171, 51.898835699032936 ] } },
{ "type": "Feature", "properties": { "strassenschluessel": "05754000003614600", "bezeichnung": "Brumbusch" }, "geometry": { "type": "Point", "coordinates": [ 8.608532252433665, 51.866059833729807 ] } },
{ "type": "Feature", "properties": { "strassenschluessel": "05754000003614700", "bezeichnung": "Buchenweg" }, "geometry": { "type": "Point", "coordinates": [ 8.649308515455241, 51.90874592443204 ] } },
{ "type": "Feature", "properties": { "strassenschluessel": "05754000003614800", "bezeichnung": "Bütervenn" }, "geometry": { "type": "Point", "coordinates": [ 8.619024038201045, 51.889919379484084 ] } },
{ "type": "Feature", "properties": { "strassenschluessel": "05754000003614850", "bezeichnung": "Buschenvenn" }, "geometry": { "type": "Point", "coordinates": [ 8.619446421385636, 51.890640660423692 ] } },
{ "type": "Feature", "properties": { "strassenschluessel": "05754000003614900", "bezeichnung": "Buschweg" }, "geometry": { "type": "Point", "coordinates": [ 8.571029732276012, 51.91544021673171 ] } },
{ "type": "Feature", "properties": { "strassenschluessel": "05754000003615000", "bezeichnung": "Bussardweg" }, "geometry": { "type": "Point", "coordinates": [ 8.594063759968146, 51.919233412583857 ] } },
{ "type": "Feature", "properties": { "strassenschluessel": "05754000003615050", "bezeichnung": "Carl-Sonnenschein-Weg" }, "geometry": { "type": "Point", "coordinates": [ 8.659502389886049, 51.908336332478868 ] } },
{ "type": "Feature", "properties": { "strassenschluessel": "05754000003615060", "bezeichnung": "Carl-Zeiss-Straße" }, "geometry": { "type": "Point", "coordinates": [ 8.673829585137437, 51.908514057790747 ] } },
{ "type": "Feature", "properties": { "strassenschluessel": "05754000003615100", "bezeichnung": "Dahlienweg" }, "geometry": { "type": "Point", "coordinates": [ 8.658746065014716, 51.913426495265732 ] } },
{ "type": "Feature", "properties": { "strassenschluessel": "05754000003615200", "bezeichnung": "Dalbkeweg" }, "geometry": { "type": "Point", "coordinates": [ 8.608679268470112, 51.923281325176639 ] } },
{ "type": "Feature", "properties": { "strassenschluessel": "05754000003615300", "bezeichnung": "Dammweg" }, "geometry": { "type": "Point", "coordinates": [ 8.605408727545356, 51.910955868266385 ] } },
{ "type": "Feature", "properties": { "strassenschluessel": "05754000003615400", "bezeichnung": "Danziger Straße" }, "geometry": { "type": "Point", "coordinates": [ 8.6314579517729, 51.898814256226807 ] } },
{ "type": "Feature", "properties": { "strassenschluessel": "05754000003615500", "bezeichnung": "Dechant-Brill-Straße" }, "geometry": { "type": "Point", "coordinates": [ 8.611712205553166, 51.902060261479669 ] } },
{ "type": "Feature", "properties": { "strassenschluessel": "05754000003615600", "bezeichnung": "Detmolder Straße" }, "geometry": { "type": "Point", "coordinates": [ 8.632523885703266, 51.879027828617446 ] } },
{ "type": "Feature", "properties": { "strassenschluessel": "05754000003615630", "bezeichnung": "Dietrich-Bonhoeffer-Weg" }, "geometry": { "type": "Point", "coordinates": [ 8.659399034885078, 51.905084324866628 ] } },
{ "type": "Feature", "properties": { "strassenschluessel": "05754000003615650", "bezeichnung": "Dohlenweg" }, "geometry": { "type": "Point", "coordinates": [ 8.608318950409064, 51.921712703562747 ] } },
{ "type": "Feature", "properties": { "strassenschluessel": "05754000003615700", "bezeichnung": "Dopheide" }, "geometry": { "type": "Point", "coordinates": [ 8.604632282622632, 51.91332774309307 ] } },
{ "type": "Feature", "properties": { "strassenschluessel": "05754000003615750", "bezeichnung": "Dresdener Straße" }, "geometry": { "type": "Point", "coordinates": [ 8.630665885953691, 51.898670675045182 ] } },
{ "type": "Feature", "properties": { "strassenschluessel": "05754000003615800", "bezeichnung": "Dresselhausweg" }, "geometry": { "type": "Point", "coordinates": [ 8.594522416776288, 51.883000000378878 ] } },
{ "type": "Feature", "properties": { "strassenschluessel": "05754000003615900", "bezeichnung": "Drosselweg" }, "geometry": { "type": "Point", "coordinates": [ 8.607933987213341, 51.919714438006991 ] } },
{ "type": "Feature", "properties": { "strassenschluessel": "05754000003616000", "bezeichnung": "Drosteweg" }, "geometry": { "type": "Point", "coordinates": [ 8.616356644998875, 51.905896031300877 ] } },
{ "type": "Feature", "properties": { "strassenschluessel": "05754000003616100", "bezeichnung": "Ebbinghausweg" }, "geometry": { "type": "Point", "coordinates": [ 8.578023740658089, 51.9205281220095 ] } },
{ "type": "Feature", "properties": { "strassenschluessel": "05754000003616100", "bezeichnung": "Ebbinghausweg" }, "geometry": { "type": "Point", "coordinates": [ 8.578023740658089, 51.9205281220095 ] } },
{ "type": "Feature", "properties": { "strassenschluessel": "05754000003616200", "bezeichnung": "Eichendorffweg" }, "geometry": { "type": "Point", "coordinates": [ 8.618876574973308, 51.90689189583054 ] } },
{ "type": "Feature", "properties": { "strassenschluessel": "05754000003616300", "bezeichnung": "Eichenweg" }, "geometry": { "type": "Point", "coordinates": [ 8.652114092185561, 51.908988819889011 ] } },
{ "type": "Feature", "properties": { "strassenschluessel": "05754000003616350", "bezeichnung": "Eisvogelweg" }, "geometry": { "type": "Point", "coordinates": [ 8.610923634042981, 51.917206948169834 ] } },
{ "type": "Feature", "properties": { "strassenschluessel": "05754000003616370", "bezeichnung": "Elisabethstraße" }, "geometry": { "type": "Point", "coordinates": [ 8.615226791970972, 51.902233527828614 ] } },
{ "type": "Feature", "properties": { "strassenschluessel": "05754000003616400", "bezeichnung": "Elsterweg" }, "geometry": { "type": "Point", "coordinates": [ 8.59489568265383, 51.916360444968987 ] } },
{ "type": "Feature", "properties": { "strassenschluessel": "05754000003616500", "bezeichnung": "Emsweg" }, "geometry": { "type": "Point", "coordinates": [ 8.678689087326921, 51.867468922214172 ] } },
{ "type": "Feature", "properties": { "strassenschluessel": "05754000003616600", "bezeichnung": "Erikaweg" }, "geometry": { "type": "Point", "coordinates": [ 8.665126385076411, 51.912095332335262 ] } },
{ "type": "Feature", "properties": { "strassenschluessel": "05754000003616700", "bezeichnung": "Erlenweg" }, "geometry": { "type": "Point", "coordinates": [ 8.646408348788103, 51.908154864673264 ] } },
{ "type": "Feature", "properties": { "strassenschluessel": "05754000003616800", "bezeichnung": "Eschenweg" }, "geometry": { "type": "Point", "coordinates": [ 8.647701947114736, 51.912391878772759 ] } },
{ "type": "Feature", "properties": { "strassenschluessel": "05754000003616900", "bezeichnung": "Eulenweg" }, "geometry": { "type": "Point", "coordinates": [ 8.594706081420167, 51.920646685635901 ] } },
{ "type": "Feature", "properties": { "strassenschluessel": "05754000003617000", "bezeichnung": "Falkenhorst" }, "geometry": { "type": "Point", "coordinates": [ 8.602260471802975, 51.917333658227911 ] } },
{ "type": "Feature", "properties": { "strassenschluessel": "05754000003617100", "bezeichnung": "Falkenstraße" }, "geometry": { "type": "Point", "coordinates": [ 8.608318578949797, 51.915668340927759 ] } },
{ "type": "Feature", "properties": { "strassenschluessel": "05754000003617200", "bezeichnung": "Fallerslebenstraße" }, "geometry": { "type": "Point", "coordinates": [ 8.618443735911208, 51.90490374592553 ] } },
{ "type": "Feature", "properties": { "strassenschluessel": "05754000003617300", "bezeichnung": "Fasanenweg" }, "geometry": { "type": "Point", "coordinates": [ 8.612118953597578, 51.920690811814069 ] } },
{ "type": "Feature", "properties": { "strassenschluessel": "05754000003617400", "bezeichnung": "Feilenweg" }, "geometry": { "type": "Point", "coordinates": [ 8.606699822087265, 51.908049143437047 ] } },
{ "type": "Feature", "properties": { "strassenschluessel": "05754000003617500", "bezeichnung": "Feldweg" }, "geometry": { "type": "Point", "coordinates": [ 8.630924195559162, 51.893987863171176 ] } },
{ "type": "Feature", "properties": { "strassenschluessel": "05754000003617550", "bezeichnung": "Fichtenbrink" }, "geometry": { "type": "Point", "coordinates": [ 8.608885467171071, 51.877838272883608 ] } },
{ "type": "Feature", "properties": { "strassenschluessel": "05754000003617600", "bezeichnung": "Fienhofweg" }, "geometry": { "type": "Point", "coordinates": [ 8.644426688312551, 51.895777278891003 ] } },
{ "type": "Feature", "properties": { "strassenschluessel": "05754000003617700", "bezeichnung": "Finkenweg" }, "geometry": { "type": "Point", "coordinates": [ 8.609225107362571, 51.91798594208543 ] } },
{ "type": "Feature", "properties": { "strassenschluessel": "05754000003617800", "bezeichnung": "Fliederweg" }, "geometry": { "type": "Point", "coordinates": [ 8.664807091157, 51.915460701685994 ] } },
{ "type": "Feature", "properties": { "strassenschluessel": "05754000003617900", "bezeichnung": "Flößweg" }, "geometry": { "type": "Point", "coordinates": [ 8.667341669298256, 51.898048596412089 ] } },
{ "type": "Feature", "properties": { "strassenschluessel": "05754000003618000", "bezeichnung": "Flugplatzstraße" }, "geometry": { "type": "Point", "coordinates": [ 8.655481456916192, 51.917017428423321 ] } },
{ "type": "Feature", "properties": { "strassenschluessel": "05754000003618000", "bezeichnung": "Flugplatzstraße" }, "geometry": { "type": "Point", "coordinates": [ 8.655481456916192, 51.917017428423321 ] } },
{ "type": "Feature", "properties": { "strassenschluessel": "05754000003618100", "bezeichnung": "Flurstraße" }, "geometry": { "type": "Point", "coordinates": [ 8.594772360413021, 51.921554137149002 ] } },
{ "type": "Feature", "properties": { "strassenschluessel": "05754000003618300", "bezeichnung": "Föhrenweg" }, "geometry": { "type": "Point", "coordinates": [ 8.621044587392246, 51.902504398724687 ] } },
{ "type": "Feature", "properties": { "strassenschluessel": "05754000003618400", "bezeichnung": "Forellenweg" }, "geometry": { "type": "Point", "coordinates": [ 8.616101609668553, 51.875281743158439 ] } },
{ "type": "Feature", "properties": { "strassenschluessel": "05754000003618500", "bezeichnung": "Forstweg" }, "geometry": { "type": "Point", "coordinates": [ 8.58113951095334, 51.902289936233615 ] } },
{ "type": "Feature", "properties": { "strassenschluessel": "05754000003618600", "bezeichnung": "Forthofstraße" }, "geometry": { "type": "Point", "coordinates": [ 8.66227569434562, 51.918519124359925 ] } },
{ "type": "Feature", "properties": { "strassenschluessel": "05754000003618700", "bezeichnung": "Fosse Bredde" }, "geometry": { "type": "Point", "coordinates": [ 8.679557690790993, 51.909445097930693 ] } },
{ "type": "Feature", "properties": { "strassenschluessel": "05754000003618800", "bezeichnung": "Fosse Grund" }, "geometry": { "type": "Point", "coordinates": [ 8.681614095674771, 51.909625043399558 ] } },
{ "type": "Feature", "properties": { "strassenschluessel": "05754000003618800", "bezeichnung": "Fosse Grund" }, "geometry": { "type": "Point", "coordinates": [ 8.681614095674771, 51.909625043399558 ] } },
{ "type": "Feature", "properties": { "strassenschluessel": "05754000003618900", "bezeichnung": "Franziskusweg" }, "geometry": { "type": "Point", "coordinates": [ 8.677846077995133, 51.880331430639146 ] } },
{ "type": "Feature", "properties": { "strassenschluessel": "05754000003618950", "bezeichnung": "Franz-Leuninger-Weg" }, "geometry": { "type": "Point", "coordinates": [ 8.663603370294286, 51.903810260451593 ] } },
{ "type": "Feature", "properties": { "strassenschluessel": "05754000003619000", "bezeichnung": "Freiligrathstraße" }, "geometry": { "type": "Point", "coordinates": [ 8.620358944717388, 51.905133315229222 ] } },
{ "type": "Feature", "properties": { "strassenschluessel": "05754000003619100", "bezeichnung": "Freimannweg" }, "geometry": { "type": "Point", "coordinates": [ 8.613403264926013, 51.900548687107204 ] } },
{ "type": "Feature", "properties": { "strassenschluessel": "05754000003619200", "bezeichnung": "Friedhofweg" }, "geometry": { "type": "Point", "coordinates": [ 8.617336491511974, 51.903873091838442 ] } },
{ "type": "Feature", "properties": { "strassenschluessel": "05754000003619250", "bezeichnung": "Friedrich-Husemann-Weg" }, "geometry": { "type": "Point", "coordinates": [ 8.662062441602068, 51.903331311601988 ] } },
{ "type": "Feature", "properties": { "strassenschluessel": "05754000003619300", "bezeichnung": "Füchtenweg" }, "geometry": { "type": "Point", "coordinates": [ 8.648747433581946, 51.907832217148588 ] } },
{ "type": "Feature", "properties": { "strassenschluessel": "05754000003619400", "bezeichnung": "Garnheide" }, "geometry": { "type": "Point", "coordinates": [ 8.562093240807485, 51.919938866377414 ] } },
{ "type": "Feature", "properties": { "strassenschluessel": "05754000003619400", "bezeichnung": "Garnheide" }, "geometry": { "type": "Point", "coordinates": [ 8.562093240807485, 51.919938866377414 ] } },
{ "type": "Feature", "properties": { "strassenschluessel": "05754000003619500", "bezeichnung": "Gartenweg" }, "geometry": { "type": "Point", "coordinates": [ 8.606871991388179, 51.90865577604594 ] } },
{ "type": "Feature", "properties": { "strassenschluessel": "05754000003619550", "bezeichnung": "Geranienweg" }, "geometry": { "type": "Point", "coordinates": [ 8.660462849973474, 51.912979385987164 ] } },
{ "type": "Feature", "properties": { "strassenschluessel": "05754000003619600", "bezeichnung": "Gerhart-Hauptmann-Weg" }, "geometry": { "type": "Point", "coordinates": [ 8.612896768249401, 51.909023998770529 ] } },
{ "type": "Feature", "properties": { "strassenschluessel": "05754000003619610", "bezeichnung": "Gerkens Hof" }, "geometry": { "type": "Point", "coordinates": [ 8.643876910945213, 51.905339406635214 ] } },
{ "type": "Feature", "properties": { "strassenschluessel": "05754000003619630", "bezeichnung": "Gerstenkamp" }, "geometry": { "type": "Point", "coordinates": [ 8.651351117864149, 51.90692841859709 ] } },
{ "type": "Feature", "properties": { "strassenschluessel": "05754000003619650", "bezeichnung": "Geschwister-Scholl-Weg" }, "geometry": { "type": "Point", "coordinates": [ 8.663345399606305, 51.90489073469589 ] } },
{ "type": "Feature", "properties": { "strassenschluessel": "05754000003619700", "bezeichnung": "Ginsterweg" }, "geometry": null },
{ "type": "Feature", "properties": { "strassenschluessel": "05754000003619800", "bezeichnung": "Gluckweg" }, "geometry": { "type": "Point", "coordinates": [ 8.613710252203202, 51.896936650337317 ] } },
{ "type": "Feature", "properties": { "strassenschluessel": "05754000003619850", "bezeichnung": "Görlitzer Straße" }, "geometry": { "type": "Point", "coordinates": [ 8.627673928730678, 51.896550042381172 ] } },
{ "type": "Feature", "properties": { "strassenschluessel": "05754000003619880", "bezeichnung": "Gottfried-Schenker-Straße" }, "geometry": { "type": "Point", "coordinates": [ 8.61550789389932, 51.915777999192819 ] } },
{ "type": "Feature", "properties": { "strassenschluessel": "05754000003619900", "bezeichnung": "Grabenweg" }, "geometry": { "type": "Point", "coordinates": [ 8.604049574131521, 51.909805517174597 ] } },
{ "type": "Feature", "properties": { "strassenschluessel": "05754000003620000", "bezeichnung": "Grauthoffweg" }, "geometry": { "type": "Point", "coordinates": [ 8.601524800654804, 51.917814740460813 ] } },
{ "type": "Feature", "properties": { "strassenschluessel": "05754000003620100", "bezeichnung": "Grenzweg" }, "geometry": { "type": "Point", "coordinates": [ 8.590901837717418, 51.923912187527428 ] } },
{ "type": "Feature", "properties": { "strassenschluessel": "05754000003620100", "bezeichnung": "Grenzweg" }, "geometry": { "type": "Point", "coordinates": [ 8.590901837717418, 51.923912187527428 ] } },
{ "type": "Feature", "properties": { "strassenschluessel": "05754000003620200", "bezeichnung": "Griegweg" }, "geometry": { "type": "Point", "coordinates": [ 8.614742368981176, 51.897030790291041 ] } },
{ "type": "Feature", "properties": { "strassenschluessel": "05754000003620300", "bezeichnung": "Grüner Weg" }, "geometry": { "type": "Point", "coordinates": [ 8.607424875873846, 51.912939294909421 ] } },
{ "type": "Feature", "properties": { "strassenschluessel": "05754000003620400", "bezeichnung": "Gutenbergstraße" }, "geometry": { "type": "Point", "coordinates": [ 8.598843163445292, 51.915851641873303 ] } },
{ "type": "Feature", "properties": { "strassenschluessel": "05754000003620490", "bezeichnung": "Haberland" }, "geometry": { "type": "Point", "coordinates": [ 8.652033343241323, 51.907398687083209 ] } },
{ "type": "Feature", "properties": { "strassenschluessel": "05754000003620500", "bezeichnung": "Habichtweg" }, "geometry": { "type": "Point", "coordinates": [ 8.608130525053015, 51.912435139234638 ] } },
{ "type": "Feature", "properties": { "strassenschluessel": "05754000003620550", "bezeichnung": "Häherweg" }, "geometry": { "type": "Point", "coordinates": [ 8.60146347428574, 51.916692753583582 ] } },
{ "type": "Feature", "properties": { "strassenschluessel": "05754000003620600", "bezeichnung": "Händelweg" }, "geometry": { "type": "Point", "coordinates": [ 8.614942569468983, 51.898796689605213 ] } },
{ "type": "Feature", "properties": { "strassenschluessel": "05754000003620650", "bezeichnung": "Haller Weg" }, "geometry": { "type": "Point", "coordinates": [ 8.626898500943765, 51.900094131756802 ] } },
{ "type": "Feature", "properties": { "strassenschluessel": "05754000003620700", "bezeichnung": "Hasenweg" }, "geometry": { "type": "Point", "coordinates": [ 8.597269079361672, 51.918309730986586 ] } },
{ "type": "Feature", "properties": { "strassenschluessel": "05754000003620800", "bezeichnung": "Hauptstraße" }, "geometry": { "type": "Point", "coordinates": [ 8.662578345011346, 51.910151743384887 ] } },
{ "type": "Feature", "properties": { "strassenschluessel": "05754000003620900", "bezeichnung": "Haydnweg" }, "geometry": { "type": "Point", "coordinates": [ 8.617395804379406, 51.896434556724294 ] } },
{ "type": "Feature", "properties": { "strassenschluessel": "05754000003621000", "bezeichnung": "Hegselweg" }, "geometry": { "type": "Point", "coordinates": [ 8.601067077633335, 51.863852563801693 ] } },
{ "type": "Feature", "properties": { "strassenschluessel": "05754000003621100", "bezeichnung": "Heidbrink" }, "geometry": { "type": "Point", "coordinates": [ 8.623338767669921, 51.898378779691747 ] } },
{ "type": "Feature", "properties": { "strassenschluessel": "05754000003621200", "bezeichnung": "Heideblümchenstraße" }, "geometry": { "type": "Point", "coordinates": [ 8.584454802910425, 51.920297413997382 ] } },
{ "type": "Feature", "properties": { "strassenschluessel": "05754000003621300", "bezeichnung": "Heideweg" }, "geometry": { "type": "Point", "coordinates": [ 8.623201364605135, 51.899174650962252 ] } },
{ "type": "Feature", "properties": { "strassenschluessel": "05754000003621400", "bezeichnung": "Heidfeld" }, "geometry": { "type": "Point", "coordinates": [ 8.62231765000625, 51.899220370663492 ] } },
{ "type": "Feature", "properties": { "strassenschluessel": "05754000003621500", "bezeichnung": "Heimweg" }, "geometry": { "type": "Point", "coordinates": [ 8.614005719837557, 51.900373628540549 ] } },
{ "type": "Feature", "properties": { "strassenschluessel": "05754000003621530", "bezeichnung": "Heinrich-Heine-Weg" }, "geometry": { "type": "Point", "coordinates": [ 8.611296706231068, 51.909158816659769 ] } },
{ "type": "Feature", "properties": { "strassenschluessel": "05754000003621550", "bezeichnung": "Heinz-Baak-Weg" }, "geometry": { "type": "Point", "coordinates": [ 8.661563405901326, 51.904197190384465 ] } },
{ "type": "Feature", "properties": { "strassenschluessel": "05754000003621570", "bezeichnung": "Helene-Weber-Straße" }, "geometry": null },
{ "type": "Feature", "properties": { "strassenschluessel": "05754000003621600", "bezeichnung": "Helleforthstraße" }, "geometry": { "type": "Point", "coordinates": [ 8.609814844625422, 51.880868378345227 ] } },
{ "type": "Feature", "properties": { "strassenschluessel": "05754000003621710", "bezeichnung": "Hellweg" }, "geometry": { "type": "Point", "coordinates": [ 8.610562599136882, 51.921827987148653 ] } },
{ "type": "Feature", "properties": { "strassenschluessel": "05754000003621750", "bezeichnung": "Herderweg" }, "geometry": { "type": "Point", "coordinates": [ 8.622073672143895, 51.905467541096861 ] } },
{ "type": "Feature", "properties": { "strassenschluessel": "05754000003621800", "bezeichnung": "Hindemithweg" }, "geometry": { "type": "Point", "coordinates": [ 8.615812309352144, 51.898652967003883 ] } },
{ "type": "Feature", "properties": { "strassenschluessel": "05754000003621900", "bezeichnung": "Hövelrieger Straße" }, "geometry": { "type": "Point", "coordinates": [ 8.650848358601582, 51.871733239417445 ] } },
{ "type": "Feature", "properties": { "strassenschluessel": "05754000003621950", "bezeichnung": "Hohe Straße" }, "geometry": { "type": "Point", "coordinates": [ 8.654941263992429, 51.876921289652877 ] } },
{ "type": "Feature", "properties": { "strassenschluessel": "05754000003621980", "bezeichnung": "Holter Kirchplatz" }, "geometry": { "type": "Point", "coordinates": [ 8.616159653950444, 51.902513969009696 ] } },
{ "type": "Feature", "properties": { "strassenschluessel": "05754000003622010", "bezeichnung": "Holter Straße" }, "geometry": { "type": "Point", "coordinates": [ 8.651045566749115, 51.90803068107143 ] } },
{ "type": "Feature", "properties": { "strassenschluessel": "05754000003622100", "bezeichnung": "Holunderweg" }, "geometry": { "type": "Point", "coordinates": [ 8.57441007470119, 51.91500223753588 ] } },
{ "type": "Feature", "properties": { "strassenschluessel": "05754000003622200", "bezeichnung": "Holzweg" }, "geometry": { "type": "Point", "coordinates": [ 8.689549220386828, 51.86024735946264 ] } },
{ "type": "Feature", "properties": { "strassenschluessel": "05754000003622300", "bezeichnung": "Hubertusweg" }, "geometry": { "type": "Point", "coordinates": [ 8.675804900611249, 51.87895139749682 ] } },
{ "type": "Feature", "properties": { "strassenschluessel": "05754000003622400", "bezeichnung": "Im Pohle" }, "geometry": { "type": "Point", "coordinates": [ 8.589667049492359, 51.914208655036141 ] } },
{ "type": "Feature", "properties": { "strassenschluessel": "05754000003622450", "bezeichnung": "Im Westervenn" }, "geometry": { "type": "Point", "coordinates": [ 8.600410858494598, 51.910986678486182 ] } },
{ "type": "Feature", "properties": { "strassenschluessel": "05754000003622480", "bezeichnung": "In den Kämpen" }, "geometry": { "type": "Point", "coordinates": [ 8.657897717690661, 51.905898749079043 ] } },
{ "type": "Feature", "properties": { "strassenschluessel": "05754000003622500", "bezeichnung": "In den Lüchten" }, "geometry": { "type": "Point", "coordinates": [ 8.664511575673503, 51.905751477675203 ] } },
{ "type": "Feature", "properties": { "strassenschluessel": "05754000003622600", "bezeichnung": "In der Stroth" }, "geometry": { "type": "Point", "coordinates": [ 8.596047061334222, 51.875957188816542 ] } },
{ "type": "Feature", "properties": { "strassenschluessel": "05754000003622700", "bezeichnung": "Industriestraße" }, "geometry": { "type": "Point", "coordinates": [ 8.63960095542617, 51.905557481658498 ] } },
{ "type": "Feature", "properties": { "strassenschluessel": "05754000003622750", "bezeichnung": "Irisweg" }, "geometry": { "type": "Point", "coordinates": [ 8.663276020038888, 51.91205006098334 ] } },
{ "type": "Feature", "properties": { "strassenschluessel": "05754000003622800", "bezeichnung": "Jägergrund" }, "geometry": { "type": "Point", "coordinates": [ 8.691972298064897, 51.870035493575202 ] } },
{ "type": "Feature", "properties": { "strassenschluessel": "05754000003622900", "bezeichnung": "Jahnstraße" }, "geometry": { "type": "Point", "coordinates": [ 8.611843998356502, 51.904650050231453 ] } },
{ "type": "Feature", "properties": { "strassenschluessel": "05754000003622930", "bezeichnung": "Johanna-Kirchner-Weg" }, "geometry": { "type": "Point", "coordinates": [ 8.66283761956451, 51.903621134482862 ] } },
{ "type": "Feature", "properties": { "strassenschluessel": "05754000003622950", "bezeichnung": "Johannes-Stiewe-Straße" }, "geometry": { "type": "Point", "coordinates": [ 8.657670203604782, 51.909844531906828 ] } },
{ "type": "Feature", "properties": { "strassenschluessel": "05754000003622970", "bezeichnung": "Josef-Brink-Weg" }, "geometry": { "type": "Point", "coordinates": [ 8.66314391702528, 51.914561696460311 ] } },
{ "type": "Feature", "properties": { "strassenschluessel": "05754000003623000", "bezeichnung": "Kamermühle" }, "geometry": { "type": "Point", "coordinates": [ 8.570378328760352, 51.908220659583385 ] } },
{ "type": "Feature", "properties": { "strassenschluessel": "05754000003623100", "bezeichnung": "Kampweg" }, "geometry": { "type": "Point", "coordinates": [ 8.673503304650163, 51.879097875019006 ] } },
{ "type": "Feature", "properties": { "strassenschluessel": "05754000003623200", "bezeichnung": "Kapellenweg" }, "geometry": { "type": "Point", "coordinates": [ 8.69395827354532, 51.874877285884345 ] } },
{ "type": "Feature", "properties": { "strassenschluessel": "05754000003623250", "bezeichnung": "Karlsbader Weg" }, "geometry": { "type": "Point", "coordinates": [ 8.629744236852584, 51.898914946136827 ] } },
{ "type": "Feature", "properties": { "strassenschluessel": "05754000003623300", "bezeichnung": "Kastanienweg" }, "geometry": { "type": "Point", "coordinates": [ 8.649246562743564, 51.912199486969243 ] } },
{ "type": "Feature", "properties": { "strassenschluessel": "05754000003623400", "bezeichnung": "Kattenheide" }, "geometry": { "type": "Point", "coordinates": [ 8.602492321672662, 51.858100774978418 ] } },
{ "type": "Feature", "properties": { "strassenschluessel": "05754000003623500", "bezeichnung": "Kaunitzer Straße" }, "geometry": { "type": "Point", "coordinates": [ 8.62919743457733, 51.891196980363148 ] } },
{ "type": "Feature", "properties": { "strassenschluessel": "05754000003623600", "bezeichnung": "Kerstingweg" }, "geometry": { "type": "Point", "coordinates": [ 8.592631215814228, 51.920888497057426 ] } },
{ "type": "Feature", "properties": { "strassenschluessel": "05754000003623650", "bezeichnung": "Kettelerstraße" }, "geometry": { "type": "Point", "coordinates": [ 8.659982274451973, 51.909061218505222 ] } },
{ "type": "Feature", "properties": { "strassenschluessel": "05754000003623700", "bezeichnung": "Kiebitzweg" }, "geometry": { "type": "Point", "coordinates": [ 8.608738439970177, 51.921652095774711 ] } },
{ "type": "Feature", "properties": { "strassenschluessel": "05754000003623800", "bezeichnung": "Kiefernweg" }, "geometry": { "type": "Point", "coordinates": [ 8.643632525067735, 51.910688926427355 ] } },
{ "type": "Feature", "properties": { "strassenschluessel": "05754000003623900", "bezeichnung": "Kirchstraße" }, "geometry": { "type": "Point", "coordinates": [ 8.613282037717777, 51.902058102211178 ] } },
{ "type": "Feature", "properties": { "strassenschluessel": "05754000003623920", "bezeichnung": "Kleeweg" }, "geometry": { "type": "Point", "coordinates": [ 8.646517607673326, 51.90593278035049 ] } },
{ "type": "Feature", "properties": { "strassenschluessel": "05754000003623950", "bezeichnung": "Kleiberweg" }, "geometry": { "type": "Point", "coordinates": [ 8.590596875876061, 51.917128304761405 ] } },
{ "type": "Feature", "properties": { "strassenschluessel": "05754000003623970", "bezeichnung": "Kleine Heide" }, "geometry": { "type": "Point", "coordinates": [ 8.62507155143077, 51.893699043971168 ] } },
{ "type": "Feature", "properties": { "strassenschluessel": "05754000003624000", "bezeichnung": "Königsberger Straße" }, "geometry": { "type": "Point", "coordinates": [ 8.628605729638512, 51.900791562773158 ] } },
{ "type": "Feature", "properties": { "strassenschluessel": "05754000003624100", "bezeichnung": "Kohlriege" }, "geometry": { "type": "Point", "coordinates": [ 8.599118555421377, 51.86045219506348 ] } },
{ "type": "Feature", "properties": { "strassenschluessel": "05754000003624150", "bezeichnung": "Kolpingstraße" }, "geometry": { "type": "Point", "coordinates": [ 8.659014698288386, 51.907383235668867 ] } },
{ "type": "Feature", "properties": { "strassenschluessel": "05754000003624170", "bezeichnung": "Konrad-Zuse-Straße" }, "geometry": { "type": "Point", "coordinates": [ 8.67417162809609, 51.906717731197418 ] } },
{ "type": "Feature", "properties": { "strassenschluessel": "05754000003624180", "bezeichnung": "Kornblumenweg" }, "geometry": { "type": "Point", "coordinates": [ 8.648646185284784, 51.904074516218039 ] } },
{ "type": "Feature", "properties": { "strassenschluessel": "05754000003624200", "bezeichnung": "Kranichweg" }, "geometry": { "type": "Point", "coordinates": [ 8.597005329116215, 51.917568264284412 ] } },
{ "type": "Feature", "properties": { "strassenschluessel": "05754000003624300", "bezeichnung": "Krügerweg" }, "geometry": { "type": "Point", "coordinates": [ 8.659380163005959, 51.912018180997549 ] } },
{ "type": "Feature", "properties": { "strassenschluessel": "05754000003624400", "bezeichnung": "Kuckucksweg" }, "geometry": { "type": "Point", "coordinates": [ 8.5913071413769, 51.919429753119509 ] } },
{ "type": "Feature", "properties": { "strassenschluessel": "05754000003624500", "bezeichnung": "Kuhkamp" }, "geometry": { "type": "Point", "coordinates": [ 8.675072437479956, 51.905889215609093 ] } },
{ "type": "Feature", "properties": { "strassenschluessel": "05754000003624600", "bezeichnung": "Kurzer Weg" }, "geometry": { "type": "Point", "coordinates": [ 8.645740172168004, 51.880730891940011 ] } },
{ "type": "Feature", "properties": { "strassenschluessel": "05754000003624700", "bezeichnung": "Landerdamm" }, "geometry": { "type": "Point", "coordinates": [ 8.605475647799221, 51.907620826027376 ] } },
{ "type": "Feature", "properties": { "strassenschluessel": "05754000003624800", "bezeichnung": "Lange Straße" }, "geometry": { "type": "Point", "coordinates": [ 8.647309151467457, 51.87372970759769 ] } },
{ "type": "Feature", "properties": { "strassenschluessel": "05754000003624810", "bezeichnung": "Lange Wiese" }, "geometry": { "type": "Point", "coordinates": [ 8.620932974134224, 51.892432372551809 ] } },
{ "type": "Feature", "properties": { "strassenschluessel": "05754000003624850", "bezeichnung": "Lausitzer Straße" }, "geometry": { "type": "Point", "coordinates": [ 8.632637744546049, 51.896890563826666 ] } },
{ "type": "Feature", "properties": { "strassenschluessel": "05754000003624900", "bezeichnung": "Landweg" }, "geometry": { "type": "Point", "coordinates": [ 8.583274600487416, 51.912469688142338 ] } },
{ "type": "Feature", "properties": { "strassenschluessel": "05754000003625000", "bezeichnung": "Leipziger Weg" }, "geometry": { "type": "Point", "coordinates": [ 8.638772727993535, 51.899016577623641 ] } },
{ "type": "Feature", "properties": { "strassenschluessel": "05754000003625100", "bezeichnung": "Lerchenweg" }, "geometry": { "type": "Point", "coordinates": [ 8.611470447834172, 51.917939571688876 ] } },
{ "type": "Feature", "properties": { "strassenschluessel": "05754000003625150", "bezeichnung": "Libellenweg" }, "geometry": { "type": "Point", "coordinates": [ 8.596789694376268, 51.913558241102265 ] } },
{ "type": "Feature", "properties": { "strassenschluessel": "05754000003625200", "bezeichnung": "Liboriusweg" }, "geometry": { "type": "Point", "coordinates": [ 8.676812245334704, 51.880846055953747 ] } },
{ "type": "Feature", "properties": { "strassenschluessel": "05754000003625300", "bezeichnung": "Liemker Straße" }, "geometry": { "type": "Point", "coordinates": [ 8.616474482776436, 51.868238378349183 ] } },
{ "type": "Feature", "properties": { "strassenschluessel": "05754000003625400", "bezeichnung": "Ligusterweg" }, "geometry": { "type": "Point", "coordinates": [ 8.59575467714739, 51.916833311029379 ] } },
{ "type": "Feature", "properties": { "strassenschluessel": "05754000003625500", "bezeichnung": "Lilienweg" }, "geometry": { "type": "Point", "coordinates": [ 8.661772821620609, 51.916386730512379 ] } },
{ "type": "Feature", "properties": { "strassenschluessel": "05754000003625600", "bezeichnung": "Lindenstraße" }, "geometry": { "type": "Point", "coordinates": [ 8.647022951921942, 51.910786284649234 ] } },
{ "type": "Feature", "properties": { "strassenschluessel": "05754000003625700", "bezeichnung": "Lippstädter Weg" }, "geometry": { "type": "Point", "coordinates": [ 8.681901141741209, 51.869233225386971 ] } },
{ "type": "Feature", "properties": { "strassenschluessel": "05754000003625800", "bezeichnung": "Lisztweg" }, "geometry": { "type": "Point", "coordinates": [ 8.617833298151519, 51.898981277565184 ] } },
{ "type": "Feature", "properties": { "strassenschluessel": "05754000003625900", "bezeichnung": "Lönsweg" }, "geometry": { "type": "Point", "coordinates": [ 8.614937179751335, 51.905266618829131 ] } },
{ "type": "Feature", "properties": { "strassenschluessel": "05754000003625930", "bezeichnung": "Löwenzahnweg" }, "geometry": { "type": "Point", "coordinates": [ 8.64688444603339, 51.905654184981323 ] } },
{ "type": "Feature", "properties": { "strassenschluessel": "05754000003626000", "bezeichnung": "Lortzingweg" }, "geometry": { "type": "Point", "coordinates": [ 8.61844695996699, 51.897025757664011 ] } },
{ "type": "Feature", "properties": { "strassenschluessel": "05754000003626100", "bezeichnung": "Lüchtenstraße" }, "geometry": { "type": "Point", "coordinates": [ 8.660490129585575, 51.909734079525371 ] } },
{ "type": "Feature", "properties": { "strassenschluessel": "05754000003626200", "bezeichnung": "Ludgerusweg" }, "geometry": { "type": "Point", "coordinates": [ 8.679196979326086, 51.880817524744501 ] } },
{ "type": "Feature", "properties": { "strassenschluessel": "05754000003626220", "bezeichnung": "Ludwig-Beck-Weg" }, "geometry": { "type": "Point", "coordinates": [ 8.658535551645903, 51.904751982870486 ] } },
{ "type": "Feature", "properties": { "strassenschluessel": "05754000003626250", "bezeichnung": "Magdeburger Weg" }, "geometry": { "type": "Point", "coordinates": [ 8.62528393599219, 51.900319104058923 ] } },
{ "type": "Feature", "properties": { "strassenschluessel": "05754000003626260", "bezeichnung": "Maikäferweg" }, "geometry": { "type": "Point", "coordinates": [ 8.59709971505019, 51.913153856006502 ] } },
{ "type": "Feature", "properties": { "strassenschluessel": "05754000003626280", "bezeichnung": "Marienstraße" }, "geometry": { "type": "Point", "coordinates": [ 8.61567940431379, 51.903000747449767 ] } },
{ "type": "Feature", "properties": { "strassenschluessel": "05754000003626300", "bezeichnung": "Marktweg" }, "geometry": { "type": "Point", "coordinates": [ 8.611336307329346, 51.906741910760694 ] } },
{ "type": "Feature", "properties": { "strassenschluessel": "05754000003626400", "bezeichnung": "Markusweg" }, "geometry": { "type": "Point", "coordinates": [ 8.676091026277124, 51.881105302563803 ] } },
{ "type": "Feature", "properties": { "strassenschluessel": "05754000003626450", "bezeichnung": "Max-Habermann-Weg" }, "geometry": { "type": "Point", "coordinates": [ 8.659551262232711, 51.903973891598014 ] } },
{ "type": "Feature", "properties": { "strassenschluessel": "05754000003626500", "bezeichnung": "Meisenweg" }, "geometry": { "type": "Point", "coordinates": [ 8.603291014577264, 51.920433197039877 ] } },
{ "type": "Feature", "properties": { "strassenschluessel": "05754000003626600", "bezeichnung": "Mendelssohnweg" }, "geometry": { "type": "Point", "coordinates": [ 8.619364032390413, 51.898013754103509 ] } },
{ "type": "Feature", "properties": { "strassenschluessel": "05754000003626710", "bezeichnung": "Mergelheide" }, "geometry": { "type": "Point", "coordinates": [ 8.621614065116878, 51.900742166080654 ] } },
{ "type": "Feature", "properties": { "strassenschluessel": "05754000003626800", "bezeichnung": "Mergelweg" }, "geometry": { "type": "Point", "coordinates": [ 8.631070117862437, 51.891680494830865 ] } },
{ "type": "Feature", "properties": { "strassenschluessel": "05754000003626850", "bezeichnung": "Milanweg" }, "geometry": { "type": "Point", "coordinates": [ 8.602760961338166, 51.912773225637643 ] } },
{ "type": "Feature", "properties": { "strassenschluessel": "05754000003626900", "bezeichnung": "Mittweg" }, "geometry": { "type": "Point", "coordinates": [ 8.676523006687464, 51.892658646953635 ] } },
{ "type": "Feature", "properties": { "strassenschluessel": "05754000003626950", "bezeichnung": "Mörikeweg" }, "geometry": { "type": "Point", "coordinates": [ 8.614600987879097, 51.90576989512433 ] } },
{ "type": "Feature", "properties": { "strassenschluessel": "05754000003627000", "bezeichnung": "Mozartweg" }, "geometry": { "type": "Point", "coordinates": [ 8.621199387088071, 51.896922268277208 ] } },
{ "type": "Feature", "properties": { "strassenschluessel": "05754000003627100", "bezeichnung": "Mühlenweg" }, "geometry": { "type": "Point", "coordinates": [ 8.68572980574803, 51.913758445810558 ] } },
{ "type": "Feature", "properties": { "strassenschluessel": "05754000003627200", "bezeichnung": "Münsterweg" }, "geometry": { "type": "Point", "coordinates": [ 8.626451558160376, 51.876824793436576 ] } },
{ "type": "Feature", "properties": { "strassenschluessel": "05754000003627300", "bezeichnung": "Nachtigallweg" }, "geometry": { "type": "Point", "coordinates": [ 8.609260817898347, 51.920243698054449 ] } },
{ "type": "Feature", "properties": { "strassenschluessel": "05754000003627400", "bezeichnung": "Nelkenweg" }, "geometry": { "type": "Point", "coordinates": [ 8.665813433902292, 51.913806264757184 ] } },
{ "type": "Feature", "properties": { "strassenschluessel": "05754000003627450", "bezeichnung": "Nikolaus-Groß-Weg" }, "geometry": { "type": "Point", "coordinates": [ 8.659385217000599, 51.905761947219993 ] } },
{ "type": "Feature", "properties": { "strassenschluessel": "05754000003627500", "bezeichnung": "Nordstraße" }, "geometry": { "type": "Point", "coordinates": [ 8.600450971269009, 51.919265128953732 ] } },
{ "type": "Feature", "properties": { "strassenschluessel": "05754000003627610", "bezeichnung": "Oerlinghauser Straße" }, "geometry": { "type": "Point", "coordinates": [ 8.620273626068826, 51.923754206111674 ] } },
{ "type": "Feature", "properties": { "strassenschluessel": "05754000003627700", "bezeichnung": "Oestervenn" }, "geometry": { "type": "Point", "coordinates": [ 8.595351611206389, 51.917966733714827 ] } },
{ "type": "Feature", "properties": { "strassenschluessel": "05754000003627800", "bezeichnung": "Offenbachweg" }, "geometry": { "type": "Point", "coordinates": [ 8.620805371388023, 51.896094153987519 ] } },
{ "type": "Feature", "properties": { "strassenschluessel": "05754000003627900", "bezeichnung": "Orffweg" }, "geometry": { "type": "Point", "coordinates": [ 8.620549853140984, 51.895038199150747 ] } },
{ "type": "Feature", "properties": { "strassenschluessel": "05754000003628000", "bezeichnung": "Osningweg" }, "geometry": { "type": "Point", "coordinates": [ 8.634721870446116, 51.889174394288304 ] } },
{ "type": "Feature", "properties": { "strassenschluessel": "05754000003628100", "bezeichnung": "Ostpreußenweg" }, "geometry": { "type": "Point", "coordinates": [ 8.622634961676573, 51.894717885736874 ] } },
{ "type": "Feature", "properties": { "strassenschluessel": "05754000003628120", "bezeichnung": "Ostritzer Straße" }, "geometry": { "type": "Point", "coordinates": [ 8.634548120576937, 51.898273804154492 ] } },
{ "type": "Feature", "properties": { "strassenschluessel": "05754000003628200", "bezeichnung": "Ottenheide" }, "geometry": { "type": "Point", "coordinates": [ 8.660529603215338, 51.912411563873832 ] } },
{ "type": "Feature", "properties": { "strassenschluessel": "05754000003628220", "bezeichnung": "Otto-Hahn-Straße" }, "geometry": { "type": "Point", "coordinates": [ 8.671515839170404, 51.908348462300516 ] } },
{ "type": "Feature", "properties": { "strassenschluessel": "05754000003628300", "bezeichnung": "Paderborner Straße" }, "geometry": { "type": "Point", "coordinates": [ 8.674725918983185, 51.880129105415357 ] } },
{ "type": "Feature", "properties": { "strassenschluessel": "05754000003628350", "bezeichnung": "Panzerringstraße" }, "geometry": null },
{ "type": "Feature", "properties": { "strassenschluessel": "05754000003628400", "bezeichnung": "Pappelweg" }, "geometry": { "type": "Point", "coordinates": [ 8.644796332480235, 51.910988279620028 ] } },
{ "type": "Feature", "properties": { "strassenschluessel": "05754000003628450", "bezeichnung": "Pastor-Bangen-Weg" }, "geometry": { "type": "Point", "coordinates": [ 8.68184394633607, 51.86971060193671 ] } },
{ "type": "Feature", "properties": { "strassenschluessel": "05754000003628500", "bezeichnung": "Paul-Keller-Weg" }, "geometry": { "type": "Point", "coordinates": [ 8.618827623786029, 51.907182924653014 ] } },
{ "type": "Feature", "properties": { "strassenschluessel": "05754000003628550", "bezeichnung": "Paul-Schneider-Weg" }, "geometry": { "type": "Point", "coordinates": [ 8.662207099608642, 51.904582799480337 ] } },
{ "type": "Feature", "properties": { "strassenschluessel": "05754000003628600", "bezeichnung": "Paulusweg" }, "geometry": { "type": "Point", "coordinates": [ 8.676134943956358, 51.879301928286615 ] } },
{ "type": "Feature", "properties": { "strassenschluessel": "05754000003628700", "bezeichnung": "Pfarrer-Huckschlag-Weg" }, "geometry": { "type": "Point", "coordinates": [ 8.656940258406092, 51.909713887389444 ] } },
{ "type": "Feature", "properties": { "strassenschluessel": "05754000003628800", "bezeichnung": "Pferdekamp" }, "geometry": { "type": "Point", "coordinates": [ 8.67252549130701, 51.905023682948396 ] } },
{ "type": "Feature", "properties": { "strassenschluessel": "05754000003628850", "bezeichnung": "Pirolweg" }, "geometry": { "type": "Point", "coordinates": [ 8.602926870320188, 51.916712966095524 ] } },
{ "type": "Feature", "properties": { "strassenschluessel": "05754000003628900", "bezeichnung": "Pollhansfeld" }, "geometry": { "type": "Point", "coordinates": [ 8.619193330694412, 51.902193299686452 ] } },
{ "type": "Feature", "properties": { "strassenschluessel": "05754000003629000", "bezeichnung": "Pollhansheide" }, "geometry": { "type": "Point", "coordinates": [ 8.615619915723888, 51.899577169687319 ] } },
{ "type": "Feature", "properties": { "strassenschluessel": "05754000003629100", "bezeichnung": "Pollstraße" }, "geometry": { "type": "Point", "coordinates": [ 8.611772945995087, 51.905309496824003 ] } },
{ "type": "Feature", "properties": { "strassenschluessel": "05754000003629150", "bezeichnung": "Posener Straße" }, "geometry": { "type": "Point", "coordinates": [ 8.629072502656845, 51.898979338578201 ] } },
{ "type": "Feature", "properties": { "strassenschluessel": "05754000003629200", "bezeichnung": "Rahmkeweg" }, "geometry": { "type": "Point", "coordinates": [ 8.662191425932747, 51.890358939051701 ] } },
{ "type": "Feature", "properties": { "strassenschluessel": "05754000003629230", "bezeichnung": "Rapsweg" }, "geometry": { "type": "Point", "coordinates": [ 8.654103436179328, 51.906710942487692 ] } },
{ "type": "Feature", "properties": { "strassenschluessel": "05754000003629250", "bezeichnung": "Rathausstraße" }, "geometry": { "type": "Point", "coordinates": [ 8.635983337817692, 51.900636578256105 ] } },
{ "type": "Feature", "properties": { "strassenschluessel": "05754000003629300", "bezeichnung": "Ravensberger Weg" }, "geometry": { "type": "Point", "coordinates": [ 8.589085908979577, 51.918164357755082 ] } },
{ "type": "Feature", "properties": { "strassenschluessel": "05754000003629400", "bezeichnung": "Reiherweg" }, "geometry": { "type": "Point", "coordinates": [ 8.598098910492075, 51.916193319908743 ] } },
{ "type": "Feature", "properties": { "strassenschluessel": "05754000003629500", "bezeichnung": "Rieger Straße" }, "geometry": { "type": "Point", "coordinates": [ 8.635387537958042, 51.874191581459407 ] } },
{ "type": "Feature", "properties": { "strassenschluessel": "05754000003629600", "bezeichnung": "Rodenweg" }, "geometry": { "type": "Point", "coordinates": [ 8.599253593984528, 51.877477119127839 ] } },
{ "type": "Feature", "properties": { "strassenschluessel": "05754000003629700", "bezeichnung": "Römerstraße" }, "geometry": { "type": "Point", "coordinates": [ 8.683633279575918, 51.906824616317103 ] } },
{ "type": "Feature", "properties": { "strassenschluessel": "05754000003629800", "bezeichnung": "Röwekamp" }, "geometry": { "type": "Point", "coordinates": [ 8.604320547750223, 51.865148350189983 ] } },
{ "type": "Feature", "properties": { "strassenschluessel": "05754000003629900", "bezeichnung": "Rosenstraße" }, "geometry": { "type": "Point", "coordinates": [ 8.659639673530913, 51.914601957297727 ] } },
{ "type": "Feature", "properties": { "strassenschluessel": "05754000003629930", "bezeichnung": "Rotkehlchenweg" }, "geometry": { "type": "Point", "coordinates": [ 8.603178325684475, 51.922672480825568 ] } },
{ "type": "Feature", "properties": { "strassenschluessel": "05754000003629950", "bezeichnung": "Rupert-Mayer-Weg" }, "geometry": { "type": "Point", "coordinates": [ 8.664705741267097, 51.904454213716306 ] } },
{ "type": "Feature", "properties": { "strassenschluessel": "05754000003630000", "bezeichnung": "Salbeiweg" }, "geometry": { "type": "Point", "coordinates": [ 8.647629474804283, 51.904162763843608 ] } },
{ "type": "Feature", "properties": { "strassenschluessel": "05754000003630010", "bezeichnung": "Sender Straße" }, "geometry": { "type": "Point", "coordinates": [ 8.580487827029939, 51.91195983597143 ] } },
{ "type": "Feature", "properties": { "strassenschluessel": "05754000003630100", "bezeichnung": "Senner Straße" }, "geometry": { "type": "Point", "coordinates": [ 8.689765895551869, 51.870477664846305 ] } },
{ "type": "Feature", "properties": { "strassenschluessel": "05754000003630200", "bezeichnung": "Scheipshofer Straße" }, "geometry": { "type": "Point", "coordinates": [ 8.644873041805315, 51.900128871699913 ] } },
{ "type": "Feature", "properties": { "strassenschluessel": "05754000003630300", "bezeichnung": "Schlesierweg" }, "geometry": { "type": "Point", "coordinates": [ 8.621835965772542, 51.896022852353951 ] } },
{ "type": "Feature", "properties": { "strassenschluessel": "05754000003630400", "bezeichnung": "Schlingweg" }, "geometry": { "type": "Point", "coordinates": [ 8.629871410023002, 51.870092022363053 ] } },
{ "type": "Feature", "properties": { "strassenschluessel": "05754000003630500", "bezeichnung": "Schlossstraße" }, "geometry": { "type": "Point", "coordinates": [ 8.607244881666059, 51.907487434141323 ] } },
{ "type": "Feature", "properties": { "strassenschluessel": "05754000003630600", "bezeichnung": "Schubertweg" }, "geometry": { "type": "Point", "coordinates": [ 8.61891078787213, 51.89422581992492 ] } },
{ "type": "Feature", "properties": { "strassenschluessel": "05754000003630700", "bezeichnung": "Schumannweg" }, "geometry": { "type": "Point", "coordinates": [ 8.617524669048988, 51.894599689670528 ] } },
{ "type": "Feature", "properties": { "strassenschluessel": "05754000003630800", "bezeichnung": "Schwalbenweg" }, "geometry": { "type": "Point", "coordinates": [ 8.609093743451631, 51.917714090538439 ] } },
{ "type": "Feature", "properties": { "strassenschluessel": "05754000003630900", "bezeichnung": "Siemensweg" }, "geometry": { "type": "Point", "coordinates": [ 8.64288263876195, 51.903416415564649 ] } },
{ "type": "Feature", "properties": { "strassenschluessel": "05754000003630950", "bezeichnung": "Siewekeweg" }, "geometry": { "type": "Point", "coordinates": [ 8.679344518353409, 51.907187140637625 ] } },
{ "type": "Feature", "properties": { "strassenschluessel": "05754000003631000", "bezeichnung": "Spechtweg" }, "geometry": { "type": "Point", "coordinates": [ 8.605140173411296, 51.921232090436341 ] } },
{ "type": "Feature", "properties": { "strassenschluessel": "05754000003631100", "bezeichnung": "Spellerstraße" }, "geometry": { "type": "Point", "coordinates": [ 8.65982146594739, 51.9018259689526 ] } },
{ "type": "Feature", "properties": { "strassenschluessel": "05754000003631200", "bezeichnung": "Spellerteich" }, "geometry": { "type": "Point", "coordinates": [ 8.654097903726164, 51.900749041605138 ] } },
{ "type": "Feature", "properties": { "strassenschluessel": "05754000003631300", "bezeichnung": "Sperberweg" }, "geometry": { "type": "Point", "coordinates": [ 8.590303748013401, 51.918842992062544 ] } },
{ "type": "Feature", "properties": { "strassenschluessel": "05754000003631350", "bezeichnung": "Sperlingweg" }, "geometry": { "type": "Point", "coordinates": [ 8.592670641960339, 51.915815518707994 ] } },
{ "type": "Feature", "properties": { "strassenschluessel": "05754000003631380", "bezeichnung": "Spreewaldstraße" }, "geometry": { "type": "Point", "coordinates": [ 8.634467697882029, 51.89732199307479 ] } },
{ "type": "Feature", "properties": { "strassenschluessel": "05754000003631400", "bezeichnung": "Stadtweg" }, "geometry": { "type": "Point", "coordinates": [ 8.574405861270082, 51.913754745320787 ] } },
{ "type": "Feature", "properties": { "strassenschluessel": "05754000003631500", "bezeichnung": "Starenweg" }, "geometry": { "type": "Point", "coordinates": [ 8.603936959488482, 51.919518123782844 ] } },
{ "type": "Feature", "properties": { "strassenschluessel": "05754000003631550", "bezeichnung": "Stauffenbergstraße" }, "geometry": { "type": "Point", "coordinates": [ 8.661653876266522, 51.903175553060635 ] } },
{ "type": "Feature", "properties": { "strassenschluessel": "05754000003631700", "bezeichnung": "St.-Heinrich-Straße" }, "geometry": { "type": "Point", "coordinates": [ 8.577372785250162, 51.91841941423786 ] } },
{ "type": "Feature", "properties": { "strassenschluessel": "05754000003631800", "bezeichnung": "St.-Michael-Straße" }, "geometry": { "type": "Point", "coordinates": [ 8.610119859606291, 51.878503842495626 ] } },
{ "type": "Feature", "properties": { "strassenschluessel": "05754000003631830", "bezeichnung": "St.-Sebastianus-Straße" }, "geometry": { "type": "Point", "coordinates": [ 8.614288519625699, 51.87021126750124 ] } },
{ "type": "Feature", "properties": { "strassenschluessel": "05754000003631900", "bezeichnung": "Tannenweg" }, "geometry": { "type": "Point", "coordinates": [ 8.648694030028972, 51.908908566896173 ] } },
{ "type": "Feature", "properties": { "strassenschluessel": "05754000003632000", "bezeichnung": "Taubenweg" }, "geometry": { "type": "Point", "coordinates": [ 8.599527704729988, 51.91925915033584 ] } },
{ "type": "Feature", "properties": { "strassenschluessel": "05754000003632100", "bezeichnung": "Teichweg" }, "geometry": { "type": "Point", "coordinates": [ 8.605954367890154, 51.873237776068976 ] } },
{ "type": "Feature", "properties": { "strassenschluessel": "05754000003632200", "bezeichnung": "Tenge-Rietberg-Straße" }, "geometry": { "type": "Point", "coordinates": [ 8.612323432273335, 51.900251259094532 ] } },
{ "type": "Feature", "properties": { "strassenschluessel": "05754000003632310", "bezeichnung": "Teutoburger Weg" }, "geometry": { "type": "Point", "coordinates": [ 8.638017602510036, 51.89250052985193 ] } },
{ "type": "Feature", "properties": { "strassenschluessel": "05754000003632400", "bezeichnung": "Theodor-Storm-Weg" }, "geometry": { "type": "Point", "coordinates": [ 8.61459192492506, 51.909218357708006 ] } },
{ "type": "Feature", "properties": { "strassenschluessel": "05754000003632450", "bezeichnung": "Tilsiter Weg" }, "geometry": { "type": "Point", "coordinates": [ 8.627575828906206, 51.899264226273054 ] } },
{ "type": "Feature", "properties": { "strassenschluessel": "05754000003632500", "bezeichnung": "Tölkenweg" }, "geometry": { "type": "Point", "coordinates": [ 8.678123625216308, 51.900772711987671 ] } },
{ "type": "Feature", "properties": { "strassenschluessel": "05754000003632600", "bezeichnung": "Trapphofstraße" }, "geometry": { "type": "Point", "coordinates": [ 8.653686550133683, 51.896450357361097 ] } },
{ "type": "Feature", "properties": { "strassenschluessel": "05754000003632700", "bezeichnung": "Tulpenweg" }, "geometry": { "type": "Point", "coordinates": [ 8.664729992994966, 51.914101572311779 ] } },
{ "type": "Feature", "properties": { "strassenschluessel": "05754000003632800", "bezeichnung": "Turmfalkenweg" }, "geometry": { "type": "Point", "coordinates": [ 8.604827734298304, 51.915739724470896 ] } },
{ "type": "Feature", "properties": { "strassenschluessel": "05754000003632900", "bezeichnung": "Uhlandstraße" }, "geometry": { "type": "Point", "coordinates": [ 8.617059712765453, 51.906779975054363 ] } },
{ "type": "Feature", "properties": { "strassenschluessel": "05754000003633000", "bezeichnung": "Ulmenweg" }, "geometry": { "type": "Point", "coordinates": [ 8.647670774445372, 51.910242859200665 ] } },
{ "type": "Feature", "properties": { "strassenschluessel": "05754000003633100", "bezeichnung": "Ursulaweg" }, "geometry": { "type": "Point", "coordinates": [ 8.614002424098407, 51.902691502367752 ] } },
{ "type": "Feature", "properties": { "strassenschluessel": "05754000003633200", "bezeichnung": "Veilchenweg" }, "geometry": { "type": "Point", "coordinates": [ 8.663824208300053, 51.916956260549846 ] } },
{ "type": "Feature", "properties": { "strassenschluessel": "05754000003633300", "bezeichnung": "Verdiweg" }, "geometry": { "type": "Point", "coordinates": [ 8.614922921287679, 51.893747285351665 ] } },
{ "type": "Feature", "properties": { "strassenschluessel": "05754000003633400", "bezeichnung": "Verler Landstraße" }, "geometry": { "type": "Point", "coordinates": [ 8.596787442603608, 51.897231497489997 ] } },
{ "type": "Feature", "properties": { "strassenschluessel": "05754000003633450", "bezeichnung": "von-Galen-Straße" }, "geometry": { "type": "Point", "coordinates": [ 8.656948371786678, 51.907498476836786 ] } },
{ "type": "Feature", "properties": { "strassenschluessel": "05754000003633500", "bezeichnung": "Wachtelweg" }, "geometry": { "type": "Point", "coordinates": [ 8.611441621496022, 51.919843771399407 ] } },
{ "type": "Feature", "properties": { "strassenschluessel": "05754000003633550", "bezeichnung": "Wacholderweg" }, "geometry": { "type": "Point", "coordinates": [ 8.572648868147924, 51.915213352394375 ] } },
{ "type": "Feature", "properties": { "strassenschluessel": "05754000003633600", "bezeichnung": "Wagnerweg" }, "geometry": { "type": "Point", "coordinates": [ 8.614419505124239, 51.894690249333522 ] } },
{ "type": "Feature", "properties": { "strassenschluessel": "05754000003633700", "bezeichnung": "Waldfrieden" }, "geometry": { "type": "Point", "coordinates": [ 8.617869992243534, 51.900138100494324 ] } },
{ "type": "Feature", "properties": { "strassenschluessel": "05754000003633800", "bezeichnung": "Waldweg" }, "geometry": { "type": "Point", "coordinates": [ 8.616630453226787, 51.879159103879047 ] } },
{ "type": "Feature", "properties": { "strassenschluessel": "05754000003633900", "bezeichnung": "Wapelweg" }, "geometry": { "type": "Point", "coordinates": [ 8.602514209445955, 51.876875257489303 ] } },
{ "type": "Feature", "properties": { "strassenschluessel": "05754000003634000", "bezeichnung": "Weidenweg" }, "geometry": { "type": "Point", "coordinates": [ 8.645652892539017, 51.909394916507004 ] } },
{ "type": "Feature", "properties": { "strassenschluessel": "05754000003634050", "bezeichnung": "Weißer Weg" }, "geometry": { "type": "Point", "coordinates": [ 8.6133926976529, 51.917071252189373 ] } },
{ "type": "Feature", "properties": { "strassenschluessel": "05754000003634100", "bezeichnung": "Weitekamp" }, "geometry": { "type": "Point", "coordinates": [ 8.619890741287858, 51.871317749075956 ] } },
{ "type": "Feature", "properties": { "strassenschluessel": "05754000003634110", "bezeichnung": "Weizenweg" }, "geometry": { "type": "Point", "coordinates": [ 8.653694888307863, 51.907826449732013 ] } },
{ "type": "Feature", "properties": { "strassenschluessel": "05754000003634150", "bezeichnung": "Westervenn" }, "geometry": { "type": "Point", "coordinates": [ 8.600162875428541, 51.911092786059712 ] } },
{ "type": "Feature", "properties": { "strassenschluessel": "05754000003634200", "bezeichnung": "Westfalenweg" }, "geometry": { "type": "Point", "coordinates": [ 8.592673404219042, 51.919429085082591 ] } },
{ "type": "Feature", "properties": { "strassenschluessel": "05754000003634250", "bezeichnung": "Wibbeltweg" }, "geometry": { "type": "Point", "coordinates": [ 8.620172826379758, 51.907571914670513 ] } },
{ "type": "Feature", "properties": { "strassenschluessel": "05754000003634270", "bezeichnung": "Wiesenweg" }, "geometry": { "type": "Point", "coordinates": [ 8.608790769505854, 51.881116758575843 ] } },
{ "type": "Feature", "properties": { "strassenschluessel": "05754000003634300", "bezeichnung": "Wilhelm-Raabe-Weg" }, "geometry": { "type": "Point", "coordinates": [ 8.615260764881663, 51.907978463837935 ] } },
{ "type": "Feature", "properties": { "strassenschluessel": "05754000003634400", "bezeichnung": "Winkelweg" }, "geometry": { "type": "Point", "coordinates": [ 8.614829102110223, 51.864791761220658 ] } },
{ "type": "Feature", "properties": { "strassenschluessel": "05754000003634600", "bezeichnung": "Wolfsheide" }, "geometry": { "type": "Point", "coordinates": [ 8.639585482236004, 51.881197501374899 ] } },
{ "type": "Feature", "properties": { "strassenschluessel": "05754000003634700", "bezeichnung": "Wolfsweg" }, "geometry": { "type": "Point", "coordinates": [ 8.636458813494929, 51.885228825844855 ] } },
{ "type": "Feature", "properties": { "strassenschluessel": "05754000003634720", "bezeichnung": "Zaunkönigweg" }, "geometry": { "type": "Point", "coordinates": [ 8.603952091239238, 51.914818974970068 ] } },
{ "type": "Feature", "properties": { "strassenschluessel": "05754000003634750", "bezeichnung": "Zeisigweg" }, "geometry": { "type": "Point", "coordinates": [ 8.607034508391157, 51.917514023561296 ] } },
{ "type": "Feature", "properties": { "strassenschluessel": "05754000003634770", "bezeichnung": "Zur Brinke" }, "geometry": { "type": "Point", "coordinates": [ 8.620497247498886, 51.882272941774616 ] } },
{ "type": "Feature", "properties": { "strassenschluessel": "05754000003634800", "bezeichnung": "Zur Wanderhütte" }, "geometry": { "type": "Point", "coordinates": [ 8.594174852347416, 51.915388411253545 ] } },
{ "type": "Feature", "properties": { "strassenschluessel": "05754000003634850", "bezeichnung": "Zum Bütervenn" }, "geometry": { "type": "Point", "coordinates": [ 8.617963195375141, 51.89273254224053 ] } },
{ "type": "Feature", "properties": { "strassenschluessel": "05754000003634900", "bezeichnung": "Zum Polle" }, "geometry": { "type": "Point", "coordinates": [ 8.60932460630038, 51.907156432145442 ] } },
{ "type": "Feature", "properties": { "strassenschluessel": "05754000003635000", "bezeichnung": "Zelterweg" }, "geometry": { "type": "Point", "coordinates": [ 8.617138262960443, 51.893399469859617 ] } },
{ "type": "Feature", "properties": { "strassenschluessel": "057540000036C2232", "bezeichnung": "Huckebach" }, "geometry": null },
{ "type": "Feature", "properties": { "strassenschluessel": "057540000036C9239", "bezeichnung": "Alte Garten" }, "geometry": null },
{ "type": "Feature", "properties": { "strassenschluessel": "057540000036C9241", "bezeichnung": "Alte Rottkamp" }, "geometry": null },
{ "type": "Feature", "properties": { "strassenschluessel": "057540000036C9247", "bezeichnung": "Am Bärental" }, "geometry": null },
{ "type": "Feature", "properties": { "strassenschluessel": "057540000036C9295", "bezeichnung": "An der Eselheide" }, "geometry": null },
{ "type": "Feature", "properties": { "strassenschluessel": "057540000036C9325", "bezeichnung": "Auf den Holen" }, "geometry": null },
{ "type": "Feature", "properties": { "strassenschluessel": "057540000036C9329", "bezeichnung": "Auf den Welschhöfen" }, "geometry": null },
{ "type": "Feature", "properties": { "strassenschluessel": "057540000036C9333", "bezeichnung": "Auf'm Brinkhofe" }, "geometry": null },
{ "type": "Feature", "properties": { "strassenschluessel": "057540000036C9337", "bezeichnung": "Auf'm Faulen" }, "geometry": null },
{ "type": "Feature", "properties": { "strassenschluessel": "057540000036C9339", "bezeichnung": "Auf'm Felde" }, "geometry": null },
{ "type": "Feature", "properties": { "strassenschluessel": "057540000036C9341", "bezeichnung": "Auf'm krummen Stücken" }, "geometry": null },
{ "type": "Feature", "properties": { "strassenschluessel": "057540000036C9343", "bezeichnung": "Bärenbach" }, "geometry": null },
{ "type": "Feature", "properties": { "strassenschluessel": "057540000036C9344", "bezeichnung": "Baggersee Senne" }, "geometry": null },
{ "type": "Feature", "properties": { "strassenschluessel": "057540000036C9351", "bezeichnung": "Beim Kreuze" }, "geometry": null },
{ "type": "Feature", "properties": { "strassenschluessel": "057540000036C9353", "bezeichnung": "Berenskamp" }, "geometry": null },
{ "type": "Feature", "properties": { "strassenschluessel": "057540000036C9357", "bezeichnung": "Bockler Venn" }, "geometry": null },
{ "type": "Feature", "properties": { "strassenschluessel": "057540000036C9361", "bezeichnung": "Brandheide" }, "geometry": null },
{ "type": "Feature", "properties": { "strassenschluessel": "057540000036C9363", "bezeichnung": "Brechmanns Gründe" }, "geometry": null },
{ "type": "Feature", "properties": { "strassenschluessel": "057540000036C9365", "bezeichnung": "Brechmer Holz" }, "geometry": null },
{ "type": "Feature", "properties": { "strassenschluessel": "057540000036C9367", "bezeichnung": "Brockamp" }, "geometry": null },
{ "type": "Feature", "properties": { "strassenschluessel": "057540000036C9370", "bezeichnung": "Brockschmidtsee" }, "geometry": null },
{ "type": "Feature", "properties": { "strassenschluessel": "057540000036C9371", "bezeichnung": "Dalbker Bach" }, "geometry": null },
{ "type": "Feature", "properties": { "strassenschluessel": "057540000036C9374", "bezeichnung": "Das Bruch" }, "geometry": null },
{ "type": "Feature", "properties": { "strassenschluessel": "057540000036C9379", "bezeichnung": "Ems" }, "geometry": null },
{ "type": "Feature", "properties": { "strassenschluessel": "057540000036C9381", "bezeichnung": "Eselheide" }, "geometry": null },
{ "type": "Feature", "properties": { "strassenschluessel": "057540000036C9383", "bezeichnung": "Estern Graben" }, "geometry": null },
{ "type": "Feature", "properties": { "strassenschluessel": "057540000036C9388", "bezeichnung": "Faule Pferd" }, "geometry": null },
{ "type": "Feature", "properties": { "strassenschluessel": "057540000036C9390", "bezeichnung": "Flußteichsheide" }, "geometry": null },
{ "type": "Feature", "properties": { "strassenschluessel": "057540000036C9392", "bezeichnung": "Forl Feld" }, "geometry": null },
{ "type": "Feature", "properties": { "strassenschluessel": "057540000036C9394", "bezeichnung": "Fosse Bredde" }, "geometry": null },
{ "type": "Feature", "properties": { "strassenschluessel": "057540000036C9396", "bezeichnung": "Fosse Grund" }, "geometry": null },
{ "type": "Feature", "properties": { "strassenschluessel": "057540000036C9398", "bezeichnung": "Franzosen Plagg" }, "geometry": null },
{ "type": "Feature", "properties": { "strassenschluessel": "057540000036C9400", "bezeichnung": "Furlbach" }, "geometry": null },
{ "type": "Feature", "properties": { "strassenschluessel": "057540000036C9402", "bezeichnung": "Furltal" }, "geometry": null },
{ "type": "Feature", "properties": { "strassenschluessel": "057540000036C9408", "bezeichnung": "Große Kamp" }, "geometry": null },
{ "type": "Feature", "properties": { "strassenschluessel": "057540000036C9415", "bezeichnung": "Haverkamp" }, "geometry": null },
{ "type": "Feature", "properties": { "strassenschluessel": "057540000036C9417", "bezeichnung": "Heidplagge" }, "geometry": null },
{ "type": "Feature", "properties": { "strassenschluessel": "057540000036C9419", "bezeichnung": "Hinter den Brinken" }, "geometry": null },
{ "type": "Feature", "properties": { "strassenschluessel": "057540000036C9425", "bezeichnung": "Hirschkamp" }, "geometry": null },
{ "type": "Feature", "properties": { "strassenschluessel": "057540000036C9430", "bezeichnung": "Im Dalkebruche" }, "geometry": null },
{ "type": "Feature", "properties": { "strassenschluessel": "057540000036C9432", "bezeichnung": "Im Grunde" }, "geometry": null },
{ "type": "Feature", "properties": { "strassenschluessel": "057540000036C9434", "bezeichnung": "Im Heidkamp" }, "geometry": null },
{ "type": "Feature", "properties": { "strassenschluessel": "057540000036C9436", "bezeichnung": "Im hohlen Felde" }, "geometry": null },
{ "type": "Feature", "properties": { "strassenschluessel": "057540000036C9438", "bezeichnung": "Im Felde" }, "geometry": null },
{ "type": "Feature", "properties": { "strassenschluessel": "057540000036C9440", "bezeichnung": "Im Zuschlag" }, "geometry": null },
{ "type": "Feature", "properties": { "strassenschluessel": "057540000036C9442", "bezeichnung": "In den Kämpen" }, "geometry": null },
{ "type": "Feature", "properties": { "strassenschluessel": "057540000036C9448", "bezeichnung": "In der Ramke" }, "geometry": null },
{ "type": "Feature", "properties": { "strassenschluessel": "057540000036C9450", "bezeichnung": "In der Strohte" }, "geometry": null },
{ "type": "Feature", "properties": { "strassenschluessel": "057540000036C9456", "bezeichnung": "Kamp" }, "geometry": null },
{ "type": "Feature", "properties": { "strassenschluessel": "057540000036C9460", "bezeichnung": "Kleine Heide" }, "geometry": null },
{ "type": "Feature", "properties": { "strassenschluessel": "057540000036C9462", "bezeichnung": "Kleine Kamp" }, "geometry": null },
{ "type": "Feature", "properties": { "strassenschluessel": "057540000036C9468", "bezeichnung": "Knochenbach" }, "geometry": null },
{ "type": "Feature", "properties": { "strassenschluessel": "057540000036C9470", "bezeichnung": "Krampsbach" }, "geometry": null },
{ "type": "Feature", "properties": { "strassenschluessel": "057540000036C9477", "bezeichnung": "Lange Stück" }, "geometry": null },
{ "type": "Feature", "properties": { "strassenschluessel": "057540000036C9483", "bezeichnung": "Moosheide" }, "geometry": null },
{ "type": "Feature", "properties": { "strassenschluessel": "057540000036C9495", "bezeichnung": "Ottenheide" }, "geometry": null },
{ "type": "Feature", "properties": { "strassenschluessel": "057540000036C9498", "bezeichnung": "Pferdekamp" }, "geometry": null },
{ "type": "Feature", "properties": { "strassenschluessel": "057540000036C9506", "bezeichnung": "Riege" }, "geometry": null },
{ "type": "Feature", "properties": { "strassenschluessel": "057540000036C9508", "bezeichnung": "Rietberger Heide" }, "geometry": null },
{ "type": "Feature", "properties": { "strassenschluessel": "057540000036C9512", "bezeichnung": "Sandfeld" }, "geometry": null },
{ "type": "Feature", "properties": { "strassenschluessel": "057540000036C9521", "bezeichnung": "Schnakenbach" }, "geometry": null },
{ "type": "Feature", "properties": { "strassenschluessel": "057540000036C9523", "bezeichnung": "Schwarze Teich" }, "geometry": null },
{ "type": "Feature", "properties": { "strassenschluessel": "057540000036C9525", "bezeichnung": "Senne" }, "geometry": { "type": "Point", "coordinates": [ 8.699615598097436, 51.88180738090481 ] } },
{ "type": "Feature", "properties": { "strassenschluessel": "057540000036C9527", "bezeichnung": "Sieweken Feld" }, "geometry": null },
{ "type": "Feature", "properties": { "strassenschluessel": "057540000036C9531", "bezeichnung": "Spellerkamp" }, "geometry": null },
{ "type": "Feature", "properties": { "strassenschluessel": "057540000036C9533", "bezeichnung": "Stroth" }, "geometry": null },
{ "type": "Feature", "properties": { "strassenschluessel": "057540000036C9540", "bezeichnung": "Tölke" }, "geometry": null },
{ "type": "Feature", "properties": { "strassenschluessel": "057540000036C9542", "bezeichnung": "Tölkenkamp" }, "geometry": null },
{ "type": "Feature", "properties": { "strassenschluessel": "057540000036C9560", "bezeichnung": "Ümme Fluth" }, "geometry": null },
{ "type": "Feature", "properties": { "strassenschluessel": "057540000036C9570", "bezeichnung": "Venn" }, "geometry": null },
{ "type": "Feature", "properties": { "strassenschluessel": "057540000036C9574", "bezeichnung": "Vinn" }, "geometry": null },
{ "type": "Feature", "properties": { "strassenschluessel": "057540000036C9575", "bezeichnung": "von Wünnenberg nach Bielefeld" }, "geometry": null },
{ "type": "Feature", "properties": { "strassenschluessel": "057540000036C9578", "bezeichnung": "Vor'm Dorfe" }, "geometry": null },
{ "type": "Feature", "properties": { "strassenschluessel": "057540000036C9580", "bezeichnung": "Wehrbach" }, "geometry": null },
{ "type": "Feature", "properties": { "strassenschluessel": "057540000036C9582", "bezeichnung": "Weitzenkamp" }, "geometry": null },
{ "type": "Feature", "properties": { "strassenschluessel": "057540000036C9584", "bezeichnung": "Welschof" }, "geometry": null },
{ "type": "Feature", "properties": { "strassenschluessel": "057540000036C9586", "bezeichnung": "Westerholter Bach" }, "geometry": null },
{ "type": "Feature", "properties": { "strassenschluessel": "057540000036C9588", "bezeichnung": "Westerfeld" }, "geometry": null },
{ "type": "Feature", "properties": { "strassenschluessel": "057540000036C9590", "bezeichnung": "Westernfeld" }, "geometry": null },
{ "type": "Feature", "properties": { "strassenschluessel": "057540000036C9591", "bezeichnung": "Wienwiese" }, "geometry": null },
{ "type": "Feature", "properties": { "strassenschluessel": "057540000036C9592", "bezeichnung": "Wolbesloher Heide" }, "geometry": null },
{ "type": "Feature", "properties": { "strassenschluessel": "057540000036C9594", "bezeichnung": "Wolfsheide" }, "geometry": null },
{ "type": "Feature", "properties": { "strassenschluessel": "057540000036C9596", "bezeichnung": "Zwischen den Kämpen" }, "geometry": null },
{ "type": "Feature", "properties": { "strassenschluessel": "057540000036C9672", "bezeichnung": "Alte Wiese" }, "geometry": null },
{ "type": "Feature", "properties": { "strassenschluessel": "057540000036C9678", "bezeichnung": "Am Bachweg" }, "geometry": null },
{ "type": "Feature", "properties": { "strassenschluessel": "057540000036C9706", "bezeichnung": "Am Menkebach" }, "geometry": null },
{ "type": "Feature", "properties": { "strassenschluessel": "057540000036C9710", "bezeichnung": "Am Ölbach" }, "geometry": null },
{ "type": "Feature", "properties": { "strassenschluessel": "057540000036C9756", "bezeichnung": "An der Kamermühle" }, "geometry": null },
{ "type": "Feature", "properties": { "strassenschluessel": "057540000036C9760", "bezeichnung": "An der Kaunitzer Straße" }, "geometry": null },
{ "type": "Feature", "properties": { "strassenschluessel": "057540000036C9766", "bezeichnung": "An der Schloßstraße" }, "geometry": null },
{ "type": "Feature", "properties": { "strassenschluessel": "057540000036C9768", "bezeichnung": "An der Sender Straße" }, "geometry": null },
{ "type": "Feature", "properties": { "strassenschluessel": "057540000036C9778", "bezeichnung": "Auf dem Faulen" }, "geometry": null },
{ "type": "Feature", "properties": { "strassenschluessel": "057540000036C9780", "bezeichnung": "Auf der Horst" }, "geometry": null },
{ "type": "Feature", "properties": { "strassenschluessel": "057540000036C9791", "bezeichnung": "Brandenheide" }, "geometry": null },
{ "type": "Feature", "properties": { "strassenschluessel": "057540000036C9793", "bezeichnung": "Brinke" }, "geometry": null },
{ "type": "Feature", "properties": { "strassenschluessel": "057540000036C9799", "bezeichnung": "Dopheide" }, "geometry": null },
{ "type": "Feature", "properties": { "strassenschluessel": "057540000036C9801", "bezeichnung": "Dreckbach" }, "geometry": null },
{ "type": "Feature", "properties": { "strassenschluessel": "057540000036C9807", "bezeichnung": "Eckhardtsheim" }, "geometry": null },
{ "type": "Feature", "properties": { "strassenschluessel": "057540000036C9821", "bezeichnung": "Grundland" }, "geometry": null },
{ "type": "Feature", "properties": { "strassenschluessel": "057540000036C9827", "bezeichnung": "Haarkamp" }, "geometry": null },
{ "type": "Feature", "properties": { "strassenschluessel": "057540000036C9831", "bezeichnung": "Holter Wald" }, "geometry": null },
{ "type": "Feature", "properties": { "strassenschluessel": "057540000036C9847", "bezeichnung": "Kattenheide" }, "geometry": null },
{ "type": "Feature", "properties": { "strassenschluessel": "057540000036C9849", "bezeichnung": "Kittheide" }, "geometry": null },
{ "type": "Feature", "properties": { "strassenschluessel": "057540000036C9855", "bezeichnung": "Landerbach" }, "geometry": null },
{ "type": "Feature", "properties": { "strassenschluessel": "057540000036C9861", "bezeichnung": "Marktplatz" }, "geometry": null },
{ "type": "Feature", "properties": { "strassenschluessel": "057540000036C9863", "bezeichnung": "Menkebach" }, "geometry": null },
{ "type": "Feature", "properties": { "strassenschluessel": "057540000036C9871", "bezeichnung": "Ölbach" }, "geometry": null },
{ "type": "Feature", "properties": { "strassenschluessel": "057540000036C9873", "bezeichnung": "Östernheide" }, "geometry": null },
{ "type": "Feature", "properties": { "strassenschluessel": "057540000036C9875", "bezeichnung": "Oesternkamp" }, "geometry": null },
{ "type": "Feature", "properties": { "strassenschluessel": "057540000036C9889", "bezeichnung": "Rodenbach" }, "geometry": null },
{ "type": "Feature", "properties": { "strassenschluessel": "057540000036C9899", "bezeichnung": "Sennebach" }, "geometry": null },
{ "type": "Feature", "properties": { "strassenschluessel": "057540000036C9900", "bezeichnung": "Sennesee" }, "geometry": null },
{ "type": "Feature", "properties": { "strassenschluessel": "057540000036C9901", "bezeichnung": "Strothbach" }, "geometry": null },
{ "type": "Feature", "properties": { "strassenschluessel": "057540000036C9988", "bezeichnung": "von Bielefeld nach Paderborn" }, "geometry": null },
{ "type": "Feature", "properties": { "strassenschluessel": "057540000036C9994", "bezeichnung": "Wapel" }, "geometry": null }
]
}
