{
"type": "FeatureCollection",
"features": [
{ "type": "Feature", "properties": { "strassenschluessel": "05554000005601581", "bezeichnung": "Achter de Wall" }, "geometry": { "type": "Point", "coordinates": [ 6.920186124820822, 51.988598435441283 ] } },
{ "type": "Feature", "properties": { "strassenschluessel": "05554000005601582", "bezeichnung": "Alleestraße" }, "geometry": { "type": "Point", "coordinates": [ 6.916342275691638, 51.989677056159991 ] } },
{ "type": "Feature", "properties": { "strassenschluessel": "05554000005601583", "bezeichnung": "Almsick" }, "geometry": { "type": "Point", "coordinates": [ 7.036160097873895, 52.010637391099444 ] } },
{ "type": "Feature", "properties": { "strassenschluessel": "05554000005601584", "bezeichnung": "Alte Poststraße" }, "geometry": { "type": "Point", "coordinates": [ 6.915614778009777, 51.992646546345249 ] } },
{ "type": "Feature", "properties": { "strassenschluessel": "05554000005601585", "bezeichnung": "Alter Dyk" }, "geometry": { "type": "Point", "coordinates": [ 6.939313640861936, 51.986836238243257 ] } },
{ "type": "Feature", "properties": { "strassenschluessel": "05554000005601586", "bezeichnung": "Am Anger" }, "geometry": { "type": "Point", "coordinates": [ 6.932765024718248, 51.987434694476974 ] } },
{ "type": "Feature", "properties": { "strassenschluessel": "05554000005601587", "bezeichnung": "Am Bach" }, "geometry": { "type": "Point", "coordinates": [ 6.926120514721857, 51.985990552477148 ] } },
{ "type": "Feature", "properties": { "strassenschluessel": "05554000005601588", "bezeichnung": "Am Bülten" }, "geometry": { "type": "Point", "coordinates": [ 6.933126276842176, 51.996995009874418 ] } },
{ "type": "Feature", "properties": { "strassenschluessel": "05554000005601589", "bezeichnung": "Am Busch" }, "geometry": { "type": "Point", "coordinates": [ 6.935161575264623, 51.985172540845113 ] } },
{ "type": "Feature", "properties": { "strassenschluessel": "05554000005601590", "bezeichnung": "Am Esch" }, "geometry": { "type": "Point", "coordinates": [ 6.929766659593202, 51.982045328654344 ] } },
{ "type": "Feature", "properties": { "strassenschluessel": "05554000005601591", "bezeichnung": "Am Hilgenberg" }, "geometry": { "type": "Point", "coordinates": [ 6.931983345677731, 51.994770945667106 ] } },
{ "type": "Feature", "properties": { "strassenschluessel": "05554000005601592", "bezeichnung": "Amselweg" }, "geometry": { "type": "Point", "coordinates": [ 6.911702801523142, 51.999593999459911 ] } },
{ "type": "Feature", "properties": { "strassenschluessel": "05554000005601593", "bezeichnung": "Am Wasserturm" }, "geometry": { "type": "Point", "coordinates": [ 6.909848695096799, 51.988668558647156 ] } },
{ "type": "Feature", "properties": { "strassenschluessel": "05554000005601594", "bezeichnung": "An de Bleeke" }, "geometry": { "type": "Point", "coordinates": [ 6.916439448814154, 51.996893155364916 ] } },
{ "type": "Feature", "properties": { "strassenschluessel": "05554000005601595", "bezeichnung": "An der Welle" }, "geometry": { "type": "Point", "coordinates": [ 6.912614491335315, 51.991649918089557 ] } },
{ "type": "Feature", "properties": { "strassenschluessel": "05554000005601596", "bezeichnung": "An de Siepe" }, "geometry": { "type": "Point", "coordinates": [ 6.9490292836118, 51.98174900333975 ] } },
{ "type": "Feature", "properties": { "strassenschluessel": "05554000005601597", "bezeichnung": "Arfkamp" }, "geometry": { "type": "Point", "coordinates": [ 6.922461331281315, 51.988030197607713 ] } },
{ "type": "Feature", "properties": { "strassenschluessel": "05554000005601598", "bezeichnung": "Bakenstraße" }, "geometry": { "type": "Point", "coordinates": [ 6.906315460871182, 51.987724072677246 ] } },
{ "type": "Feature", "properties": { "strassenschluessel": "05554000005601599", "bezeichnung": "Baumgartnerstraße" }, "geometry": { "type": "Point", "coordinates": [ 6.948368777335125, 51.982491586210898 ] } },
{ "type": "Feature", "properties": { "strassenschluessel": "05554000005601600", "bezeichnung": "Bergstraße" }, "geometry": { "type": "Point", "coordinates": [ 6.930591415370929, 51.995900643602141 ] } },
{ "type": "Feature", "properties": { "strassenschluessel": "05554000005601601", "bezeichnung": "Berkelhook" }, "geometry": { "type": "Point", "coordinates": [ 6.908892884157793, 51.995663807780822 ] } },
{ "type": "Feature", "properties": { "strassenschluessel": "05554000005601602", "bezeichnung": "Berliner Straße" }, "geometry": { "type": "Point", "coordinates": [ 6.880978493087035, 51.997131425129162 ] } },
{ "type": "Feature", "properties": { "strassenschluessel": "05554000005601603", "bezeichnung": "Bessemerstraße" }, "geometry": { "type": "Point", "coordinates": [ 6.914176459645261, 51.984222620311698 ] } },
{ "type": "Feature", "properties": { "strassenschluessel": "05554000005601604", "bezeichnung": "Birkenweg" }, "geometry": { "type": "Point", "coordinates": [ 6.913546515042367, 52.00309591460114 ] } },
{ "type": "Feature", "properties": { "strassenschluessel": "05554000005601605", "bezeichnung": "Blücherstraße" }, "geometry": { "type": "Point", "coordinates": [ 6.902336600329572, 51.988796194859326 ] } },
{ "type": "Feature", "properties": { "strassenschluessel": "05554000005601606", "bezeichnung": "Blumenstraße" }, "geometry": { "type": "Point", "coordinates": [ 6.914485306237925, 51.988881585000378 ] } },
{ "type": "Feature", "properties": { "strassenschluessel": "05554000005601607", "bezeichnung": "Bockemölenstraße" }, "geometry": { "type": "Point", "coordinates": [ 6.91072626106587, 51.986517969362964 ] } },
{ "type": "Feature", "properties": { "strassenschluessel": "05554000005601608", "bezeichnung": "Bockwinkel" }, "geometry": { "type": "Point", "coordinates": [ 6.883835846507352, 52.004678200113041 ] } },
{ "type": "Feature", "properties": { "strassenschluessel": "05554000005601609", "bezeichnung": "Bohnenkampstraße" }, "geometry": { "type": "Point", "coordinates": [ 6.941975690599178, 51.983872063633029 ] } },
{ "type": "Feature", "properties": { "strassenschluessel": "05554000005601610", "bezeichnung": "Bomers Kamp" }, "geometry": { "type": "Point", "coordinates": [ 6.925056427341749, 51.984931868392906 ] } },
{ "type": "Feature", "properties": { "strassenschluessel": "05554000005601611", "bezeichnung": "Bonhoefferstraße" }, "geometry": { "type": "Point", "coordinates": [ 6.892719282944451, 51.994453609244161 ] } },
{ "type": "Feature", "properties": { "strassenschluessel": "05554000005601612", "bezeichnung": "Borsigstraße" }, "geometry": { "type": "Point", "coordinates": [ 6.912440601437508, 51.982145412050599 ] } },
{ "type": "Feature", "properties": { "strassenschluessel": "05554000005601613", "bezeichnung": "Boschstraße" }, "geometry": { "type": "Point", "coordinates": [ 6.898403843302344, 51.984091735435321 ] } },
{ "type": "Feature", "properties": { "strassenschluessel": "05554000005601614", "bezeichnung": "Brahmsweg" }, "geometry": { "type": "Point", "coordinates": [ 6.910184598369336, 51.996829020154323 ] } },
{ "type": "Feature", "properties": { "strassenschluessel": "05554000005601615", "bezeichnung": "Brakstraße" }, "geometry": { "type": "Point", "coordinates": [ 6.923648656854103, 51.992671454278998 ] } },
{ "type": "Feature", "properties": { "strassenschluessel": "05554000005601616", "bezeichnung": "Breslauer Straße" }, "geometry": { "type": "Point", "coordinates": [ 6.871713347035358, 51.995704883556428 ] } },
{ "type": "Feature", "properties": { "strassenschluessel": "05554000005601617", "bezeichnung": "Breul" }, "geometry": { "type": "Point", "coordinates": [ 6.940930327983701, 51.987254415299738 ] } },
{ "type": "Feature", "properties": { "strassenschluessel": "05554000005601618", "bezeichnung": "Brookstraße" }, "geometry": { "type": "Point", "coordinates": [ 6.916676985198494, 51.999975176572157 ] } },
{ "type": "Feature", "properties": { "strassenschluessel": "05554000005601619", "bezeichnung": "Buchenweg" }, "geometry": { "type": "Point", "coordinates": [ 6.918440923621516, 52.003322280405925 ] } },
{ "type": "Feature", "properties": { "strassenschluessel": "05554000005601620", "bezeichnung": "Büren" }, "geometry": { "type": "Point", "coordinates": [ 7.010676179363368, 51.997272967878637 ] } },
{ "type": "Feature", "properties": { "strassenschluessel": "05554000005601621", "bezeichnung": "Burgstraße" }, "geometry": { "type": "Point", "coordinates": [ 6.91780963732808, 51.994500768136831 ] } },
{ "type": "Feature", "properties": { "strassenschluessel": "05554000005601622", "bezeichnung": "Butenstadt" }, "geometry": { "type": "Point", "coordinates": [ 6.914115585632627, 51.992611390183555 ] } },
{ "type": "Feature", "properties": { "strassenschluessel": "05554000005601623", "bezeichnung": "Carl-Diem-Straße" }, "geometry": { "type": "Point", "coordinates": [ 6.894942604672017, 51.991327504996704 ] } },
{ "type": "Feature", "properties": { "strassenschluessel": "05554000005601624", "bezeichnung": "Christianstraße" }, "geometry": { "type": "Point", "coordinates": [ 6.928499625788179, 51.99450007565499 ] } },
{ "type": "Feature", "properties": { "strassenschluessel": "05554000005601625", "bezeichnung": "Dahlienweg" }, "geometry": { "type": "Point", "coordinates": [ 6.929681720776339, 51.996199888514504 ] } },
{ "type": "Feature", "properties": { "strassenschluessel": "05554000005601626", "bezeichnung": "Daimlerstraße" }, "geometry": { "type": "Point", "coordinates": [ 6.905861376501256, 51.98446178144809 ] } },
{ "type": "Feature", "properties": { "strassenschluessel": "05554000005601627", "bezeichnung": "Dechant-Tigges-Straße" }, "geometry": { "type": "Point", "coordinates": [ 6.912722243426329, 51.985990124035148 ] } },
{ "type": "Feature", "properties": { "strassenschluessel": "05554000005601628", "bezeichnung": "Delpstraße" }, "geometry": { "type": "Point", "coordinates": [ 6.894531512245624, 51.99526051225893 ] } },
{ "type": "Feature", "properties": { "strassenschluessel": "05554000005601629", "bezeichnung": "Dieselstraße" }, "geometry": { "type": "Point", "coordinates": [ 6.908801499269931, 51.982985581995827 ] } },
{ "type": "Feature", "properties": { "strassenschluessel": "05554000005601630", "bezeichnung": "Don-Bosco-Straße" }, "geometry": { "type": "Point", "coordinates": [ 6.944170917315811, 51.982891985548363 ] } },
{ "type": "Feature", "properties": { "strassenschluessel": "05554000005601631", "bezeichnung": "Dr.-Brüning-Straße" }, "geometry": { "type": "Point", "coordinates": [ 6.91153182235626, 51.986204362524866 ] } },
{ "type": "Feature", "properties": { "strassenschluessel": "05554000005601632", "bezeichnung": "Dr.-Decking-Straße" }, "geometry": { "type": "Point", "coordinates": [ 6.920449593697997, 51.99438201869647 ] } },
{ "type": "Feature", "properties": { "strassenschluessel": "05554000005601633", "bezeichnung": "Dresdener Straße" }, "geometry": { "type": "Point", "coordinates": [ 6.880961373466207, 51.997618471632933 ] } },
{ "type": "Feature", "properties": { "strassenschluessel": "05554000005601634", "bezeichnung": "Drosselstiege" }, "geometry": { "type": "Point", "coordinates": [ 6.911835861284461, 52.000401709600652 ] } },
{ "type": "Feature", "properties": { "strassenschluessel": "05554000005601635", "bezeichnung": "Droste-Hülshoff-Straße" }, "geometry": { "type": "Point", "coordinates": [ 6.904121697763222, 51.992688622135979 ] } },
{ "type": "Feature", "properties": { "strassenschluessel": "05554000005601636", "bezeichnung": "Drubbel" }, "geometry": { "type": "Point", "coordinates": [ 6.899711731015427, 51.992554185040177 ] } },
{ "type": "Feature", "properties": { "strassenschluessel": "05554000005601637", "bezeichnung": "Dufkampstraße" }, "geometry": { "type": "Point", "coordinates": [ 6.920872203930125, 51.99347368758481 ] } },
{ "type": "Feature", "properties": { "strassenschluessel": "05554000005601638", "bezeichnung": "Düster Stegge" }, "geometry": { "type": "Point", "coordinates": [ 6.934182094279823, 51.998622130304049 ] } },
{ "type": "Feature", "properties": { "strassenschluessel": "05554000005601639", "bezeichnung": "Eichendorffstraße" }, "geometry": { "type": "Point", "coordinates": [ 6.85737562283312, 51.995990358204757 ] } },
{ "type": "Feature", "properties": { "strassenschluessel": "05554000005601640", "bezeichnung": "Eichenweg" }, "geometry": { "type": "Point", "coordinates": [ 6.91622260722309, 52.003513609478517 ] } },
{ "type": "Feature", "properties": { "strassenschluessel": "05554000005601641", "bezeichnung": "Elsterstiege" }, "geometry": { "type": "Point", "coordinates": [ 6.912484766372549, 52.000435786645603 ] } },
{ "type": "Feature", "properties": { "strassenschluessel": "05554000005601642", "bezeichnung": "Engelstraße" }, "geometry": { "type": "Point", "coordinates": [ 6.925536656564299, 51.993326845808973 ] } },
{ "type": "Feature", "properties": { "strassenschluessel": "05554000005601643", "bezeichnung": "Erlenweg" }, "geometry": { "type": "Point", "coordinates": [ 6.943317276229602, 51.98861838404855 ] } },
{ "type": "Feature", "properties": { "strassenschluessel": "05554000005601644", "bezeichnung": "Eschlohner Weg" }, "geometry": { "type": "Point", "coordinates": [ 6.906944634685353, 51.98657544395455 ] } },
{ "type": "Feature", "properties": { "strassenschluessel": "05554000005601645", "bezeichnung": "Eschstraße" }, "geometry": { "type": "Point", "coordinates": [ 6.909771809984029, 51.987206510164498 ] } },
{ "type": "Feature", "properties": { "strassenschluessel": "05554000005601646", "bezeichnung": "Estern" }, "geometry": { "type": "Point", "coordinates": [ 6.972197564397116, 51.986943838029035 ] } },
{ "type": "Feature", "properties": { "strassenschluessel": "05554000005601647", "bezeichnung": "Feldkamp" }, "geometry": { "type": "Point", "coordinates": [ 6.894194861812098, 51.994551283608445 ] } },
{ "type": "Feature", "properties": { "strassenschluessel": "05554000005601648", "bezeichnung": "Feldstraße" }, "geometry": { "type": "Point", "coordinates": [ 6.877658027618738, 52.000588521004822 ] } },
{ "type": "Feature", "properties": { "strassenschluessel": "05554000005601649", "bezeichnung": "Finkenstiege" }, "geometry": { "type": "Point", "coordinates": [ 6.910660228177706, 52.000870023223506 ] } },
{ "type": "Feature", "properties": { "strassenschluessel": "05554000005601650", "bezeichnung": "Fliednerstraße" }, "geometry": { "type": "Point", "coordinates": [ 6.947797133780735, 51.979557752048706 ] } },
{ "type": "Feature", "properties": { "strassenschluessel": "05554000005601651", "bezeichnung": "Fockengraben" }, "geometry": { "type": "Point", "coordinates": [ 6.932136728267349, 51.985561822548206 ] } },
{ "type": "Feature", "properties": { "strassenschluessel": "05554000005601652", "bezeichnung": "Friedhofsweg" }, "geometry": { "type": "Point", "coordinates": [ 6.898623270102156, 51.99275689427661 ] } },
{ "type": "Feature", "properties": { "strassenschluessel": "05554000005601653", "bezeichnung": "Fritz-Jöde-Straße" }, "geometry": { "type": "Point", "coordinates": [ 6.949026942915189, 51.982792122727062 ] } },
{ "type": "Feature", "properties": { "strassenschluessel": "05554000005601654", "bezeichnung": "Fröbelring" }, "geometry": { "type": "Point", "coordinates": [ 6.9485766893033, 51.979208478191033 ] } },
{ "type": "Feature", "properties": { "strassenschluessel": "05554000005601655", "bezeichnung": "Fünderken" }, "geometry": { "type": "Point", "coordinates": [ 6.924714955985031, 51.985503989161124 ] } },
{ "type": "Feature", "properties": { "strassenschluessel": "05554000005601656", "bezeichnung": "Fürstenkamp" }, "geometry": { "type": "Point", "coordinates": [ 6.911654799451302, 51.994103690066943 ] } },
{ "type": "Feature", "properties": { "strassenschluessel": "05554000005601657", "bezeichnung": "Gartenstraße" }, "geometry": { "type": "Point", "coordinates": [ 6.921695367237981, 51.99279946611172 ] } },
{ "type": "Feature", "properties": { "strassenschluessel": "05554000005601658", "bezeichnung": "Gelsingstraße" }, "geometry": { "type": "Point", "coordinates": [ 6.872628309780222, 51.999435600743908 ] } },
{ "type": "Feature", "properties": { "strassenschluessel": "05554000005601659", "bezeichnung": "Gerh.-Hauptmann-Straße" }, "geometry": { "type": "Point", "coordinates": [ 6.888831013464775, 51.993323052435962 ] } },
{ "type": "Feature", "properties": { "strassenschluessel": "05554000005601660", "bezeichnung": "Gescher Dyk" }, "geometry": { "type": "Point", "coordinates": [ 6.946954135469261, 51.981785932751329 ] } },
{ "type": "Feature", "properties": { "strassenschluessel": "05554000005601661", "bezeichnung": "Geschw.-Scholl-Straße" }, "geometry": { "type": "Point", "coordinates": [ 6.895964359067467, 51.99353521020565 ] } },
{ "type": "Feature", "properties": { "strassenschluessel": "05554000005601662", "bezeichnung": "Ginsterweg" }, "geometry": { "type": "Point", "coordinates": [ 6.946732409812583, 51.990051279140928 ] } },
{ "type": "Feature", "properties": { "strassenschluessel": "05554000005601663", "bezeichnung": "Glatzer Straße" }, "geometry": { "type": "Point", "coordinates": [ 6.870877590556853, 51.99512841881252 ] } },
{ "type": "Feature", "properties": { "strassenschluessel": "05554000005601664", "bezeichnung": "Gneisenaustraße" }, "geometry": { "type": "Point", "coordinates": [ 6.904257504518345, 51.98786807935133 ] } },
{ "type": "Feature", "properties": { "strassenschluessel": "05554000005601665", "bezeichnung": "Goerdelerstraße" }, "geometry": { "type": "Point", "coordinates": [ 6.893279340946453, 51.99537198426458 ] } },
{ "type": "Feature", "properties": { "strassenschluessel": "05554000005601666", "bezeichnung": "Goethestraße" }, "geometry": { "type": "Point", "coordinates": [ 6.902764897523143, 51.993177668209114 ] } },
{ "type": "Feature", "properties": { "strassenschluessel": "05554000005601667", "bezeichnung": "Görkeskamp" }, "geometry": { "type": "Point", "coordinates": [ 6.911722265826051, 51.991407460605927 ] } },
{ "type": "Feature", "properties": { "strassenschluessel": "05554000005601668", "bezeichnung": "Gotenstraße" }, "geometry": { "type": "Point", "coordinates": [ 6.917597483348187, 52.005705789376997 ] } },
{ "type": "Feature", "properties": { "strassenschluessel": "05554000005601669", "bezeichnung": "Grabenstraße" }, "geometry": { "type": "Point", "coordinates": [ 6.91438237408705, 51.990169030463875 ] } },
{ "type": "Feature", "properties": { "strassenschluessel": "05554000005601670", "bezeichnung": "Graf-von-Galen-Straße" }, "geometry": { "type": "Point", "coordinates": [ 6.918787450520826, 51.989778350736458 ] } },
{ "type": "Feature", "properties": { "strassenschluessel": "05554000005601671", "bezeichnung": "Gustav-Adolf-Straße" }, "geometry": { "type": "Point", "coordinates": [ 6.905902334898241, 51.985553893980914 ] } },
{ "type": "Feature", "properties": { "strassenschluessel": "05554000005601672", "bezeichnung": "Hagenkamp" }, "geometry": { "type": "Point", "coordinates": [ 6.923039830459982, 51.990261625747991 ] } },
{ "type": "Feature", "properties": { "strassenschluessel": "05554000005601673", "bezeichnung": "Hagenstraße" }, "geometry": { "type": "Point", "coordinates": [ 6.918686525179893, 51.991738636932524 ] } },
{ "type": "Feature", "properties": { "strassenschluessel": "05554000005601674", "bezeichnung": "Hallertstraße" }, "geometry": { "type": "Point", "coordinates": [ 6.907844675000911, 51.98783647834 ] } },
{ "type": "Feature", "properties": { "strassenschluessel": "05554000005601675", "bezeichnung": "Hardenbergstraße" }, "geometry": { "type": "Point", "coordinates": [ 6.904355529759548, 51.986224857502243 ] } },
{ "type": "Feature", "properties": { "strassenschluessel": "05554000005601676", "bezeichnung": "Haselweg" }, "geometry": { "type": "Point", "coordinates": [ 6.945473261308747, 51.990040464237303 ] } },
{ "type": "Feature", "properties": { "strassenschluessel": "05554000005601677", "bezeichnung": "Hasenkamp" }, "geometry": { "type": "Point", "coordinates": [ 6.915608887452545, 52.004317538527452 ] } },
{ "type": "Feature", "properties": { "strassenschluessel": "05554000005601678", "bezeichnung": "Hedwigstraße" }, "geometry": { "type": "Point", "coordinates": [ 6.881414648832472, 51.99722048467185 ] } },
{ "type": "Feature", "properties": { "strassenschluessel": "05554000005601679", "bezeichnung": "Hegebrockstraße" }, "geometry": { "type": "Point", "coordinates": [ 6.915389119047608, 51.988462763360758 ] } },
{ "type": "Feature", "properties": { "strassenschluessel": "05554000005601680", "bezeichnung": "Hegelstraße" }, "geometry": { "type": "Point", "coordinates": [ 6.947882784141503, 51.983081720317287 ] } },
{ "type": "Feature", "properties": { "strassenschluessel": "05554000005601681", "bezeichnung": "Heggenpatt" }, "geometry": { "type": "Point", "coordinates": [ 6.910819522622323, 52.002200838171696 ] } },
{ "type": "Feature", "properties": { "strassenschluessel": "05554000005601682", "bezeichnung": "Heideweg" }, "geometry": { "type": "Point", "coordinates": [ 6.875792288901598, 51.996838709922606 ] } },
{ "type": "Feature", "properties": { "strassenschluessel": "05554000005601683", "bezeichnung": "Helmert" }, "geometry": { "type": "Point", "coordinates": [ 6.917346180827985, 51.998586791434469 ] } },
{ "type": "Feature", "properties": { "strassenschluessel": "05554000005601684", "bezeichnung": "Hengeler" }, "geometry": { "type": "Point", "coordinates": [ 6.915072855885226, 52.006726749182491 ] } },
{ "type": "Feature", "properties": { "strassenschluessel": "05554000005601685", "bezeichnung": "Hengelerstraße" }, "geometry": { "type": "Point", "coordinates": [ 6.91412706795413, 52.000328080964884 ] } },
{ "type": "Feature", "properties": { "strassenschluessel": "05554000005601686", "bezeichnung": "Hessenweg" }, "geometry": { "type": "Point", "coordinates": [ 6.917328763801902, 52.002855540103113 ] } },
{ "type": "Feature", "properties": { "strassenschluessel": "05554000005601687", "bezeichnung": "Hildebrandstraße" }, "geometry": { "type": "Point", "coordinates": [ 6.944105949325408, 51.983735253298747 ] } },
{ "type": "Feature", "properties": { "strassenschluessel": "05554000005601688", "bezeichnung": "Hindenburgallee" }, "geometry": { "type": "Point", "coordinates": [ 6.929520740425563, 51.994334465831528 ] } },
{ "type": "Feature", "properties": { "strassenschluessel": "05554000005601689", "bezeichnung": "Hohe Straße" }, "geometry": { "type": "Point", "coordinates": [ 6.915435362536326, 51.993438568216874 ] } },
{ "type": "Feature", "properties": { "strassenschluessel": "05554000005601690", "bezeichnung": "Hölderlinstraße" }, "geometry": { "type": "Point", "coordinates": [ 6.885184948538185, 51.99135512218529 ] } },
{ "type": "Feature", "properties": { "strassenschluessel": "05554000005601691", "bezeichnung": "Holtmoate" }, "geometry": { "type": "Point", "coordinates": [ 6.93502098998293, 51.987144947018869 ] } },
{ "type": "Feature", "properties": { "strassenschluessel": "05554000005601692", "bezeichnung": "Hoogen Gorden" }, "geometry": { "type": "Point", "coordinates": [ 6.920249904470087, 51.990432006811353 ] } },
{ "type": "Feature", "properties": { "strassenschluessel": "05554000005601693", "bezeichnung": "Hook" }, "geometry": { "type": "Point", "coordinates": [ 6.915622140586023, 51.991300216893606 ] } },
{ "type": "Feature", "properties": { "strassenschluessel": "05554000005601694", "bezeichnung": "Hordt" }, "geometry": { "type": "Point", "coordinates": [ 6.879672504997862, 51.986082389861565 ] } },
{ "type": "Feature", "properties": { "strassenschluessel": "05554000005601695", "bezeichnung": "Hövel" }, "geometry": { "type": "Point", "coordinates": [ 6.919716043755524, 51.994385759273143 ] } },
{ "type": "Feature", "properties": { "strassenschluessel": "05554000005601696", "bezeichnung": "Hundewick" }, "geometry": { "type": "Point", "coordinates": [ 6.891040684957578, 51.969133593618082 ] } },
{ "type": "Feature", "properties": { "strassenschluessel": "05554000005601697", "bezeichnung": "Immingfeldweg" }, "geometry": { "type": "Point", "coordinates": [ 6.939671448250745, 51.976369293162954 ] } },
{ "type": "Feature", "properties": { "strassenschluessel": "05554000005601698", "bezeichnung": "Industriestraße" }, "geometry": { "type": "Point", "coordinates": [ 6.910832365751971, 51.983342721959175 ] } },
{ "type": "Feature", "properties": { "strassenschluessel": "05554000005601699", "bezeichnung": "Wessendorfer Straße" }, "geometry": { "type": "Point", "coordinates": [ 6.895323655971147, 51.992323080360208 ] } },
{ "type": "Feature", "properties": { "strassenschluessel": "05554000005601700", "bezeichnung": "Jakobyweg" }, "geometry": { "type": "Point", "coordinates": [ 6.915054892263578, 51.99324675876467 ] } },
{ "type": "Feature", "properties": { "strassenschluessel": "05554000005601701", "bezeichnung": "Johannesstraße" }, "geometry": { "type": "Point", "coordinates": [ 6.917874944912819, 51.99147677156266 ] } },
{ "type": "Feature", "properties": { "strassenschluessel": "05554000005601702", "bezeichnung": "Josefstraße" }, "geometry": { "type": "Point", "coordinates": [ 6.912039284274534, 51.992191259257851 ] } },
{ "type": "Feature", "properties": { "strassenschluessel": "05554000005601703", "bezeichnung": "Kalterweg" }, "geometry": { "type": "Point", "coordinates": [ 6.933706065801137, 51.999221661850477 ] } },
{ "type": "Feature", "properties": { "strassenschluessel": "05554000005601704", "bezeichnung": "Kanalweg" }, "geometry": { "type": "Point", "coordinates": [ 6.876189276682203, 51.996774138632198 ] } },
{ "type": "Feature", "properties": { "strassenschluessel": "05554000005601705", "bezeichnung": "Kantstraße" }, "geometry": { "type": "Point", "coordinates": [ 6.876550965551262, 51.999807656126912 ] } },
{ "type": "Feature", "properties": { "strassenschluessel": "05554000005601706", "bezeichnung": "Kapellenplatz" }, "geometry": { "type": "Point", "coordinates": [ 6.929894503263317, 51.994703799533397 ] } },
{ "type": "Feature", "properties": { "strassenschluessel": "05554000005601707", "bezeichnung": "Kapellenstraße" }, "geometry": { "type": "Point", "coordinates": [ 6.928227279429881, 51.995019368915088 ] } },
{ "type": "Feature", "properties": { "strassenschluessel": "05554000005601708", "bezeichnung": "Kettelerstraße" }, "geometry": { "type": "Point", "coordinates": [ 6.914081220669243, 51.986559284815719 ] } },
{ "type": "Feature", "properties": { "strassenschluessel": "05554000005601709", "bezeichnung": "Kiefernweg" }, "geometry": { "type": "Point", "coordinates": [ 6.91571843213895, 52.003793494791474 ] } },
{ "type": "Feature", "properties": { "strassenschluessel": "05554000005601710", "bezeichnung": "Kiwitt" }, "geometry": { "type": "Point", "coordinates": [ 6.897985162735567, 51.993372986324502 ] } },
{ "type": "Feature", "properties": { "strassenschluessel": "05554000005601711", "bezeichnung": "Klosterstraße" }, "geometry": { "type": "Point", "coordinates": [ 6.922135649006889, 51.991501388267558 ] } },
{ "type": "Feature", "properties": { "strassenschluessel": "05554000005601712", "bezeichnung": "Koeperstraße" }, "geometry": { "type": "Point", "coordinates": [ 6.949413802370453, 51.978943543142542 ] } },
{ "type": "Feature", "properties": { "strassenschluessel": "05554000005601713", "bezeichnung": "Kolpingstraße" }, "geometry": { "type": "Point", "coordinates": [ 6.909650563104253, 51.986615407926756 ] } },
{ "type": "Feature", "properties": { "strassenschluessel": "05554000005601714", "bezeichnung": "Koppelingstiege" }, "geometry": { "type": "Point", "coordinates": [ 6.927499271124377, 51.991505460744925 ] } },
{ "type": "Feature", "properties": { "strassenschluessel": "05554000005601715", "bezeichnung": "Kreuzstraße" }, "geometry": { "type": "Point", "coordinates": [ 6.922666788035023, 51.989169491080816 ] } },
{ "type": "Feature", "properties": { "strassenschluessel": "05554000005601716", "bezeichnung": "Kreuzwegstraße" }, "geometry": { "type": "Point", "coordinates": [ 6.923822537817226, 51.990753871064655 ] } },
{ "type": "Feature", "properties": { "strassenschluessel": "05554000005601717", "bezeichnung": "Krögers Kamp" }, "geometry": { "type": "Point", "coordinates": [ 6.932355308099694, 51.986785578106215 ] } },
{ "type": "Feature", "properties": { "strassenschluessel": "05554000005601718", "bezeichnung": "Kuckucksweg" }, "geometry": { "type": "Point", "coordinates": [ 6.89665467302153, 51.993586310697417 ] } },
{ "type": "Feature", "properties": { "strassenschluessel": "05554000005601719", "bezeichnung": "Kühlsgang" }, "geometry": { "type": "Point", "coordinates": [ 6.916773153640773, 51.993690859816766 ] } },
{ "type": "Feature", "properties": { "strassenschluessel": "05554000005601720", "bezeichnung": "Ladestraße" }, "geometry": null },
{ "type": "Feature", "properties": { "strassenschluessel": "05554000005601721", "bezeichnung": "Lange Stegge" }, "geometry": { "type": "Point", "coordinates": [ 6.913045669699726, 52.002660466656806 ] } },
{ "type": "Feature", "properties": { "strassenschluessel": "05554000005601722", "bezeichnung": "Lattkamp" }, "geometry": { "type": "Point", "coordinates": [ 6.922106916352285, 51.98576881927363 ] } },
{ "type": "Feature", "properties": { "strassenschluessel": "05554000005601723", "bezeichnung": "Laurentiusstraße" }, "geometry": { "type": "Point", "coordinates": [ 6.906353980679732, 51.988941450463713 ] } },
{ "type": "Feature", "properties": { "strassenschluessel": "05554000005601724", "bezeichnung": "Lehmstiege" }, "geometry": { "type": "Point", "coordinates": [ 6.919060772711708, 52.005438910893623 ] } },
{ "type": "Feature", "properties": { "strassenschluessel": "05554000005601725", "bezeichnung": "Lerchenweg" }, "geometry": { "type": "Point", "coordinates": [ 6.910846350371203, 51.999934024489605 ] } },
{ "type": "Feature", "properties": { "strassenschluessel": "05554000005601726", "bezeichnung": "Lessingstraße" }, "geometry": { "type": "Point", "coordinates": [ 6.89949584969246, 51.995085613144354 ] } },
{ "type": "Feature", "properties": { "strassenschluessel": "05554000005601727", "bezeichnung": "Letterhausstraße" }, "geometry": { "type": "Point", "coordinates": [ 6.902990779897944, 51.988501404582934 ] } },
{ "type": "Feature", "properties": { "strassenschluessel": "05554000005601728", "bezeichnung": "Liegnitzer Straße" }, "geometry": { "type": "Point", "coordinates": [ 6.877639990788942, 51.997376785652783 ] } },
{ "type": "Feature", "properties": { "strassenschluessel": "05554000005601729", "bezeichnung": "Lindenweg" }, "geometry": { "type": "Point", "coordinates": [ 6.913056598873398, 52.003926150915113 ] } },
{ "type": "Feature", "properties": { "strassenschluessel": "05554000005601730", "bezeichnung": "Linward" }, "geometry": { "type": "Point", "coordinates": [ 6.895457916521464, 51.996362820563341 ] } },
{ "type": "Feature", "properties": { "strassenschluessel": "05554000005601731", "bezeichnung": "Lohner Straße" }, "geometry": { "type": "Point", "coordinates": [ 6.917021011207863, 52.005447835117614 ] } },
{ "type": "Feature", "properties": { "strassenschluessel": "05554000005601732", "bezeichnung": "Lönsstraße" }, "geometry": { "type": "Point", "coordinates": [ 6.902988549412952, 51.993521241594983 ] } },
{ "type": "Feature", "properties": { "strassenschluessel": "05554000005601733", "bezeichnung": "Losberg" }, "geometry": { "type": "Point", "coordinates": [ 6.92169140910582, 51.997958412586932 ] } },
{ "type": "Feature", "properties": { "strassenschluessel": "05554000005601734", "bezeichnung": "Ludgerusstraße" }, "geometry": { "type": "Point", "coordinates": [ 6.911082632330598, 51.984374592009054 ] } },
{ "type": "Feature", "properties": { "strassenschluessel": "05554000005601735", "bezeichnung": "Marienburger Straße" }, "geometry": { "type": "Point", "coordinates": [ 6.88075462048635, 51.998992995561217 ] } },
{ "type": "Feature", "properties": { "strassenschluessel": "05554000005601736", "bezeichnung": "Marienstraße" }, "geometry": { "type": "Point", "coordinates": [ 6.907242935695076, 51.989069048943762 ] } },
{ "type": "Feature", "properties": { "strassenschluessel": "05554000005601737", "bezeichnung": "Markt" }, "geometry": { "type": "Point", "coordinates": [ 6.916682558087569, 51.99305879055391 ] } },
{ "type": "Feature", "properties": { "strassenschluessel": "05554000005601738", "bezeichnung": "Meisenweg" }, "geometry": { "type": "Point", "coordinates": [ 6.912663882815368, 52.00147045294338 ] } },
{ "type": "Feature", "properties": { "strassenschluessel": "05554000005601739", "bezeichnung": "Meskesweide" }, "geometry": { "type": "Point", "coordinates": [ 6.91249521573044, 51.993178985793811 ] } },
{ "type": "Feature", "properties": { "strassenschluessel": "05554000005601740", "bezeichnung": "Mittelstraße" }, "geometry": { "type": "Point", "coordinates": [ 6.910415869292938, 51.988594295487211 ] } },
{ "type": "Feature", "properties": { "strassenschluessel": "05554000005601741", "bezeichnung": "Moltkestraße" }, "geometry": { "type": "Point", "coordinates": [ 6.907419718470535, 51.986253615339777 ] } },
{ "type": "Feature", "properties": { "strassenschluessel": "05554000005601742", "bezeichnung": "Mozartwinkel" }, "geometry": { "type": "Point", "coordinates": [ 6.910511649532955, 51.996510216647451 ] } },
{ "type": "Feature", "properties": { "strassenschluessel": "05554000005601743", "bezeichnung": "Mühlenstraße" }, "geometry": { "type": "Point", "coordinates": [ 6.914969529501606, 51.999006974852392 ] } },
{ "type": "Feature", "properties": { "strassenschluessel": "05554000005601744", "bezeichnung": "Mühlenweg" }, "geometry": { "type": "Point", "coordinates": [ 6.910678695713958, 51.989318892730175 ] } },
{ "type": "Feature", "properties": { "strassenschluessel": "05554000005601745", "bezeichnung": "Nelkenweg" }, "geometry": { "type": "Point", "coordinates": [ 6.93532006097689, 51.999181398394093 ] } },
{ "type": "Feature", "properties": { "strassenschluessel": "05554000005601746", "bezeichnung": "Neustraße" }, "geometry": { "type": "Point", "coordinates": [ 6.916798721005978, 51.992484747657471 ] } },
{ "type": "Feature", "properties": { "strassenschluessel": "05554000005601747", "bezeichnung": "Nienkamp" }, "geometry": { "type": "Point", "coordinates": [ 6.931655626463639, 51.986817854469109 ] } },
{ "type": "Feature", "properties": { "strassenschluessel": "05554000005601748", "bezeichnung": "Nonnenweg" }, "geometry": { "type": "Point", "coordinates": [ 6.906931220671888, 51.991860275984223 ] } },
{ "type": "Feature", "properties": { "strassenschluessel": "05554000005601749", "bezeichnung": "Nordstraße" }, "geometry": { "type": "Point", "coordinates": [ 6.917043140477793, 51.998943923324589 ] } },
{ "type": "Feature", "properties": { "strassenschluessel": "05554000005601750", "bezeichnung": "Ostlandring" }, "geometry": { "type": "Point", "coordinates": [ 6.87276484167361, 51.995880138832653 ] } },
{ "type": "Feature", "properties": { "strassenschluessel": "05554000005601751", "bezeichnung": "Otgeristraße" }, "geometry": { "type": "Point", "coordinates": [ 6.916550013595883, 51.990001032998236 ] } },
{ "type": "Feature", "properties": { "strassenschluessel": "05554000005601752", "bezeichnung": "Ottostraße" }, "geometry": { "type": "Point", "coordinates": [ 6.912130407240301, 51.982801052150585 ] } },
{ "type": "Feature", "properties": { "strassenschluessel": "05554000005601753", "bezeichnung": "Overbergstraße" }, "geometry": { "type": "Point", "coordinates": [ 6.946231221818738, 51.979473100423782 ] } },
{ "type": "Feature", "properties": { "strassenschluessel": "05554000005601754", "bezeichnung": "Owwering" }, "geometry": { "type": "Point", "coordinates": [ 6.921236821619718, 51.984813177494892 ] } },
{ "type": "Feature", "properties": { "strassenschluessel": "05554000005601755", "bezeichnung": "Paulusstraße" }, "geometry": { "type": "Point", "coordinates": [ 6.906631337680728, 51.989690100491792 ] } },
{ "type": "Feature", "properties": { "strassenschluessel": "05554000005601756", "bezeichnung": "Pestalozzistraße" }, "geometry": { "type": "Point", "coordinates": [ 6.943766190685371, 51.982962557633051 ] } },
{ "type": "Feature", "properties": { "strassenschluessel": "05554000005601757", "bezeichnung": "Pfeifenofen" }, "geometry": { "type": "Point", "coordinates": [ 6.913217048896773, 51.993194695135642 ] } },
{ "type": "Feature", "properties": { "strassenschluessel": "05554000005601758", "bezeichnung": "Poll" }, "geometry": { "type": "Point", "coordinates": [ 6.920268541167243, 51.992362482625289 ] } },
{ "type": "Feature", "properties": { "strassenschluessel": "05554000005601759", "bezeichnung": "Prozeßweg" }, "geometry": { "type": "Point", "coordinates": [ 6.877005810250405, 51.995357023012396 ] } },
{ "type": "Feature", "properties": { "strassenschluessel": "05554000005601760", "bezeichnung": "Rezepterstraße" }, "geometry": { "type": "Point", "coordinates": [ 6.915938212211487, 51.99314895821216 ] } },
{ "type": "Feature", "properties": { "strassenschluessel": "05554000005601761", "bezeichnung": "Richters Kamp" }, "geometry": { "type": "Point", "coordinates": [ 6.928170695298349, 51.983258312290445 ] } },
{ "type": "Feature", "properties": { "strassenschluessel": "05554000005601762", "bezeichnung": "Ritter-von-Halt-Straße" }, "geometry": { "type": "Point", "coordinates": [ 6.893465023379381, 51.990326486095071 ] } },
{ "type": "Feature", "properties": { "strassenschluessel": "05554000005601763", "bezeichnung": "Rosenweg" }, "geometry": { "type": "Point", "coordinates": [ 6.935798192511434, 51.999576705013489 ] } },
{ "type": "Feature", "properties": { "strassenschluessel": "05554000005601764", "bezeichnung": "Sachsenweg" }, "geometry": { "type": "Point", "coordinates": [ 6.915151743193252, 52.002260052607369 ] } },
{ "type": "Feature", "properties": { "strassenschluessel": "05554000005601765", "bezeichnung": "Sailerstraße" }, "geometry": { "type": "Point", "coordinates": [ 6.944060790639345, 51.981901530218934 ] } },
{ "type": "Feature", "properties": { "strassenschluessel": "05554000005601766", "bezeichnung": "Sanssouci" }, "geometry": { "type": "Point", "coordinates": [ 6.919972612497406, 51.989763073385518 ] } },
{ "type": "Feature", "properties": { "strassenschluessel": "05554000005601767", "bezeichnung": "Saumstraße" }, "geometry": { "type": "Point", "coordinates": [ 6.909943302990192, 51.989019926315585 ] } },
{ "type": "Feature", "properties": { "strassenschluessel": "05554000005601768", "bezeichnung": "Schanzring" }, "geometry": { "type": "Point", "coordinates": [ 6.910694830485248, 51.994186430070073 ] } },
{ "type": "Feature", "properties": { "strassenschluessel": "05554000005601769", "bezeichnung": "Schillerstraße" }, "geometry": { "type": "Point", "coordinates": [ 6.906148475287447, 51.991976397571278 ] } },
{ "type": "Feature", "properties": { "strassenschluessel": "05554000005601770", "bezeichnung": "Schlaunstraße" }, "geometry": { "type": "Point", "coordinates": [ 6.906396871737067, 51.986069781225865 ] } },
{ "type": "Feature", "properties": { "strassenschluessel": "05554000005601771", "bezeichnung": "Schlesierstraße" }, "geometry": { "type": "Point", "coordinates": [ 6.871547073359791, 51.996463934967927 ] } },
{ "type": "Feature", "properties": { "strassenschluessel": "05554000005601772", "bezeichnung": "Schlichthorststraße" }, "geometry": { "type": "Point", "coordinates": [ 6.924052390431551, 51.992090030360266 ] } },
{ "type": "Feature", "properties": { "strassenschluessel": "05554000005601773", "bezeichnung": "Schmitterfeld" }, "geometry": { "type": "Point", "coordinates": [ 6.929397336046973, 51.985661177952522 ] } },
{ "type": "Feature", "properties": { "strassenschluessel": "05554000005601774", "bezeichnung": "Schopenhauerstraße" }, "geometry": { "type": "Point", "coordinates": [ 6.893609804910859, 51.992381348280801 ] } },
{ "type": "Feature", "properties": { "strassenschluessel": "05554000005601775", "bezeichnung": "Schoppenkamp" }, "geometry": { "type": "Point", "coordinates": [ 6.92468528409438, 51.986739102879945 ] } },
{ "type": "Feature", "properties": { "strassenschluessel": "05554000005601776", "bezeichnung": "Schubertstraße" }, "geometry": { "type": "Point", "coordinates": [ 6.910622579648189, 51.997869732607676 ] } },
{ "type": "Feature", "properties": { "strassenschluessel": "05554000005601777", "bezeichnung": "Schulweg" }, "geometry": null },
{ "type": "Feature", "properties": { "strassenschluessel": "05554000005601778", "bezeichnung": "Schützenweg" }, "geometry": { "type": "Point", "coordinates": [ 6.890325774026943, 51.988755193560159 ] } },
{ "type": "Feature", "properties": { "strassenschluessel": "05554000005601779", "bezeichnung": "Siemensstraße" }, "geometry": { "type": "Point", "coordinates": [ 6.906288781409832, 51.981975593611025 ] } },
{ "type": "Feature", "properties": { "strassenschluessel": "05554000005601780", "bezeichnung": "Sprakelstraße" }, "geometry": { "type": "Point", "coordinates": [ 6.927438880832748, 51.994210944534451 ] } },
{ "type": "Feature", "properties": { "strassenschluessel": "05554000005601781", "bezeichnung": "Sprangerstraße" }, "geometry": { "type": "Point", "coordinates": [ 6.946724903507699, 51.979604664567688 ] } },
{ "type": "Feature", "properties": { "strassenschluessel": "05554000005601782", "bezeichnung": "Starenweg" }, "geometry": { "type": "Point", "coordinates": [ 6.914374199735065, 51.998815225478282 ] } },
{ "type": "Feature", "properties": { "strassenschluessel": "05554000005601783", "bezeichnung": "Stauffenbergstraße" }, "geometry": { "type": "Point", "coordinates": [ 6.895605797138693, 51.995591269666328 ] } },
{ "type": "Feature", "properties": { "strassenschluessel": "05554000005601784", "bezeichnung": "Stegerstraße" }, "geometry": { "type": "Point", "coordinates": [ 6.917802358490773, 51.991669903636911 ] } },
{ "type": "Feature", "properties": { "strassenschluessel": "05554000005601785", "bezeichnung": "Steinkamp" }, "geometry": { "type": "Point", "coordinates": [ 6.911113613431588, 51.999182253462642 ] } },
{ "type": "Feature", "properties": { "strassenschluessel": "05554000005601786", "bezeichnung": "Stiftsweg" }, "geometry": { "type": "Point", "coordinates": [ 6.91991642902726, 51.991998913473068 ] } },
{ "type": "Feature", "properties": { "strassenschluessel": "05554000005601787", "bezeichnung": "Südlohner Weg" }, "geometry": { "type": "Point", "coordinates": [ 6.905416652695775, 51.986892913135229 ] } },
{ "type": "Feature", "properties": { "strassenschluessel": "05554000005601788", "bezeichnung": "Südring" }, "geometry": { "type": "Point", "coordinates": [ 6.920717085357634, 51.989517871832824 ] } },
{ "type": "Feature", "properties": { "strassenschluessel": "05554000005601789", "bezeichnung": "Südstraße" }, "geometry": { "type": "Point", "coordinates": [ 6.916440340019987, 51.988514859328511 ] } },
{ "type": "Feature", "properties": { "strassenschluessel": "05554000005601790", "bezeichnung": "Tannenweg" }, "geometry": { "type": "Point", "coordinates": [ 6.916922598051694, 52.003646214075133 ] } },
{ "type": "Feature", "properties": { "strassenschluessel": "05554000005601791", "bezeichnung": "Tegederstraße" }, "geometry": { "type": "Point", "coordinates": [ 6.909448748540409, 51.991403416242534 ] } },
{ "type": "Feature", "properties": { "strassenschluessel": "05554000005601792", "bezeichnung": "Tillystraße" }, "geometry": { "type": "Point", "coordinates": [ 6.93120960718167, 51.99527498154945 ] } },
{ "type": "Feature", "properties": { "strassenschluessel": "05554000005601793", "bezeichnung": "Timpenweide" }, "geometry": { "type": "Point", "coordinates": [ 6.916445951379835, 51.997276985011766 ] } },
{ "type": "Feature", "properties": { "strassenschluessel": "05554000005601794", "bezeichnung": "Töpferstraße" }, "geometry": { "type": "Point", "coordinates": [ 6.913333678085958, 51.98733690281626 ] } },
{ "type": "Feature", "properties": { "strassenschluessel": "05554000005601795", "bezeichnung": "Uferstraße" }, "geometry": { "type": "Point", "coordinates": [ 6.923446130237929, 51.996758341194081 ] } },
{ "type": "Feature", "properties": { "strassenschluessel": "05554000005601796", "bezeichnung": "Uhlandstraße" }, "geometry": { "type": "Point", "coordinates": [ 6.878190164243197, 51.999056500371175 ] } },
{ "type": "Feature", "properties": { "strassenschluessel": "05554000005601797", "bezeichnung": "Ulmenstraße" }, "geometry": { "type": "Point", "coordinates": [ 6.915829684949662, 52.006909033036465 ] } },
{ "type": "Feature", "properties": { "strassenschluessel": "05554000005601798", "bezeichnung": "Vellsweg" }, "geometry": { "type": "Point", "coordinates": [ 6.923340693961246, 51.985473578963756 ] } },
{ "type": "Feature", "properties": { "strassenschluessel": "05554000005601799", "bezeichnung": "Vom-Stein-Straße" }, "geometry": { "type": "Point", "coordinates": [ 6.903653366466748, 51.986076409233753 ] } },
{ "type": "Feature", "properties": { "strassenschluessel": "05554000005601800", "bezeichnung": "Von-Witzleben-Straße" }, "geometry": { "type": "Point", "coordinates": [ 6.894026679946744, 51.995693452591723 ] } },
{ "type": "Feature", "properties": { "strassenschluessel": "05554000005601801", "bezeichnung": "Voorkamp" }, "geometry": { "type": "Point", "coordinates": [ 6.912661470263432, 51.997410350910727 ] } },
{ "type": "Feature", "properties": { "strassenschluessel": "05554000005601802", "bezeichnung": "Vredener Straße" }, "geometry": { "type": "Point", "coordinates": [ 6.911215806304924, 51.990908920662307 ] } },
{ "type": "Feature", "properties": { "strassenschluessel": "05554000005601803", "bezeichnung": "Waldstraße" }, "geometry": { "type": "Point", "coordinates": [ 6.919480170878926, 52.006109878631534 ] } },
{ "type": "Feature", "properties": { "strassenschluessel": "05554000005601804", "bezeichnung": "Wall" }, "geometry": { "type": "Point", "coordinates": [ 6.919379012567726, 51.991675861719365 ] } },
{ "type": "Feature", "properties": { "strassenschluessel": "05554000005601805", "bezeichnung": "Wendfeld" }, "geometry": { "type": "Point", "coordinates": [ 6.90766271281039, 52.025848087480604 ] } },
{ "type": "Feature", "properties": { "strassenschluessel": "05554000005601806", "bezeichnung": "Wenningfeld" }, "geometry": { "type": "Point", "coordinates": [ 6.857272816928034, 52.001765353788912 ] } },
{ "type": "Feature", "properties": { "strassenschluessel": "05554000005601807", "bezeichnung": "Wenninghof" }, "geometry": { "type": "Point", "coordinates": [ 6.903612768532279, 51.992223861582609 ] } },
{ "type": "Feature", "properties": { "strassenschluessel": "05554000005601808", "bezeichnung": "Weststraße" }, "geometry": { "type": "Point", "coordinates": [ 6.905274625228905, 51.987210435665382 ] } },
{ "type": "Feature", "properties": { "strassenschluessel": "05554000005601809", "bezeichnung": "Wibbeltstraße" }, "geometry": { "type": "Point", "coordinates": [ 6.901821774352754, 51.993855601502318 ] } },
{ "type": "Feature", "properties": { "strassenschluessel": "05554000005601810", "bezeichnung": "Wiesenweg" }, "geometry": { "type": "Point", "coordinates": [ 6.934121910620041, 51.986029378434125 ] } },
{ "type": "Feature", "properties": { "strassenschluessel": "05554000005601811", "bezeichnung": "Nikolaus-Groß-Straße" }, "geometry": { "type": "Point", "coordinates": [ 6.892356980172647, 51.995418118233616 ] } },
{ "type": "Feature", "properties": { "strassenschluessel": "05554000005601812", "bezeichnung": "Kastanienweg" }, "geometry": { "type": "Point", "coordinates": [ 6.913977595564274, 52.004600551687389 ] } },
{ "type": "Feature", "properties": { "strassenschluessel": "05554000005601813", "bezeichnung": "Brucknerstraße" }, "geometry": { "type": "Point", "coordinates": [ 6.910362743818353, 51.998418271272534 ] } },
{ "type": "Feature", "properties": { "strassenschluessel": "05554000005601814", "bezeichnung": "Orffstraße" }, "geometry": { "type": "Point", "coordinates": [ 6.909012507096724, 51.999561559730274 ] } },
{ "type": "Feature", "properties": { "strassenschluessel": "05554000005601815", "bezeichnung": "Wagnerstraße" }, "geometry": { "type": "Point", "coordinates": [ 6.908854313204073, 51.998295946878365 ] } },
{ "type": "Feature", "properties": { "strassenschluessel": "05554000005601816", "bezeichnung": "Lortzingstraße" }, "geometry": { "type": "Point", "coordinates": [ 6.909698505663026, 51.999231372254002 ] } },
{ "type": "Feature", "properties": { "strassenschluessel": "05554000005601817", "bezeichnung": "Heinestraße" }, "geometry": { "type": "Point", "coordinates": [ 6.890390658548772, 51.99391607494772 ] } },
{ "type": "Feature", "properties": { "strassenschluessel": "05554000005601818", "bezeichnung": "Propst-Hugenroth-Straße" }, "geometry": { "type": "Point", "coordinates": [ 6.912494109655238, 51.984453528317715 ] } },
{ "type": "Feature", "properties": { "strassenschluessel": "05554000005601819", "bezeichnung": "Beethovenring" }, "geometry": { "type": "Point", "coordinates": [ 6.907118779245012, 51.999491864176989 ] } },
{ "type": "Feature", "properties": { "strassenschluessel": "05554000005601820", "bezeichnung": "Händelstraße" }, "geometry": { "type": "Point", "coordinates": [ 6.909012937808143, 51.997883890302475 ] } },
{ "type": "Feature", "properties": { "strassenschluessel": "05554000005601821", "bezeichnung": "Leipziger Straße" }, "geometry": { "type": "Point", "coordinates": [ 6.878734402005563, 51.996312638911292 ] } },
{ "type": "Feature", "properties": { "strassenschluessel": "05554000005601822", "bezeichnung": "Lefkeskamp" }, "geometry": { "type": "Point", "coordinates": [ 6.938087998221119, 51.986369773591505 ] } },
{ "type": "Feature", "properties": { "strassenschluessel": "05554000005601823", "bezeichnung": "Niemark" }, "geometry": { "type": "Point", "coordinates": [ 6.939088126374609, 51.984601982473428 ] } },
{ "type": "Feature", "properties": { "strassenschluessel": "05554000005601824", "bezeichnung": "Domhuesfeld" }, "geometry": { "type": "Point", "coordinates": [ 6.939579158977758, 51.986016949493958 ] } },
{ "type": "Feature", "properties": { "strassenschluessel": "05554000005601825", "bezeichnung": "Weerseloer Straße" }, "geometry": { "type": "Point", "coordinates": [ 6.901721595803934, 51.987414969353928 ] } },
{ "type": "Feature", "properties": { "strassenschluessel": "05554000005601826", "bezeichnung": "Ahornweg" }, "geometry": { "type": "Point", "coordinates": [ 6.916666617579335, 52.004945473585927 ] } },
{ "type": "Feature", "properties": { "strassenschluessel": "05554000005601827", "bezeichnung": "Gutenbergstraße" }, "geometry": { "type": "Point", "coordinates": [ 6.89804392332582, 51.990033986165777 ] } },
{ "type": "Feature", "properties": { "strassenschluessel": "05554000005601828", "bezeichnung": "Platanenweg" }, "geometry": { "type": "Point", "coordinates": [ 6.913046511617654, 52.006079676826111 ] } },
{ "type": "Feature", "properties": { "strassenschluessel": "05554000005601829", "bezeichnung": "Am Rott" }, "geometry": { "type": "Point", "coordinates": [ 6.917246720241, 51.999957163437308 ] } },
{ "type": "Feature", "properties": { "strassenschluessel": "05554000005601830", "bezeichnung": "Cohaus Esch" }, "geometry": { "type": "Point", "coordinates": [ 6.920272111146147, 52.001483475040892 ] } },
{ "type": "Feature", "properties": { "strassenschluessel": "05554000005601831", "bezeichnung": "De Dille" }, "geometry": { "type": "Point", "coordinates": [ 6.917237027992519, 51.99776761390293 ] } },
{ "type": "Feature", "properties": { "strassenschluessel": "05554000005601832", "bezeichnung": "Vikar-Klumpe-Straße" }, "geometry": { "type": "Point", "coordinates": [ 6.90879296026442, 52.001776275355219 ] } },
{ "type": "Feature", "properties": { "strassenschluessel": "05554000005601833", "bezeichnung": "Hilberts Winkel" }, "geometry": { "type": "Point", "coordinates": [ 6.89679839627446, 51.989681010161931 ] } },
{ "type": "Feature", "properties": { "strassenschluessel": "05554000005601834", "bezeichnung": "Bürgerm.-Ellers-Straße" }, "geometry": { "type": "Point", "coordinates": [ 6.929228671670091, 51.988182295300547 ] } },
{ "type": "Feature", "properties": { "strassenschluessel": "05554000005601835", "bezeichnung": "Bürgerm.-Wewers-Straße" }, "geometry": { "type": "Point", "coordinates": [ 6.927362053576684, 51.987670415801155 ] } },
{ "type": "Feature", "properties": { "strassenschluessel": "05554000005601836", "bezeichnung": "Weidekamp" }, "geometry": { "type": "Point", "coordinates": [ 6.916177272388671, 52.000649189319354 ] } },
{ "type": "Feature", "properties": { "strassenschluessel": "05554000005601837", "bezeichnung": "Am Losbergpark" }, "geometry": { "type": "Point", "coordinates": [ 6.918346012385974, 51.998679972134589 ] } },
{ "type": "Feature", "properties": { "strassenschluessel": "05554000005601838", "bezeichnung": "Diakon-Heider-Straße" }, "geometry": { "type": "Point", "coordinates": [ 6.911206774172213, 52.003652085155608 ] } },
{ "type": "Feature", "properties": { "strassenschluessel": "05554000005601839", "bezeichnung": "Pastors Gorden" }, "geometry": { "type": "Point", "coordinates": [ 6.919236600808922, 51.986978896626056 ] } },
{ "type": "Feature", "properties": { "strassenschluessel": "05554000005601840", "bezeichnung": "Döbbelts Kamp" }, "geometry": { "type": "Point", "coordinates": [ 6.904493845360107, 51.989878217323124 ] } },
{ "type": "Feature", "properties": { "strassenschluessel": "05554000005601841", "bezeichnung": "Rathmering" }, "geometry": { "type": "Point", "coordinates": [ 6.946438670511195, 51.983126041729193 ] } },
{ "type": "Feature", "properties": { "strassenschluessel": "05554000005601842", "bezeichnung": "David-Roentgen-Straße" }, "geometry": { "type": "Point", "coordinates": [ 6.881326025282316, 51.990406668235323 ] } },
{ "type": "Feature", "properties": { "strassenschluessel": "05554000005601843", "bezeichnung": "Tulpenweg" }, "geometry": { "type": "Point", "coordinates": [ 6.936309202615454, 51.999086163316349 ] } },
{ "type": "Feature", "properties": { "strassenschluessel": "05554000005601844", "bezeichnung": "Könzgenstraße" }, "geometry": { "type": "Point", "coordinates": [ 6.89343157195202, 51.996145728030463 ] } },
{ "type": "Feature", "properties": { "strassenschluessel": "05554000005601845", "bezeichnung": "Bürgerm.-Horst-Straße" }, "geometry": { "type": "Point", "coordinates": [ 6.945830225181665, 51.980876226290412 ] } },
{ "type": "Feature", "properties": { "strassenschluessel": "05554000005601846", "bezeichnung": "Bahnallee" }, "geometry": { "type": "Point", "coordinates": [ 6.930226566078374, 51.9916162304186 ] } },
{ "type": "Feature", "properties": { "strassenschluessel": "05554000005601847", "bezeichnung": "Telgenkamp" }, "geometry": { "type": "Point", "coordinates": [ 6.918861808451491, 51.998992097534718 ] } },
{ "type": "Feature", "properties": { "strassenschluessel": "05554000005601848", "bezeichnung": "Konerts Winkel" }, "geometry": { "type": "Point", "coordinates": [ 6.914837152827265, 51.985637509467438 ] } },
{ "type": "Feature", "properties": { "strassenschluessel": "05554000005601849", "bezeichnung": "Westfalenring" }, "geometry": null },
{ "type": "Feature", "properties": { "strassenschluessel": "05554000005601850", "bezeichnung": "Jahnstraße" }, "geometry": { "type": "Point", "coordinates": [ 6.894261458903039, 51.99067953235128 ] } },
{ "type": "Feature", "properties": { "strassenschluessel": "05554000005609001", "bezeichnung": "Bunings Weide" }, "geometry": { "type": "Point", "coordinates": [ 6.941384931356699, 51.985646839486783 ] } },
{ "type": "Feature", "properties": { "strassenschluessel": "05554000005609002", "bezeichnung": "Am Berkelbogen" }, "geometry": { "type": "Point", "coordinates": [ 6.940657685386184, 51.988680684468662 ] } },
{ "type": "Feature", "properties": { "strassenschluessel": "05554000005609003", "bezeichnung": "Pfarrer-Lauvers-Straße" }, "geometry": { "type": "Point", "coordinates": [ 6.909310265919624, 52.00359826637203 ] } },
{ "type": "Feature", "properties": { "strassenschluessel": "05554000005609004", "bezeichnung": "Von-Ardenne-Straße" }, "geometry": { "type": "Point", "coordinates": [ 6.891443496280629, 51.985412473924804 ] } },
{ "type": "Feature", "properties": { "strassenschluessel": "05554000005609005", "bezeichnung": "Webereistraße" }, "geometry": { "type": "Point", "coordinates": [ 6.92496535787649, 51.994912334332469 ] } },
{ "type": "Feature", "properties": { "strassenschluessel": "05554000005609006", "bezeichnung": "Benzstraße" }, "geometry": { "type": "Point", "coordinates": [ 6.896216137563221, 51.986724415189407 ] } },
{ "type": "Feature", "properties": { "strassenschluessel": "05554000005609007", "bezeichnung": "Porschestraße" }, "geometry": { "type": "Point", "coordinates": [ 6.890355828370674, 51.98748535137333 ] } },
{ "type": "Feature", "properties": { "strassenschluessel": "05554000005609008", "bezeichnung": "Professor-Kötting-Straße" }, "geometry": { "type": "Point", "coordinates": [ 6.908448332595409, 52.002205323553895 ] } },
{ "type": "Feature", "properties": { "strassenschluessel": "05554000005609009", "bezeichnung": "Esterner Landweg" }, "geometry": { "type": "Point", "coordinates": [ 6.94967318358443, 51.985483644585372 ] } },
{ "type": "Feature", "properties": { "strassenschluessel": "05554000005609010", "bezeichnung": "Van-Bömmels-Eck" }, "geometry": { "type": "Point", "coordinates": [ 6.912132457225978, 51.990071718677598 ] } },
{ "type": "Feature", "properties": { "strassenschluessel": "05554000005609011", "bezeichnung": "Lembecks Hof" }, "geometry": { "type": "Point", "coordinates": [ 6.931843003934524, 51.990237767804359 ] } },
{ "type": "Feature", "properties": { "strassenschluessel": "05554000005609012", "bezeichnung": "Agnesstraße" }, "geometry": { "type": "Point", "coordinates": [ 6.931106700776131, 51.991231583208489 ] } },
{ "type": "Feature", "properties": { "strassenschluessel": "05554000005609013", "bezeichnung": "Annastraße" }, "geometry": { "type": "Point", "coordinates": [ 6.935525779458981, 51.988748445891446 ] } },
{ "type": "Feature", "properties": { "strassenschluessel": "05554000005609014", "bezeichnung": "Elisabethstraße" }, "geometry": { "type": "Point", "coordinates": [ 6.932650053123712, 51.989066754225284 ] } },
{ "type": "Feature", "properties": { "strassenschluessel": "05554000005609015", "bezeichnung": "Karl-Hüls-Straße" }, "geometry": { "type": "Point", "coordinates": [ 6.887210535827795, 51.993827604964437 ] } },
{ "type": "Feature", "properties": { "strassenschluessel": "05554000005609016", "bezeichnung": "Sonnenallee" }, "geometry": { "type": "Point", "coordinates": [ 6.920941167901548, 51.997929062343104 ] } },
{ "type": "Feature", "properties": { "strassenschluessel": "05554000005609017", "bezeichnung": "Dieks Kuhle" }, "geometry": { "type": "Point", "coordinates": [ 6.912046777092641, 52.006385464362197 ] } },
{ "type": "Feature", "properties": { "strassenschluessel": "05554000005609018", "bezeichnung": "Wilmers Winkel" }, "geometry": { "type": "Point", "coordinates": [ 6.915407272225861, 51.985696056681199 ] } },
{ "type": "Feature", "properties": { "strassenschluessel": "05554000005609019", "bezeichnung": "Thyssenstraße" }, "geometry": { "type": "Point", "coordinates": [ 6.912897949901113, 51.981342431363437 ] } },
{ "type": "Feature", "properties": { "strassenschluessel": "05554000005609020", "bezeichnung": "Opelstraße" }, "geometry": null },
{ "type": "Feature", "properties": { "strassenschluessel": "05554000005609021", "bezeichnung": "Sebastianstraße" }, "geometry": { "type": "Point", "coordinates": [ 6.939871386023053, 51.982253814485567 ] } },
{ "type": "Feature", "properties": { "strassenschluessel": "05554000005609022", "bezeichnung": "Bürgerm.-Bitting-Straße" }, "geometry": { "type": "Point", "coordinates": [ 6.938411271035949, 51.98126535023124 ] } },
{ "type": "Feature", "properties": { "strassenschluessel": "05554000005609023", "bezeichnung": "Möllenkamp" }, "geometry": { "type": "Point", "coordinates": [ 6.925640139317018, 51.982401926716214 ] } },
{ "type": "Feature", "properties": { "strassenschluessel": "05554000005609024", "bezeichnung": "Dinkellandstraße" }, "geometry": { "type": "Point", "coordinates": [ 6.899536756434976, 51.988059515876152 ] } },
{ "type": "Feature", "properties": { "strassenschluessel": "05554000005609025", "bezeichnung": "Möllers Hoff" }, "geometry": { "type": "Point", "coordinates": [ 6.939985516096863, 51.984006421829157 ] } },
{ "type": "Feature", "properties": { "strassenschluessel": "05554000005609026", "bezeichnung": "Erningfeld" }, "geometry": { "type": "Point", "coordinates": [ 6.923211939729351, 52.003581084570605 ] } },
{ "type": "Feature", "properties": { "strassenschluessel": "05554000005609027", "bezeichnung": "Schlehenweg" }, "geometry": { "type": "Point", "coordinates": [ 6.926196044630685, 52.003538340701326 ] } },
{ "type": "Feature", "properties": { "strassenschluessel": "05554000005609028", "bezeichnung": "Holunderweg" }, "geometry": { "type": "Point", "coordinates": [ 6.92489011779826, 52.004323559519989 ] } },
{ "type": "Feature", "properties": { "strassenschluessel": "05554000005609029", "bezeichnung": "Brombeerweg" }, "geometry": { "type": "Point", "coordinates": [ 6.92614638478632, 52.004251253819405 ] } },
{ "type": "Feature", "properties": { "strassenschluessel": "05554000005609030", "bezeichnung": "Hagebuttenweg" }, "geometry": { "type": "Point", "coordinates": [ 6.926598864758052, 52.003167278063387 ] } },
{ "type": "Feature", "properties": { "strassenschluessel": "05554000005609031", "bezeichnung": "Weißdornweg" }, "geometry": { "type": "Point", "coordinates": [ 6.924308455027568, 52.002401231260627 ] } },
{ "type": "Feature", "properties": { "strassenschluessel": "05554000005609032", "bezeichnung": "Danziger Straße" }, "geometry": { "type": "Point", "coordinates": [ 6.875382285811254, 51.996776341337053 ] } },
{ "type": "Feature", "properties": { "strassenschluessel": "05554000005609033", "bezeichnung": "Espenweg" }, "geometry": { "type": "Point", "coordinates": [ 6.920124010110172, 52.004059452349928 ] } },
{ "type": "Feature", "properties": { "strassenschluessel": "05554000005609034", "bezeichnung": "Marie-Curie-Straße" }, "geometry": { "type": "Point", "coordinates": [ 6.894018334284113, 51.984073239192057 ] } },
{ "type": "Feature", "properties": { "strassenschluessel": "05554000005609035", "bezeichnung": "Anni-Bette-Straße" }, "geometry": null }
]
}
