{
"type": "FeatureCollection",
"features": [
{ "type": "Feature", "properties": { "strassenschluessel": "05382000006836001", "bezeichnung": "Adolf-Friedrich-Straße" }, "geometry": { "type": "Point", "coordinates": [ 7.176791673133665, 50.810946509580972 ] } },
{ "type": "Feature", "properties": { "strassenschluessel": "05382000006836002", "bezeichnung": "Aggerdamm" }, "geometry": { "type": "Point", "coordinates": [ 7.175130285201874, 50.807511308726568 ] } },
{ "type": "Feature", "properties": { "strassenschluessel": "05382000006836004", "bezeichnung": "Aggerstraße" }, "geometry": { "type": "Point", "coordinates": [ 7.17259778846741, 50.813790360121622 ] } },
{ "type": "Feature", "properties": { "strassenschluessel": "05382000006836006", "bezeichnung": "Albrecht-Dürer-Straße" }, "geometry": { "type": "Point", "coordinates": [ 7.155795923834962, 50.811341586717958 ] } },
{ "type": "Feature", "properties": { "strassenschluessel": "05382000006836007", "bezeichnung": "Alfred-Delp-Straße" }, "geometry": { "type": "Point", "coordinates": [ 7.174026262292329, 50.811486823966334 ] } },
{ "type": "Feature", "properties": { "strassenschluessel": "05382000006836008", "bezeichnung": "Alfred-Nobel-Straße" }, "geometry": { "type": "Point", "coordinates": [ 7.151530136152982, 50.817548758414276 ] } },
{ "type": "Feature", "properties": { "strassenschluessel": "05382000006836009", "bezeichnung": "Allensteiner Straße" }, "geometry": { "type": "Point", "coordinates": [ 7.186104041313583, 50.819400957576768 ] } },
{ "type": "Feature", "properties": { "strassenschluessel": "05382000006836010", "bezeichnung": "Alte Straße" }, "geometry": { "type": "Point", "coordinates": [ 7.173376997321864, 50.812754600812539 ] } },
{ "type": "Feature", "properties": { "strassenschluessel": "05382000006836011", "bezeichnung": "Altenrather Straße" }, "geometry": { "type": "Point", "coordinates": [ 7.164365190215198, 50.819192256274007 ] } },
{ "type": "Feature", "properties": { "strassenschluessel": "05382000006836012", "bezeichnung": "Am Bahndamm" }, "geometry": null },
{ "type": "Feature", "properties": { "strassenschluessel": "05382000006836013", "bezeichnung": "Ambiorixstraße" }, "geometry": null },
{ "type": "Feature", "properties": { "strassenschluessel": "05382000006836014", "bezeichnung": "Am Bergerhof" }, "geometry": { "type": "Point", "coordinates": [ 7.173085838201492, 50.81392800049872 ] } },
{ "type": "Feature", "properties": { "strassenschluessel": "05382000006836015", "bezeichnung": "Am Bergeracker" }, "geometry": { "type": "Point", "coordinates": [ 7.145929887171304, 50.811351941909749 ] } },
{ "type": "Feature", "properties": { "strassenschluessel": "05382000006836016", "bezeichnung": "Am Burghof" }, "geometry": { "type": "Point", "coordinates": [ 7.17740514407262, 50.814719773491184 ] } },
{ "type": "Feature", "properties": { "strassenschluessel": "05382000006836017", "bezeichnung": "Am Fahr" }, "geometry": { "type": "Point", "coordinates": [ 7.180762831729296, 50.811850291748918 ] } },
{ "type": "Feature", "properties": { "strassenschluessel": "05382000006836018", "bezeichnung": "Am Eichenkamp" }, "geometry": { "type": "Point", "coordinates": [ 7.171923256462471, 50.817144380279913 ] } },
{ "type": "Feature", "properties": { "strassenschluessel": "05382000006836019", "bezeichnung": "Am Hasenberg" }, "geometry": null },
{ "type": "Feature", "properties": { "strassenschluessel": "05382000006836020", "bezeichnung": "Am Hirschpark" }, "geometry": { "type": "Point", "coordinates": [ 7.169006470934073, 50.817580665831926 ] } },
{ "type": "Feature", "properties": { "strassenschluessel": "05382000006836021", "bezeichnung": "Am Hofweiher" }, "geometry": { "type": "Point", "coordinates": [ 7.166000246056096, 50.810197264527133 ] } },
{ "type": "Feature", "properties": { "strassenschluessel": "05382000006836022", "bezeichnung": "Am Mühlenweg" }, "geometry": { "type": "Point", "coordinates": [ 7.153471012618384, 50.808919134704027 ] } },
{ "type": "Feature", "properties": { "strassenschluessel": "05382000006836023", "bezeichnung": "Am Pfuhl" }, "geometry": { "type": "Point", "coordinates": [ 7.169044211636142, 50.815106576826459 ] } },
{ "type": "Feature", "properties": { "strassenschluessel": "05382000006836024", "bezeichnung": "Am Prinzenwäldchen" }, "geometry": { "type": "Point", "coordinates": [ 7.161455870065624, 50.818956973898452 ] } },
{ "type": "Feature", "properties": { "strassenschluessel": "05382000006836025", "bezeichnung": "Am Sanderhof" }, "geometry": { "type": "Point", "coordinates": [ 7.165654215369209, 50.813453133505753 ] } },
{ "type": "Feature", "properties": { "strassenschluessel": "05382000006836026", "bezeichnung": "Am Seerosenteich" }, "geometry": { "type": "Point", "coordinates": [ 7.161667651492413, 50.819771112810415 ] } },
{ "type": "Feature", "properties": { "strassenschluessel": "05382000006836027", "bezeichnung": "Am Strandbad" }, "geometry": { "type": "Point", "coordinates": [ 7.178716832465429, 50.811027841991745 ] } },
{ "type": "Feature", "properties": { "strassenschluessel": "05382000006836028", "bezeichnung": "Am Ufer" }, "geometry": { "type": "Point", "coordinates": [ 7.14665875448279, 50.812155550274284 ] } },
{ "type": "Feature", "properties": { "strassenschluessel": "05382000006836029", "bezeichnung": "Am Waldpark" }, "geometry": { "type": "Point", "coordinates": [ 7.16068922077227, 50.819735560442673 ] } },
{ "type": "Feature", "properties": { "strassenschluessel": "05382000006836030", "bezeichnung": "Am Wasserwerk" }, "geometry": { "type": "Point", "coordinates": [ 7.182252910675452, 50.814971231843948 ] } },
{ "type": "Feature", "properties": { "strassenschluessel": "05382000006836031", "bezeichnung": "An der Feuerwache" }, "geometry": { "type": "Point", "coordinates": [ 7.158478754362707, 50.815262032637321 ] } },
{ "type": "Feature", "properties": { "strassenschluessel": "05382000006836032", "bezeichnung": "Annonisweg" }, "geometry": { "type": "Point", "coordinates": [ 7.157308768946677, 50.815909926549203 ] } },
{ "type": "Feature", "properties": { "strassenschluessel": "05382000006836033", "bezeichnung": "Auf der Sanderwiese" }, "geometry": { "type": "Point", "coordinates": [ 7.173694086796569, 50.81724463653822 ] } },
{ "type": "Feature", "properties": { "strassenschluessel": "05382000006836034", "bezeichnung": "Bachstraße" }, "geometry": { "type": "Point", "coordinates": [ 7.169458827901252, 50.810315227179402 ] } },
{ "type": "Feature", "properties": { "strassenschluessel": "05382000006836035", "bezeichnung": "Bahnstraße" }, "geometry": { "type": "Point", "coordinates": [ 7.147675797735023, 50.81276988881821 ] } },
{ "type": "Feature", "properties": { "strassenschluessel": "05382000006836036", "bezeichnung": "Berliner Straße" }, "geometry": { "type": "Point", "coordinates": [ 7.178278169408063, 50.817387874987311 ] } },
{ "type": "Feature", "properties": { "strassenschluessel": "05382000006836037", "bezeichnung": "Bertha-von-Suttner-Straße" }, "geometry": { "type": "Point", "coordinates": [ 7.177309093555988, 50.81252580578024 ] } },
{ "type": "Feature", "properties": { "strassenschluessel": "05382000006836038", "bezeichnung": "Bismarckplatz" }, "geometry": { "type": "Point", "coordinates": [ 7.150217718466339, 50.808959301758733 ] } },
{ "type": "Feature", "properties": { "strassenschluessel": "05382000006836039", "bezeichnung": "Bismarckstraße" }, "geometry": { "type": "Point", "coordinates": [ 7.150594315234908, 50.809484626138548 ] } },
{ "type": "Feature", "properties": { "strassenschluessel": "05382000006836040", "bezeichnung": "Blücherstraße" }, "geometry": { "type": "Point", "coordinates": [ 7.153206585916466, 50.812091794706184 ] } },
{ "type": "Feature", "properties": { "strassenschluessel": "05382000006836041", "bezeichnung": "Bodelschwinghstraße" }, "geometry": { "type": "Point", "coordinates": [ 7.167818742888986, 50.809276611840531 ] } },
{ "type": "Feature", "properties": { "strassenschluessel": "05382000006836042", "bezeichnung": "Breslauer Straße" }, "geometry": { "type": "Point", "coordinates": [ 7.181061825226136, 50.820012605421319 ] } },
{ "type": "Feature", "properties": { "strassenschluessel": "05382000006836043", "bezeichnung": "Brunnenstraße" }, "geometry": { "type": "Point", "coordinates": [ 7.180601938866451, 50.81488517930692 ] } },
{ "type": "Feature", "properties": { "strassenschluessel": "05382000006836044", "bezeichnung": "Burgallee" }, "geometry": { "type": "Point", "coordinates": [ 7.165042898197452, 50.817424485661888 ] } },
{ "type": "Feature", "properties": { "strassenschluessel": "05382000006836045", "bezeichnung": "Canisiusstraße" }, "geometry": { "type": "Point", "coordinates": [ 7.158882618271221, 50.813396392349205 ] } },
{ "type": "Feature", "properties": { "strassenschluessel": "05382000006836046", "bezeichnung": "Carl-Diem-Straße" }, "geometry": { "type": "Point", "coordinates": [ 7.159013805586274, 50.818894838549539 ] } },
{ "type": "Feature", "properties": { "strassenschluessel": "05382000006836047", "bezeichnung": "Cecilienstraße" }, "geometry": { "type": "Point", "coordinates": [ 7.156347324815465, 50.816839460890023 ] } },
{ "type": "Feature", "properties": { "strassenschluessel": "05382000006836048", "bezeichnung": "Danziger Straße" }, "geometry": { "type": "Point", "coordinates": [ 7.180308825649054, 50.81942371767834 ] } },
{ "type": "Feature", "properties": { "strassenschluessel": "05382000006836049", "bezeichnung": "Deichweg" }, "geometry": null },
{ "type": "Feature", "properties": { "strassenschluessel": "05382000006836050", "bezeichnung": "Drachenfelsstraße" }, "geometry": { "type": "Point", "coordinates": [ 7.171206883689842, 50.809725302468962 ] } },
{ "type": "Feature", "properties": { "strassenschluessel": "05382000006836051", "bezeichnung": "Egerländer Straße" }, "geometry": { "type": "Point", "coordinates": [ 7.184894730131311, 50.81994401726103 ] } },
{ "type": "Feature", "properties": { "strassenschluessel": "05382000006836052", "bezeichnung": "Eisenbahnweg" }, "geometry": { "type": "Point", "coordinates": [ 7.1591232693531, 50.808169215586616 ] } },
{ "type": "Feature", "properties": { "strassenschluessel": "05382000006836053", "bezeichnung": "Eisenweg" }, "geometry": null },
{ "type": "Feature", "properties": { "strassenschluessel": "05382000006836054", "bezeichnung": "Elsenplatz" }, "geometry": { "type": "Point", "coordinates": [ 7.171468394071892, 50.814957347316145 ] } },
{ "type": "Feature", "properties": { "strassenschluessel": "05382000006836055", "bezeichnung": "Emil-Müller-Straße" }, "geometry": { "type": "Point", "coordinates": [ 7.150987536132511, 50.815331928953611 ] } },
{ "type": "Feature", "properties": { "strassenschluessel": "05382000006836056", "bezeichnung": "Erich-Klausener-Straße" }, "geometry": { "type": "Point", "coordinates": [ 7.156829096341777, 50.810614523792204 ] } },
{ "type": "Feature", "properties": { "strassenschluessel": "05382000006836058", "bezeichnung": "Flandrische Straße" }, "geometry": { "type": "Point", "coordinates": [ 7.16850939643578, 50.810394207844297 ] } },
{ "type": "Feature", "properties": { "strassenschluessel": "05382000006836059", "bezeichnung": "Fliegenbergstraße" }, "geometry": { "type": "Point", "coordinates": [ 7.183175778284376, 50.818528540506357 ] } },
{ "type": "Feature", "properties": { "strassenschluessel": "05382000006836060", "bezeichnung": "Frankfurter Straße" }, "geometry": { "type": "Point", "coordinates": [ 7.182252395856171, 50.812400312454997 ] } },
{ "type": "Feature", "properties": { "strassenschluessel": "05382000006836061", "bezeichnung": "Friedensstraße" }, "geometry": { "type": "Point", "coordinates": [ 7.157370906212621, 50.817484242286184 ] } },
{ "type": "Feature", "properties": { "strassenschluessel": "05382000006836062", "bezeichnung": "Friesenstraße" }, "geometry": { "type": "Point", "coordinates": [ 7.167104129790864, 50.809910188640032 ] } },
{ "type": "Feature", "properties": { "strassenschluessel": "05382000006836063", "bezeichnung": "Furtwänglerstraße" }, "geometry": { "type": "Point", "coordinates": [ 7.154300437361982, 50.810475461433313 ] } },
{ "type": "Feature", "properties": { "strassenschluessel": "05382000006836064", "bezeichnung": "Gerhardstraße" }, "geometry": { "type": "Point", "coordinates": [ 7.169614014224895, 50.813641010300422 ] } },
{ "type": "Feature", "properties": { "strassenschluessel": "05382000006836065", "bezeichnung": "Geschwister-Scholl-Straße" }, "geometry": { "type": "Point", "coordinates": [ 7.176731885196304, 50.811962025661785 ] } },
{ "type": "Feature", "properties": { "strassenschluessel": "05382000006836066", "bezeichnung": "Gneisenaustraße" }, "geometry": { "type": "Point", "coordinates": [ 7.151384255837908, 50.811896784947258 ] } },
{ "type": "Feature", "properties": { "strassenschluessel": "05382000006836067", "bezeichnung": "Goerdelerstraße" }, "geometry": { "type": "Point", "coordinates": [ 7.156485666733799, 50.810822823064179 ] } },
{ "type": "Feature", "properties": { "strassenschluessel": "05382000006836068", "bezeichnung": "Görresplatz" }, "geometry": { "type": "Point", "coordinates": [ 7.151437861889449, 50.814774638537294 ] } },
{ "type": "Feature", "properties": { "strassenschluessel": "05382000006836069", "bezeichnung": "Großstraße" }, "geometry": { "type": "Point", "coordinates": [ 7.147711254361305, 50.808100409074015 ] } },
{ "type": "Feature", "properties": { "strassenschluessel": "05382000006836070", "bezeichnung": "Güldenbergstraße" }, "geometry": { "type": "Point", "coordinates": [ 7.174290952463116, 50.818927455979086 ] } },
{ "type": "Feature", "properties": { "strassenschluessel": "05382000006836071", "bezeichnung": "Hans-Böckler-Straße" }, "geometry": { "type": "Point", "coordinates": [ 7.147898202009273, 50.809582236377572 ] } },
{ "type": "Feature", "properties": { "strassenschluessel": "05382000006836072", "bezeichnung": "Hans-Völlmecke-Straße" }, "geometry": { "type": "Point", "coordinates": [ 7.156847988974167, 50.80964563123915 ] } },
{ "type": "Feature", "properties": { "strassenschluessel": "05382000006836073", "bezeichnung": "Heerstraße" }, "geometry": { "type": "Point", "coordinates": [ 7.178151491514721, 50.819739852156367 ] } },
{ "type": "Feature", "properties": { "strassenschluessel": "05382000006836074", "bezeichnung": "Heidestraße" }, "geometry": { "type": "Point", "coordinates": [ 7.154084726816724, 50.817669033561955 ] } },
{ "type": "Feature", "properties": { "strassenschluessel": "05382000006836075", "bezeichnung": "Heimbachstraße" }, "geometry": { "type": "Point", "coordinates": [ 7.166062442337969, 50.816056892013393 ] } },
{ "type": "Feature", "properties": { "strassenschluessel": "05382000006836077", "bezeichnung": "Hermann-Löns-Straße" }, "geometry": { "type": "Point", "coordinates": [ 7.154381443194827, 50.816483382957401 ] } },
{ "type": "Feature", "properties": { "strassenschluessel": "05382000006836078", "bezeichnung": "Hippolytusstraße" }, "geometry": { "type": "Point", "coordinates": [ 7.157352192508827, 50.814019044209722 ] } },
{ "type": "Feature", "properties": { "strassenschluessel": "05382000006836079", "bezeichnung": "Hofgartenstraße" }, "geometry": { "type": "Point", "coordinates": [ 7.165038394491645, 50.811004162129414 ] } },
{ "type": "Feature", "properties": { "strassenschluessel": "05382000006836080", "bezeichnung": "Hohenzollernstraße" }, "geometry": { "type": "Point", "coordinates": [ 7.153029104154762, 50.817838789772665 ] } },
{ "type": "Feature", "properties": { "strassenschluessel": "05382000006836081", "bezeichnung": "Hornackerplatz" }, "geometry": { "type": "Point", "coordinates": [ 7.16426076302028, 50.806144192125949 ] } },
{ "type": "Feature", "properties": { "strassenschluessel": "05382000006836082", "bezeichnung": "Hornackerstraße" }, "geometry": { "type": "Point", "coordinates": [ 7.164661601854619, 50.805775219276725 ] } },
{ "type": "Feature", "properties": { "strassenschluessel": "05382000006836083", "bezeichnung": "Hospitalstraße" }, "geometry": { "type": "Point", "coordinates": [ 7.161356961314975, 50.814397589295609 ] } },
{ "type": "Feature", "properties": { "strassenschluessel": "05382000006836084", "bezeichnung": "Im Grund" }, "geometry": { "type": "Point", "coordinates": [ 7.167247207336007, 50.813257424596536 ] } },
{ "type": "Feature", "properties": { "strassenschluessel": "05382000006836085", "bezeichnung": "Im Laach" }, "geometry": { "type": "Point", "coordinates": [ 7.172343458673234, 50.810749496355811 ] } },
{ "type": "Feature", "properties": { "strassenschluessel": "05382000006836086", "bezeichnung": "In den Hälsen" }, "geometry": { "type": "Point", "coordinates": [ 7.174818542865028, 50.818609987916268 ] } },
{ "type": "Feature", "properties": { "strassenschluessel": "05382000006836087", "bezeichnung": "In der Gronau" }, "geometry": { "type": "Point", "coordinates": [ 7.162380688856017, 50.804357867217171 ] } },
{ "type": "Feature", "properties": { "strassenschluessel": "05382000006836088", "bezeichnung": "In der Maikammer" }, "geometry": { "type": "Point", "coordinates": [ 7.182286503324771, 50.818597211962363 ] } },
{ "type": "Feature", "properties": { "strassenschluessel": "05382000006836089", "bezeichnung": "Innenhof" }, "geometry": { "type": "Point", "coordinates": [ 7.165141694135325, 50.810362250674778 ] } },
{ "type": "Feature", "properties": { "strassenschluessel": "05382000006836090", "bezeichnung": "Jahnplatz" }, "geometry": { "type": "Point", "coordinates": [ 7.161985252645532, 50.817015363276063 ] } },
{ "type": "Feature", "properties": { "strassenschluessel": "05382000006836091", "bezeichnung": "Julius-Leber-Straße" }, "geometry": { "type": "Point", "coordinates": [ 7.176888103951709, 50.810162974190973 ] } },
{ "type": "Feature", "properties": { "strassenschluessel": "05382000006836092", "bezeichnung": "Kaiserstraße" }, "geometry": { "type": "Point", "coordinates": [ 7.148727328379721, 50.818184691538193 ] } },
{ "type": "Feature", "properties": { "strassenschluessel": "05382000006836093", "bezeichnung": "Karl-Jarres-Straße" }, "geometry": { "type": "Point", "coordinates": [ 7.151344748768848, 50.808346925716066 ] } },
{ "type": "Feature", "properties": { "strassenschluessel": "05382000006836094", "bezeichnung": "Karl-Peters-Straße" }, "geometry": { "type": "Point", "coordinates": [ 7.16301449441159, 50.809547446504929 ] } },
{ "type": "Feature", "properties": { "strassenschluessel": "05382000006836095", "bezeichnung": "Karl-Schurz-Straße" }, "geometry": { "type": "Point", "coordinates": [ 7.163758466094437, 50.809168762118439 ] } },
{ "type": "Feature", "properties": { "strassenschluessel": "05382000006836096", "bezeichnung": "Kasinostraße" }, "geometry": { "type": "Point", "coordinates": [ 7.166605054645672, 50.805488891745277 ] } },
{ "type": "Feature", "properties": { "strassenschluessel": "05382000006836097", "bezeichnung": "Kirchstraße" }, "geometry": { "type": "Point", "coordinates": [ 7.163098547982616, 50.813212443059712 ] } },
{ "type": "Feature", "properties": { "strassenschluessel": "05382000006836098", "bezeichnung": "Klevstraße" }, "geometry": { "type": "Point", "coordinates": [ 7.161984814748738, 50.812941787603989 ] } },
{ "type": "Feature", "properties": { "strassenschluessel": "05382000006836099", "bezeichnung": "Kölner Straße" }, "geometry": { "type": "Point", "coordinates": [ 7.1482449403657, 50.817423342098145 ] } },
{ "type": "Feature", "properties": { "strassenschluessel": "05382000006836100", "bezeichnung": "Königsberger Straße" }, "geometry": { "type": "Point", "coordinates": [ 7.179949693510183, 50.817813972483442 ] } },
{ "type": "Feature", "properties": { "strassenschluessel": "05382000006836102", "bezeichnung": "Kronenstraße" }, "geometry": { "type": "Point", "coordinates": [ 7.156064920391787, 50.817326746371421 ] } },
{ "type": "Feature", "properties": { "strassenschluessel": "05382000006836103", "bezeichnung": "Kronprinzenstraße" }, "geometry": { "type": "Point", "coordinates": [ 7.153550046731045, 50.814575975549481 ] } },
{ "type": "Feature", "properties": { "strassenschluessel": "05382000006836104", "bezeichnung": "Kurgasse" }, "geometry": { "type": "Point", "coordinates": [ 7.173148176455925, 50.814380820670245 ] } },
{ "type": "Feature", "properties": { "strassenschluessel": "05382000006836105", "bezeichnung": "Kuttgasse" }, "geometry": { "type": "Point", "coordinates": [ 7.15905001605157, 50.811760261456826 ] } },
{ "type": "Feature", "properties": { "strassenschluessel": "05382000006836107", "bezeichnung": "Langemarckstraße" }, "geometry": { "type": "Point", "coordinates": [ 7.161249886478049, 50.807731166467136 ] } },
{ "type": "Feature", "properties": { "strassenschluessel": "05382000006836108", "bezeichnung": "Leyenweiherstraße" }, "geometry": { "type": "Point", "coordinates": [ 7.183833101319564, 50.818818300899622 ] } },
{ "type": "Feature", "properties": { "strassenschluessel": "05382000006836109", "bezeichnung": "Lohmarer Straße" }, "geometry": { "type": "Point", "coordinates": [ 7.174766091952071, 50.817814960629335 ] } },
{ "type": "Feature", "properties": { "strassenschluessel": "05382000006836110", "bezeichnung": "Louis-Mannstaedt-Straße" }, "geometry": { "type": "Point", "coordinates": [ 7.164626911845111, 50.804328464065058 ] } },
{ "type": "Feature", "properties": { "strassenschluessel": "05382000006836111", "bezeichnung": "Maienstraße" }, "geometry": { "type": "Point", "coordinates": [ 7.180086745637228, 50.814690864506936 ] } },
{ "type": "Feature", "properties": { "strassenschluessel": "05382000006836112", "bezeichnung": "Marienburgstraße" }, "geometry": { "type": "Point", "coordinates": [ 7.183476922846824, 50.821256402383753 ] } },
{ "type": "Feature", "properties": { "strassenschluessel": "05382000006836113", "bezeichnung": "Marmorstraße" }, "geometry": { "type": "Point", "coordinates": [ 7.170195061166474, 50.816694874821636 ] } },
{ "type": "Feature", "properties": { "strassenschluessel": "05382000006836114", "bezeichnung": "Matthias-Langen-Straße" }, "geometry": { "type": "Point", "coordinates": [ 7.173387116713286, 50.809966808253598 ] } },
{ "type": "Feature", "properties": { "strassenschluessel": "05382000006836115", "bezeichnung": "Mauspfad" }, "geometry": null },
{ "type": "Feature", "properties": { "strassenschluessel": "05382000006836116", "bezeichnung": "Mendener Straße" }, "geometry": { "type": "Point", "coordinates": [ 7.158510417274107, 50.808115507764548 ] } },
{ "type": "Feature", "properties": { "strassenschluessel": "05382000006836118", "bezeichnung": "Moselstraße" }, "geometry": { "type": "Point", "coordinates": [ 7.154579137288028, 50.809849240030587 ] } },
{ "type": "Feature", "properties": { "strassenschluessel": "05382000006836119", "bezeichnung": "Mozartstraße" }, "geometry": { "type": "Point", "coordinates": [ 7.153638445770798, 50.810183462066199 ] } },
{ "type": "Feature", "properties": { "strassenschluessel": "05382000006836120", "bezeichnung": "Mülheimer Straße" }, "geometry": { "type": "Point", "coordinates": [ 7.141616092951558, 50.819568012796879 ] } },
{ "type": "Feature", "properties": { "strassenschluessel": "05382000006836122", "bezeichnung": "Neue Straße" }, "geometry": { "type": "Point", "coordinates": [ 7.178356517405661, 50.813172807492634 ] } },
{ "type": "Feature", "properties": { "strassenschluessel": "05382000006836123", "bezeichnung": "Nordstraße" }, "geometry": { "type": "Point", "coordinates": [ 7.156139250172884, 50.81818107449206 ] } },
{ "type": "Feature", "properties": { "strassenschluessel": "05382000006836124", "bezeichnung": "Oberlarer Straße" }, "geometry": { "type": "Point", "coordinates": [ 7.149385666498222, 50.808046369114081 ] } },
{ "type": "Feature", "properties": { "strassenschluessel": "05382000006836125", "bezeichnung": "Ölbergstraße" }, "geometry": { "type": "Point", "coordinates": [ 7.171271034731707, 50.808204149025102 ] } },
{ "type": "Feature", "properties": { "strassenschluessel": "05382000006836126", "bezeichnung": "Ohmstraße" }, "geometry": { "type": "Point", "coordinates": [ 7.146818118068098, 50.8163344030568 ] } },
{ "type": "Feature", "properties": { "strassenschluessel": "05382000006836127", "bezeichnung": "Pacellistraße" }, "geometry": { "type": "Point", "coordinates": [ 7.168619935573315, 50.812532715142872 ] } },
{ "type": "Feature", "properties": { "strassenschluessel": "05382000006836129", "bezeichnung": "Parkstraße" }, "geometry": { "type": "Point", "coordinates": [ 7.163827094464009, 50.820380642523254 ] } },
{ "type": "Feature", "properties": { "strassenschluessel": "05382000006836130", "bezeichnung": "Parsevalstraße" }, "geometry": { "type": "Point", "coordinates": [ 7.148089690003847, 50.809387306813797 ] } },
{ "type": "Feature", "properties": { "strassenschluessel": "05382000006836131", "bezeichnung": "Paul-Keller-Straße" }, "geometry": { "type": "Point", "coordinates": [ 7.1580353003358, 50.816984522532323 ] } },
{ "type": "Feature", "properties": { "strassenschluessel": "05382000006836132", "bezeichnung": "Paul-Müller-Straße" }, "geometry": { "type": "Point", "coordinates": [ 7.14767038405328, 50.816852237135407 ] } },
{ "type": "Feature", "properties": { "strassenschluessel": "05382000006836133", "bezeichnung": "Peter-Klöckner-Straße" }, "geometry": { "type": "Point", "coordinates": [ 7.149665623503034, 50.811012124384483 ] } },
{ "type": "Feature", "properties": { "strassenschluessel": "05382000006836134", "bezeichnung": "Petersbergstraße" }, "geometry": { "type": "Point", "coordinates": [ 7.170896119159897, 50.80894080921923 ] } },
{ "type": "Feature", "properties": { "strassenschluessel": "05382000006836135", "bezeichnung": "Pfarrer-Kenntemich-Platz" }, "geometry": { "type": "Point", "coordinates": [ 7.161310155739486, 50.81347230622972 ] } },
{ "type": "Feature", "properties": { "strassenschluessel": "05382000006836136", "bezeichnung": "Pfarrer-Theiss-Straße" }, "geometry": { "type": "Point", "coordinates": [ 7.152162215267635, 50.814687473092683 ] } },
{ "type": "Feature", "properties": { "strassenschluessel": "05382000006836137", "bezeichnung": "Poststraße" }, "geometry": { "type": "Point", "coordinates": [ 7.150933894198189, 50.814548606323655 ] } },
{ "type": "Feature", "properties": { "strassenschluessel": "05382000006836138", "bezeichnung": "Ravensberger Weg" }, "geometry": { "type": "Point", "coordinates": [ 7.150667659399251, 50.817907867975414 ] } },
{ "type": "Feature", "properties": { "strassenschluessel": "05382000006836139", "bezeichnung": "Richard-Wagner-Platz" }, "geometry": { "type": "Point", "coordinates": [ 7.162027855432853, 50.815939001382368 ] } },
{ "type": "Feature", "properties": { "strassenschluessel": "05382000006836140", "bezeichnung": "Richthofenstraße" }, "geometry": { "type": "Point", "coordinates": [ 7.160445041452028, 50.808171561108331 ] } },
{ "type": "Feature", "properties": { "strassenschluessel": "05382000006836141", "bezeichnung": "Riemenschneiderstraße" }, "geometry": { "type": "Point", "coordinates": [ 7.155939002943107, 50.810871822146069 ] } },
{ "type": "Feature", "properties": { "strassenschluessel": "05382000006836142", "bezeichnung": "Ringstraße" }, "geometry": { "type": "Point", "coordinates": [ 7.162336431163985, 50.81105887164513 ] } },
{ "type": "Feature", "properties": { "strassenschluessel": "05382000006836143", "bezeichnung": "Römerstraße" }, "geometry": { "type": "Point", "coordinates": [ 7.163723267231357, 50.815765243841831 ] } },
{ "type": "Feature", "properties": { "strassenschluessel": "05382000006836144", "bezeichnung": "Roonstraße" }, "geometry": { "type": "Point", "coordinates": [ 7.148174143710185, 50.809148020275821 ] } },
{ "type": "Feature", "properties": { "strassenschluessel": "05382000006836145", "bezeichnung": "Scharnhorststraße" }, "geometry": { "type": "Point", "coordinates": [ 7.14851317990091, 50.811067072013024 ] } },
{ "type": "Feature", "properties": { "strassenschluessel": "05382000006836146", "bezeichnung": "Schloßstraße" }, "geometry": { "type": "Point", "coordinates": [ 7.15885925441012, 50.815950149987273 ] } },
{ "type": "Feature", "properties": { "strassenschluessel": "05382000006836148", "bezeichnung": "Schweitzerstraße" }, "geometry": { "type": "Point", "coordinates": [ 7.163197607958333, 50.808750950299746 ] } },
{ "type": "Feature", "properties": { "strassenschluessel": "05382000006836149", "bezeichnung": "Schreberstraße" }, "geometry": { "type": "Point", "coordinates": [ 7.179723368835796, 50.818988668567485 ] } },
{ "type": "Feature", "properties": { "strassenschluessel": "05382000006836150", "bezeichnung": "Schubertstraße" }, "geometry": { "type": "Point", "coordinates": [ 7.153829271783729, 50.811392577922014 ] } },
{ "type": "Feature", "properties": { "strassenschluessel": "05382000006836151", "bezeichnung": "Schwarzstraße" }, "geometry": { "type": "Point", "coordinates": [ 7.15086499671213, 50.817550366238628 ] } },
{ "type": "Feature", "properties": { "strassenschluessel": "05382000006836152", "bezeichnung": "Sebastianusweg" }, "geometry": { "type": "Point", "coordinates": [ 7.163555003937767, 50.82454228772125 ] } },
{ "type": "Feature", "properties": { "strassenschluessel": "05382000006836153", "bezeichnung": "Siebengebirgsallee" }, "geometry": { "type": "Point", "coordinates": [ 7.169577197699904, 50.811497500849043 ] } },
{ "type": "Feature", "properties": { "strassenschluessel": "05382000006836154", "bezeichnung": "Willy-Brandt-Ring" }, "geometry": null },
{ "type": "Feature", "properties": { "strassenschluessel": "05382000006836155", "bezeichnung": "Sieglarer Straße" }, "geometry": { "type": "Point", "coordinates": [ 7.146614922545353, 50.816808022030898 ] } },
{ "type": "Feature", "properties": { "strassenschluessel": "05382000006836156", "bezeichnung": "Siemens-Martin-Straße" }, "geometry": { "type": "Point", "coordinates": [ 7.149341007189526, 50.807499506708339 ] } },
{ "type": "Feature", "properties": { "strassenschluessel": "05382000006836157", "bezeichnung": "Sonnenscheinstraße" }, "geometry": { "type": "Point", "coordinates": [ 7.168893205170786, 50.809730867728469 ] } },
{ "type": "Feature", "properties": { "strassenschluessel": "05382000006836158", "bezeichnung": "Speestraße" }, "geometry": { "type": "Point", "coordinates": [ 7.162846970047592, 50.806341674764568 ] } },
{ "type": "Feature", "properties": { "strassenschluessel": "05382000006836159", "bezeichnung": "Stahlstraße" }, "geometry": { "type": "Point", "coordinates": [ 7.162769565280737, 50.805966685160186 ] } },
{ "type": "Feature", "properties": { "strassenschluessel": "05382000006836160", "bezeichnung": "Stationsweg" }, "geometry": { "type": "Point", "coordinates": [ 7.147889085939595, 50.815977823249078 ] } },
{ "type": "Feature", "properties": { "strassenschluessel": "05382000006836161", "bezeichnung": "Steinackerstraße" }, "geometry": { "type": "Point", "coordinates": [ 7.164809425632265, 50.808399566714257 ] } },
{ "type": "Feature", "properties": { "strassenschluessel": "05382000006836162", "bezeichnung": "Steinhof" }, "geometry": { "type": "Point", "coordinates": [ 7.158893979900556, 50.812136443279961 ] } },
{ "type": "Feature", "properties": { "strassenschluessel": "05382000006836163", "bezeichnung": "Stettiner Straße" }, "geometry": { "type": "Point", "coordinates": [ 7.180607062421949, 50.818493349741161 ] } },
{ "type": "Feature", "properties": { "strassenschluessel": "05382000006836165", "bezeichnung": "Stresemannstraße" }, "geometry": { "type": "Point", "coordinates": [ 7.165098576697881, 50.812418705453062 ] } },
{ "type": "Feature", "properties": { "strassenschluessel": "05382000006836166", "bezeichnung": "Südstraße" }, "geometry": { "type": "Point", "coordinates": [ 7.145905414894857, 50.811809684863761 ] } },
{ "type": "Feature", "properties": { "strassenschluessel": "05382000006836167", "bezeichnung": "Talweg" }, "geometry": { "type": "Point", "coordinates": [ 7.147886310841367, 50.813047828475774 ] } },
{ "type": "Feature", "properties": { "strassenschluessel": "05382000006836168", "bezeichnung": "Taubengasse" }, "geometry": { "type": "Point", "coordinates": [ 7.177103748519682, 50.818353707149555 ] } },
{ "type": "Feature", "properties": { "strassenschluessel": "05382000006836169", "bezeichnung": "Tilsiter Straße" }, "geometry": { "type": "Point", "coordinates": [ 7.185493395536657, 50.819505176188926 ] } },
{ "type": "Feature", "properties": { "strassenschluessel": "05382000006836170", "bezeichnung": "Ulrather Blick" }, "geometry": { "type": "Point", "coordinates": [ 7.183418423434303, 50.813419989751637 ] } },
{ "type": "Feature", "properties": { "strassenschluessel": "05382000006836171", "bezeichnung": "Ursulaplatz" }, "geometry": { "type": "Point", "coordinates": [ 7.164405387910096, 50.814873335516978 ] } },
{ "type": "Feature", "properties": { "strassenschluessel": "05382000006836172", "bezeichnung": "Verdiallee" }, "geometry": { "type": "Point", "coordinates": [ 7.155356792064294, 50.811584524234668 ] } },
{ "type": "Feature", "properties": { "strassenschluessel": "05382000006836173", "bezeichnung": "Viktoriastraße" }, "geometry": { "type": "Point", "coordinates": [ 7.152280152472559, 50.815259840457024 ] } },
{ "type": "Feature", "properties": { "strassenschluessel": "05382000006836174", "bezeichnung": "vom-Stein-Straße" }, "geometry": { "type": "Point", "coordinates": [ 7.150254514159977, 50.811722274867499 ] } },
{ "type": "Feature", "properties": { "strassenschluessel": "05382000006836175", "bezeichnung": "von-Hassell-Straße" }, "geometry": { "type": "Point", "coordinates": [ 7.185768967300347, 50.819230919182694 ] } },
{ "type": "Feature", "properties": { "strassenschluessel": "05382000006836176", "bezeichnung": "von-Loe-Straße" }, "geometry": { "type": "Point", "coordinates": [ 7.161603492099426, 50.815125982074775 ] } },
{ "type": "Feature", "properties": { "strassenschluessel": "05382000006836177", "bezeichnung": "von-Stauffenberg-Straße" }, "geometry": { "type": "Point", "coordinates": [ 7.184842373428033, 50.819135533489415 ] } },
{ "type": "Feature", "properties": { "strassenschluessel": "05382000006836178", "bezeichnung": "Weingartenweg" }, "geometry": { "type": "Point", "coordinates": [ 7.161912302120368, 50.81207367731983 ] } },
{ "type": "Feature", "properties": { "strassenschluessel": "05382000006836179", "bezeichnung": "Wilhelmstraße" }, "geometry": { "type": "Point", "coordinates": [ 7.154143424535587, 50.814187682991594 ] } },
{ "type": "Feature", "properties": { "strassenschluessel": "05382000006836180", "bezeichnung": "Wilhelm-Hamacher-Platz" }, "geometry": { "type": "Point", "coordinates": [ 7.155357983114154, 50.814130352038227 ] } },
{ "type": "Feature", "properties": { "strassenschluessel": "05382000006836181", "bezeichnung": "Wilhelm-Hamacher-Straße" }, "geometry": { "type": "Point", "coordinates": [ 7.155436252736991, 50.815303651836906 ] } },
{ "type": "Feature", "properties": { "strassenschluessel": "05382000006836183", "bezeichnung": "Zeppelinplatz" }, "geometry": { "type": "Point", "coordinates": [ 7.147569203328046, 50.808782720520163 ] } },
{ "type": "Feature", "properties": { "strassenschluessel": "05382000006836184", "bezeichnung": "Zum Altenforst" }, "geometry": { "type": "Point", "coordinates": [ 7.177650972859952, 50.814458453232774 ] } },
{ "type": "Feature", "properties": { "strassenschluessel": "05382000006836185", "bezeichnung": "Zum alten Tor" }, "geometry": { "type": "Point", "coordinates": [ 7.182162877068738, 50.816410213883941 ] } },
{ "type": "Feature", "properties": { "strassenschluessel": "05382000006836186", "bezeichnung": "Zum Sonnenberg" }, "geometry": { "type": "Point", "coordinates": [ 7.167525392507206, 50.821936018768398 ] } },
{ "type": "Feature", "properties": { "strassenschluessel": "05382000006836187", "bezeichnung": "Zum Röhrichtsiefen" }, "geometry": { "type": "Point", "coordinates": [ 7.174970785837839, 50.814974283333484 ] } },
{ "type": "Feature", "properties": { "strassenschluessel": "05382000006836188", "bezeichnung": "Zur Eremitage" }, "geometry": { "type": "Point", "coordinates": [ 7.169257796381811, 50.816557124842745 ] } },
{ "type": "Feature", "properties": { "strassenschluessel": "05382000006836189", "bezeichnung": "Adenauerstraße" }, "geometry": { "type": "Point", "coordinates": [ 7.120471543375069, 50.824763579026779 ] } },
{ "type": "Feature", "properties": { "strassenschluessel": "05382000006836190", "bezeichnung": "Am Friedhof" }, "geometry": { "type": "Point", "coordinates": [ 7.113509717197759, 50.825295129009803 ] } },
{ "type": "Feature", "properties": { "strassenschluessel": "05382000006836191", "bezeichnung": "Am Hang" }, "geometry": { "type": "Point", "coordinates": [ 7.13327675840897, 50.825060367890138 ] } },
{ "type": "Feature", "properties": { "strassenschluessel": "05382000006836192", "bezeichnung": "Am Kollberg" }, "geometry": { "type": "Point", "coordinates": [ 7.123505552876104, 50.832519159649564 ] } },
{ "type": "Feature", "properties": { "strassenschluessel": "05382000006836193", "bezeichnung": "Am Landgraben" }, "geometry": { "type": "Point", "coordinates": [ 7.114635684192206, 50.827602386537286 ] } },
{ "type": "Feature", "properties": { "strassenschluessel": "05382000006836194", "bezeichnung": "Am Schultheißkreuz" }, "geometry": { "type": "Point", "coordinates": [ 7.119346427022329, 50.824794811136719 ] } },
{ "type": "Feature", "properties": { "strassenschluessel": "05382000006836195", "bezeichnung": "Am Senkelsgraben" }, "geometry": { "type": "Point", "coordinates": [ 7.117913896915867, 50.835951967967773 ] } },
{ "type": "Feature", "properties": { "strassenschluessel": "05382000006836196", "bezeichnung": "Am Waldstadion" }, "geometry": { "type": "Point", "coordinates": [ 7.130180491524694, 50.833648983037804 ] } },
{ "type": "Feature", "properties": { "strassenschluessel": "05382000006836197", "bezeichnung": "An der Pohlstatt" }, "geometry": { "type": "Point", "coordinates": [ 7.111115491457994, 50.833006665119434 ] } },
{ "type": "Feature", "properties": { "strassenschluessel": "05382000006836198", "bezeichnung": "Antwerpener Straße" }, "geometry": { "type": "Point", "coordinates": [ 7.111243191352639, 50.838476494686454 ] } },
{ "type": "Feature", "properties": { "strassenschluessel": "05382000006836199", "bezeichnung": "Asselbachstraße" }, "geometry": { "type": "Point", "coordinates": [ 7.126945074885478, 50.829179889229287 ] } },
{ "type": "Feature", "properties": { "strassenschluessel": "05382000006836200", "bezeichnung": "Auf dem Lohmerich" }, "geometry": { "type": "Point", "coordinates": [ 7.122391369595161, 50.829822150865326 ] } },
{ "type": "Feature", "properties": { "strassenschluessel": "05382000006836201", "bezeichnung": "Auf dem Vogelsang" }, "geometry": { "type": "Point", "coordinates": [ 7.10408315137413, 50.824723679322432 ] } },
{ "type": "Feature", "properties": { "strassenschluessel": "05382000006836202", "bezeichnung": "Auf dem Sieferod" }, "geometry": { "type": "Point", "coordinates": [ 7.127208351052549, 50.822473484814616 ] } },
{ "type": "Feature", "properties": { "strassenschluessel": "05382000006836203", "bezeichnung": "Auf der Bitz" }, "geometry": { "type": "Point", "coordinates": [ 7.121979386386532, 50.825528428100007 ] } },
{ "type": "Feature", "properties": { "strassenschluessel": "05382000006836204", "bezeichnung": "Auf der Heide" }, "geometry": { "type": "Point", "coordinates": [ 7.130066697747043, 50.821282703084819 ] } },
{ "type": "Feature", "properties": { "strassenschluessel": "05382000006836205", "bezeichnung": "Belgische Allee" }, "geometry": { "type": "Point", "coordinates": [ 7.120834184536346, 50.840575926669992 ] } },
{ "type": "Feature", "properties": { "strassenschluessel": "05382000006836206", "bezeichnung": "Bensberger Straße" }, "geometry": { "type": "Point", "coordinates": [ 7.110897128716943, 50.833386037717538 ] } },
{ "type": "Feature", "properties": { "strassenschluessel": "05382000006836207", "bezeichnung": "Biberweg" }, "geometry": { "type": "Point", "coordinates": [ 7.108318025310867, 50.829385563212526 ] } },
{ "type": "Feature", "properties": { "strassenschluessel": "05382000006836208", "bezeichnung": "Birkenweg" }, "geometry": { "type": "Point", "coordinates": [ 7.133087722905784, 50.825990729939875 ] } },
{ "type": "Feature", "properties": { "strassenschluessel": "05382000006836209", "bezeichnung": "Brückenstraße" }, "geometry": { "type": "Point", "coordinates": [ 7.117737300912441, 50.832188883059828 ] } },
{ "type": "Feature", "properties": { "strassenschluessel": "05382000006836210", "bezeichnung": "Brüsseler Straße" }, "geometry": { "type": "Point", "coordinates": [ 7.1093273867307, 50.836612266981817 ] } },
{ "type": "Feature", "properties": { "strassenschluessel": "05382000006836211", "bezeichnung": "Burgstraße" }, "geometry": { "type": "Point", "coordinates": [ 7.119410707773867, 50.831056355143112 ] } },
{ "type": "Feature", "properties": { "strassenschluessel": "05382000006836212", "bezeichnung": "Dachsweg" }, "geometry": { "type": "Point", "coordinates": [ 7.107275449033768, 50.827766189233607 ] } },
{ "type": "Feature", "properties": { "strassenschluessel": "05382000006836213", "bezeichnung": "Dauner Straße" }, "geometry": { "type": "Point", "coordinates": [ 7.120759765555294, 50.821835317051828 ] } },
{ "type": "Feature", "properties": { "strassenschluessel": "05382000006836214", "bezeichnung": "Dohlenweg" }, "geometry": { "type": "Point", "coordinates": [ 7.127378805155038, 50.828372668259206 ] } },
{ "type": "Feature", "properties": { "strassenschluessel": "05382000006836215", "bezeichnung": "Dr.-Eckener-Straße" }, "geometry": { "type": "Point", "coordinates": [ 7.102933909804928, 50.8250463974517 ] } },
{ "type": "Feature", "properties": { "strassenschluessel": "05382000006836216", "bezeichnung": "Dornröschenweg" }, "geometry": { "type": "Point", "coordinates": [ 7.123440908343259, 50.828706890133596 ] } },
{ "type": "Feature", "properties": { "strassenschluessel": "05382000006836217", "bezeichnung": "Eibenweg" }, "geometry": { "type": "Point", "coordinates": [ 7.13302983179434, 50.82932834717873 ] } },
{ "type": "Feature", "properties": { "strassenschluessel": "05382000006836218", "bezeichnung": "Eichenweg" }, "geometry": { "type": "Point", "coordinates": [ 7.131755374802429, 50.827809785489883 ] } },
{ "type": "Feature", "properties": { "strassenschluessel": "05382000006836219", "bezeichnung": "Eifelstraße" }, "geometry": { "type": "Point", "coordinates": [ 7.118205778951361, 50.821442710966458 ] } },
{ "type": "Feature", "properties": { "strassenschluessel": "05382000006836220", "bezeichnung": "Erlenweg" }, "geometry": { "type": "Point", "coordinates": [ 7.13096212753485, 50.827817475956884 ] } },
{ "type": "Feature", "properties": { "strassenschluessel": "05382000006836221", "bezeichnung": "Eulenweg" }, "geometry": { "type": "Point", "coordinates": [ 7.12682517998187, 50.829844237650462 ] } },
{ "type": "Feature", "properties": { "strassenschluessel": "05382000006836222", "bezeichnung": "Farnweg" }, "geometry": { "type": "Point", "coordinates": [ 7.117185070639913, 50.835126615875353 ] } },
{ "type": "Feature", "properties": { "strassenschluessel": "05382000006836223", "bezeichnung": "Fasanenweg" }, "geometry": { "type": "Point", "coordinates": [ 7.127271305452116, 50.830391887915063 ] } },
{ "type": "Feature", "properties": { "strassenschluessel": "05382000006836224", "bezeichnung": "Fichtenweg" }, "geometry": { "type": "Point", "coordinates": [ 7.133683757054158, 50.828315154449193 ] } },
{ "type": "Feature", "properties": { "strassenschluessel": "05382000006836225", "bezeichnung": "Finkenweg" }, "geometry": { "type": "Point", "coordinates": [ 7.12733415428278, 50.827520874450869 ] } },
{ "type": "Feature", "properties": { "strassenschluessel": "05382000006836226", "bezeichnung": "Fliersbachstraße" }, "geometry": { "type": "Point", "coordinates": [ 7.119928839685613, 50.829457535063327 ] } },
{ "type": "Feature", "properties": { "strassenschluessel": "05382000006836227", "bezeichnung": "Forsthaus Telegraf" }, "geometry": null },
{ "type": "Feature", "properties": { "strassenschluessel": "05382000006836228", "bezeichnung": "Franz-Bergen-Straße" }, "geometry": { "type": "Point", "coordinates": [ 7.119146104603926, 50.828996641928327 ] } },
{ "type": "Feature", "properties": { "strassenschluessel": "05382000006836229", "bezeichnung": "Freiheitsstraße" }, "geometry": { "type": "Point", "coordinates": [ 7.125779711983606, 50.826449038272315 ] } },
{ "type": "Feature", "properties": { "strassenschluessel": "05382000006836230", "bezeichnung": "Friedrichstraße" }, "geometry": { "type": "Point", "coordinates": [ 7.121168309530871, 50.823098693646216 ] } },
{ "type": "Feature", "properties": { "strassenschluessel": "05382000006836231", "bezeichnung": "Gartenstraße" }, "geometry": { "type": "Point", "coordinates": [ 7.118427541079562, 50.826686046068438 ] } },
{ "type": "Feature", "properties": { "strassenschluessel": "05382000006836232", "bezeichnung": "Ginsterweg" }, "geometry": { "type": "Point", "coordinates": [ 7.116437900656457, 50.834541257430047 ] } },
{ "type": "Feature", "properties": { "strassenschluessel": "05382000006836233", "bezeichnung": "Glockenheide" }, "geometry": { "type": "Point", "coordinates": [ 7.129663089659213, 50.822262818318293 ] } },
{ "type": "Feature", "properties": { "strassenschluessel": "05382000006836234", "bezeichnung": "Grüner Weg" }, "geometry": { "type": "Point", "coordinates": [ 7.118334386930826, 50.822543129580986 ] } },
{ "type": "Feature", "properties": { "strassenschluessel": "05382000006836235", "bezeichnung": "Hans-Willy-Mertens-Straße" }, "geometry": { "type": "Point", "coordinates": [ 7.122566381912495, 50.828887451657522 ] } },
{ "type": "Feature", "properties": { "strassenschluessel": "05382000006836236", "bezeichnung": "Hauptstraße" }, "geometry": { "type": "Point", "coordinates": [ 7.131381951021039, 50.82282181571906 ] } },
{ "type": "Feature", "properties": { "strassenschluessel": "05382000006836237", "bezeichnung": "Haselnußweg" }, "geometry": { "type": "Point", "coordinates": [ 7.135865679644556, 50.827619887839248 ] } },
{ "type": "Feature", "properties": { "strassenschluessel": "05382000006836238", "bezeichnung": "Heckenweg" }, "geometry": { "type": "Point", "coordinates": [ 7.127240859717406, 50.82494354371017 ] } },
{ "type": "Feature", "properties": { "strassenschluessel": "05382000006836240", "bezeichnung": "Hohlsteinstraße" }, "geometry": { "type": "Point", "coordinates": [ 7.135211800941105, 50.823750632372779 ] } },
{ "type": "Feature", "properties": { "strassenschluessel": "05382000006836241", "bezeichnung": "Holunderweg" }, "geometry": { "type": "Point", "coordinates": [ 7.114236675248057, 50.83337117023531 ] } },
{ "type": "Feature", "properties": { "strassenschluessel": "05382000006836242", "bezeichnung": "Hubertusstraße" }, "geometry": { "type": "Point", "coordinates": [ 7.133291265259208, 50.824240344714553 ] } },
{ "type": "Feature", "properties": { "strassenschluessel": "05382000006836243", "bezeichnung": "Im Feldbruch" }, "geometry": { "type": "Point", "coordinates": [ 7.116745687897191, 50.821691324204316 ] } },
{ "type": "Feature", "properties": { "strassenschluessel": "05382000006836244", "bezeichnung": "Im Kleefeld" }, "geometry": { "type": "Point", "coordinates": [ 7.126616463114625, 50.826893135720432 ] } },
{ "type": "Feature", "properties": { "strassenschluessel": "05382000006836245", "bezeichnung": "Im Kreuzfeld" }, "geometry": { "type": "Point", "coordinates": [ 7.12331858727546, 50.826862905821834 ] } },
{ "type": "Feature", "properties": { "strassenschluessel": "05382000006836246", "bezeichnung": "Im Rosengarten" }, "geometry": { "type": "Point", "coordinates": [ 7.131666560085677, 50.825897644952789 ] } },
{ "type": "Feature", "properties": { "strassenschluessel": "05382000006836247", "bezeichnung": "Im Tulpenfeld" }, "geometry": { "type": "Point", "coordinates": [ 7.130942736093071, 50.825110474680137 ] } },
{ "type": "Feature", "properties": { "strassenschluessel": "05382000006836248", "bezeichnung": "Im Wiesengrund" }, "geometry": { "type": "Point", "coordinates": [ 7.130228331855319, 50.826000089621409 ] } },
{ "type": "Feature", "properties": { "strassenschluessel": "05382000006836249", "bezeichnung": "In den Höhnen" }, "geometry": { "type": "Point", "coordinates": [ 7.122515376910237, 50.824612823414263 ] } },
{ "type": "Feature", "properties": { "strassenschluessel": "05382000006836250", "bezeichnung": "Josef-Frank-Straße" }, "geometry": { "type": "Point", "coordinates": [ 7.12924841649558, 50.824782392466282 ] } },
{ "type": "Feature", "properties": { "strassenschluessel": "05382000006836251", "bezeichnung": "Jupiterstraße" }, "geometry": { "type": "Point", "coordinates": [ 7.111207776251248, 50.825684361286584 ] } },
{ "type": "Feature", "properties": { "strassenschluessel": "05382000006836252", "bezeichnung": "Karlstraße" }, "geometry": { "type": "Point", "coordinates": [ 7.111794320129957, 50.830265659128912 ] } },
{ "type": "Feature", "properties": { "strassenschluessel": "05382000006836253", "bezeichnung": "Kastanienweg" }, "geometry": { "type": "Point", "coordinates": [ 7.12969874651344, 50.826576560963517 ] } },
{ "type": "Feature", "properties": { "strassenschluessel": "05382000006836254", "bezeichnung": "Kiefernstraße" }, "geometry": { "type": "Point", "coordinates": [ 7.135645441965744, 50.822702284608674 ] } },
{ "type": "Feature", "properties": { "strassenschluessel": "05382000006836255", "bezeichnung": "Kirchweg" }, "geometry": { "type": "Point", "coordinates": [ 7.117936602169815, 50.825147228516592 ] } },
{ "type": "Feature", "properties": { "strassenschluessel": "05382000006836256", "bezeichnung": "Kochenholzstraße" }, "geometry": { "type": "Point", "coordinates": [ 7.114915148396268, 50.829208149630233 ] } },
{ "type": "Feature", "properties": { "strassenschluessel": "05382000006836257", "bezeichnung": "Kriegsdorfer Straße" }, "geometry": { "type": "Point", "coordinates": [ 7.114064605611736, 50.821562394534148 ] } },
{ "type": "Feature", "properties": { "strassenschluessel": "05382000006836258", "bezeichnung": "Kupferstraße" }, "geometry": { "type": "Point", "coordinates": [ 7.115474811787051, 50.823984162534522 ] } },
{ "type": "Feature", "properties": { "strassenschluessel": "05382000006836259", "bezeichnung": "Lärchenweg" }, "geometry": { "type": "Point", "coordinates": [ 7.132285717967825, 50.829526816623627 ] } },
{ "type": "Feature", "properties": { "strassenschluessel": "05382000006836260", "bezeichnung": "Lehmannstraße" }, "geometry": { "type": "Point", "coordinates": [ 7.102280362800546, 50.824053836440811 ] } },
{ "type": "Feature", "properties": { "strassenschluessel": "05382000006836261", "bezeichnung": "Lenaustraße" }, "geometry": { "type": "Point", "coordinates": [ 7.133691087530376, 50.823779185298065 ] } },
{ "type": "Feature", "properties": { "strassenschluessel": "05382000006836262", "bezeichnung": "Lindenallee" }, "geometry": { "type": "Point", "coordinates": [ 7.122108366620069, 50.825167364281434 ] } },
{ "type": "Feature", "properties": { "strassenschluessel": "05382000006836263", "bezeichnung": "Linder Straße" }, "geometry": { "type": "Point", "coordinates": [ 7.118674079799304, 50.833965238070142 ] } },
{ "type": "Feature", "properties": { "strassenschluessel": "05382000006836264", "bezeichnung": "Lülsdorfer Straße" }, "geometry": { "type": "Point", "coordinates": [ 7.110990596556556, 50.827852826542113 ] } },
{ "type": "Feature", "properties": { "strassenschluessel": "05382000006836265", "bezeichnung": "Lütticher Straße" }, "geometry": { "type": "Point", "coordinates": [ 7.112722359300368, 50.839619767074097 ] } },
{ "type": "Feature", "properties": { "strassenschluessel": "05382000006836266", "bezeichnung": "Maarstraße" }, "geometry": { "type": "Point", "coordinates": [ 7.114300060272937, 50.832461389816736 ] } },
{ "type": "Feature", "properties": { "strassenschluessel": "05382000006836267", "bezeichnung": "Marsweg" }, "geometry": { "type": "Point", "coordinates": [ 7.112187360303619, 50.828142642933059 ] } },
{ "type": "Feature", "properties": { "strassenschluessel": "05382000006836268", "bezeichnung": "Mauspfad" }, "geometry": { "type": "Point", "coordinates": [ 7.15414288204414, 50.83125281356218 ] } },
{ "type": "Feature", "properties": { "strassenschluessel": "05382000006836269", "bezeichnung": "Merkurweg" }, "geometry": { "type": "Point", "coordinates": [ 7.112190804252682, 50.827153772941941 ] } },
{ "type": "Feature", "properties": { "strassenschluessel": "05382000006836270", "bezeichnung": "Niederkasseler Straße" }, "geometry": { "type": "Point", "coordinates": [ 7.11831137762696, 50.827912276945575 ] } },
{ "type": "Feature", "properties": { "strassenschluessel": "05382000006836271", "bezeichnung": "Nürburgstraße" }, "geometry": { "type": "Point", "coordinates": [ 7.11505231221608, 50.82024851630748 ] } },
{ "type": "Feature", "properties": { "strassenschluessel": "05382000006836273", "bezeichnung": "Pfarrer-Werr-Straße" }, "geometry": { "type": "Point", "coordinates": [ 7.121060482312396, 50.823630627706812 ] } },
{ "type": "Feature", "properties": { "strassenschluessel": "05382000006836274", "bezeichnung": "Porzer Straße" }, "geometry": { "type": "Point", "coordinates": [ 7.115167957869774, 50.834447563256333 ] } },
{ "type": "Feature", "properties": { "strassenschluessel": "05382000006836275", "bezeichnung": "Rodderstraße" }, "geometry": { "type": "Point", "coordinates": [ 7.13006204704191, 50.823741651458128 ] } },
{ "type": "Feature", "properties": { "strassenschluessel": "05382000006836276", "bezeichnung": "Rosmarinheide" }, "geometry": { "type": "Point", "coordinates": [ 7.131685203637636, 50.821936985937313 ] } },
{ "type": "Feature", "properties": { "strassenschluessel": "05382000006836277", "bezeichnung": "Rotter Viehtrift" }, "geometry": { "type": "Point", "coordinates": [ 7.121002390320113, 50.817624915698083 ] } },
{ "type": "Feature", "properties": { "strassenschluessel": "05382000006836278", "bezeichnung": "Rudolfstraße" }, "geometry": { "type": "Point", "coordinates": [ 7.112604152148821, 50.829909598708014 ] } },
{ "type": "Feature", "properties": { "strassenschluessel": "05382000006836279", "bezeichnung": "Saturnstraße" }, "geometry": { "type": "Point", "coordinates": [ 7.113215029057891, 50.826118309462444 ] } },
{ "type": "Feature", "properties": { "strassenschluessel": "05382000006836280", "bezeichnung": "Schlehdornweg" }, "geometry": { "type": "Point", "coordinates": [ 7.114882913177829, 50.833089030940094 ] } },
{ "type": "Feature", "properties": { "strassenschluessel": "05382000006836281", "bezeichnung": "Schleidener Straße" }, "geometry": { "type": "Point", "coordinates": [ 7.119832218029377, 50.82274275057253 ] } },
{ "type": "Feature", "properties": { "strassenschluessel": "05382000006836282", "bezeichnung": "Schwalbenweg" }, "geometry": { "type": "Point", "coordinates": [ 7.125488759726619, 50.82916492311692 ] } },
{ "type": "Feature", "properties": { "strassenschluessel": "05382000006836283", "bezeichnung": "Silbergasse" }, "geometry": { "type": "Point", "coordinates": [ 7.115788188325966, 50.823555960076511 ] } },
{ "type": "Feature", "properties": { "strassenschluessel": "05382000006836284", "bezeichnung": "Sonnenstraße" }, "geometry": { "type": "Point", "coordinates": [ 7.115095641582505, 50.827655984752461 ] } },
{ "type": "Feature", "properties": { "strassenschluessel": "05382000006836285", "bezeichnung": "Spichbuschstraße" }, "geometry": { "type": "Point", "coordinates": [ 7.118118435540871, 50.834522017484147 ] } },
{ "type": "Feature", "properties": { "strassenschluessel": "05382000006836286", "bezeichnung": "Spicher Platz" }, "geometry": { "type": "Point", "coordinates": [ 7.11933965455747, 50.830519461669319 ] } },
{ "type": "Feature", "properties": { "strassenschluessel": "05382000006836287", "bezeichnung": "Sternenstraße" }, "geometry": { "type": "Point", "coordinates": [ 7.111216421786649, 50.827798689517358 ] } },
{ "type": "Feature", "properties": { "strassenschluessel": "05382000006836289", "bezeichnung": "Tannenweg" }, "geometry": { "type": "Point", "coordinates": [ 7.13523261698232, 50.826806899372954 ] } },
{ "type": "Feature", "properties": { "strassenschluessel": "05382000006836290", "bezeichnung": "Telegrafstraße" }, "geometry": { "type": "Point", "coordinates": [ 7.128282648937558, 50.826838291847366 ] } },
{ "type": "Feature", "properties": { "strassenschluessel": "05382000006836291", "bezeichnung": "Ulmenweg" }, "geometry": { "type": "Point", "coordinates": [ 7.13044738390596, 50.82664568121146 ] } },
{ "type": "Feature", "properties": { "strassenschluessel": "05382000006836292", "bezeichnung": "Vulkanstraße" }, "geometry": { "type": "Point", "coordinates": [ 7.120766810451382, 50.822677542173892 ] } },
{ "type": "Feature", "properties": { "strassenschluessel": "05382000006836293", "bezeichnung": "Wacholderweg" }, "geometry": { "type": "Point", "coordinates": [ 7.132854155132299, 50.827876430118827 ] } },
{ "type": "Feature", "properties": { "strassenschluessel": "05382000006836294", "bezeichnung": "Wahner Straße" }, "geometry": { "type": "Point", "coordinates": [ 7.117790225560184, 50.833570959109124 ] } },
{ "type": "Feature", "properties": { "strassenschluessel": "05382000006836295", "bezeichnung": "Waldstraße" }, "geometry": { "type": "Point", "coordinates": [ 7.119438747025937, 50.828626447058888 ] } },
{ "type": "Feature", "properties": { "strassenschluessel": "05382000006836296", "bezeichnung": "Wernerstraße" }, "geometry": { "type": "Point", "coordinates": [ 7.110712751396219, 50.830235933346287 ] } },
{ "type": "Feature", "properties": { "strassenschluessel": "05382000006836297", "bezeichnung": "Zedernweg" }, "geometry": { "type": "Point", "coordinates": [ 7.135003018602726, 50.828459675200698 ] } },
{ "type": "Feature", "properties": { "strassenschluessel": "05382000006836298", "bezeichnung": "Zündorfer Weg" }, "geometry": { "type": "Point", "coordinates": [ 7.101281678470364, 50.835321531102679 ] } },
{ "type": "Feature", "properties": { "strassenschluessel": "05382000006836299", "bezeichnung": "Zur Hardt" }, "geometry": { "type": "Point", "coordinates": [ 7.118759180714807, 50.830624142345378 ] } },
{ "type": "Feature", "properties": { "strassenschluessel": "05382000006836300", "bezeichnung": "Alemannenstraße" }, "geometry": { "type": "Point", "coordinates": [ 7.135540856282911, 50.803068272932208 ] } },
{ "type": "Feature", "properties": { "strassenschluessel": "05382000006836301", "bezeichnung": "Am Driesch" }, "geometry": { "type": "Point", "coordinates": [ 7.128911183774123, 50.797540196566125 ] } },
{ "type": "Feature", "properties": { "strassenschluessel": "05382000006836302", "bezeichnung": "Am Feldrain" }, "geometry": { "type": "Point", "coordinates": [ 7.123568244345869, 50.806392868161801 ] } },
{ "type": "Feature", "properties": { "strassenschluessel": "05382000006836303", "bezeichnung": "Am Mühlenbach" }, "geometry": { "type": "Point", "coordinates": [ 7.135081643750282, 50.79868508743121 ] } },
{ "type": "Feature", "properties": { "strassenschluessel": "05382000006836304", "bezeichnung": "Am Mühlentor" }, "geometry": { "type": "Point", "coordinates": [ 7.134382563971256, 50.798609511105859 ] } },
{ "type": "Feature", "properties": { "strassenschluessel": "05382000006836305", "bezeichnung": "Am Schirmhof" }, "geometry": null },
{ "type": "Feature", "properties": { "strassenschluessel": "05382000006836306", "bezeichnung": "Am Schlagbaum" }, "geometry": { "type": "Point", "coordinates": [ 7.133909383326747, 50.803528661704902 ] } },
{ "type": "Feature", "properties": { "strassenschluessel": "05382000006836307", "bezeichnung": "Am Wehrwasser" }, "geometry": { "type": "Point", "coordinates": [ 7.133379156480459, 50.800671591114295 ] } },
{ "type": "Feature", "properties": { "strassenschluessel": "05382000006836308", "bezeichnung": "Am Ziegelfeld" }, "geometry": { "type": "Point", "coordinates": [ 7.130883335491578, 50.802997140638929 ] } },
{ "type": "Feature", "properties": { "strassenschluessel": "05382000006836309", "bezeichnung": "An der Schindskaule" }, "geometry": { "type": "Point", "coordinates": [ 7.124529148925402, 50.804427635469899 ] } },
{ "type": "Feature", "properties": { "strassenschluessel": "05382000006836311", "bezeichnung": "Auf dem Grend" }, "geometry": { "type": "Point", "coordinates": [ 7.135114267717757, 50.799137824644951 ] } },
{ "type": "Feature", "properties": { "strassenschluessel": "05382000006836312", "bezeichnung": "Auf der Fuchskaul" }, "geometry": { "type": "Point", "coordinates": [ 7.119362427825513, 50.801852324050778 ] } },
{ "type": "Feature", "properties": { "strassenschluessel": "05382000006836313", "bezeichnung": "Augustastraße" }, "geometry": { "type": "Point", "coordinates": [ 7.132130461941594, 50.802064060684927 ] } },
{ "type": "Feature", "properties": { "strassenschluessel": "05382000006836314", "bezeichnung": "Augustinusstraße" }, "geometry": { "type": "Point", "coordinates": [ 7.119759327382992, 50.798290980956757 ] } },
{ "type": "Feature", "properties": { "strassenschluessel": "05382000006836315", "bezeichnung": "Bayernweg" }, "geometry": null },
{ "type": "Feature", "properties": { "strassenschluessel": "05382000006836317", "bezeichnung": "Brentanoweg" }, "geometry": null },
{ "type": "Feature", "properties": { "strassenschluessel": "05382000006836318", "bezeichnung": "Broicher Weg" }, "geometry": { "type": "Point", "coordinates": [ 7.115949431336993, 50.802512486795941 ] } },
{ "type": "Feature", "properties": { "strassenschluessel": "05382000006836319", "bezeichnung": "Clarenstraße" }, "geometry": { "type": "Point", "coordinates": [ 7.12778132323893, 50.805704559244987 ] } },
{ "type": "Feature", "properties": { "strassenschluessel": "05382000006836321", "bezeichnung": "Dechant-Wirtz-Straße" }, "geometry": { "type": "Point", "coordinates": [ 7.119543140943077, 50.797279885805771 ] } },
{ "type": "Feature", "properties": { "strassenschluessel": "05382000006836322", "bezeichnung": "Donatusstraße" }, "geometry": { "type": "Point", "coordinates": [ 7.129726488968988, 50.805432651291163 ] } },
{ "type": "Feature", "properties": { "strassenschluessel": "05382000006836323", "bezeichnung": "Dr.Schmitz-Straße" }, "geometry": { "type": "Point", "coordinates": [ 7.114435159199918, 50.797365100336492 ] } },
{ "type": "Feature", "properties": { "strassenschluessel": "05382000006836324", "bezeichnung": "Dorotheenstraße" }, "geometry": { "type": "Point", "coordinates": [ 7.131684102472334, 50.799791183417412 ] } },
{ "type": "Feature", "properties": { "strassenschluessel": "05382000006836326", "bezeichnung": "Edith-Stein-Straße" }, "geometry": { "type": "Point", "coordinates": [ 7.12275964241732, 50.807092117420581 ] } },
{ "type": "Feature", "properties": { "strassenschluessel": "05382000006836327", "bezeichnung": "Eichendorffstraße" }, "geometry": { "type": "Point", "coordinates": [ 7.120884391599336, 50.802437303418927 ] } },
{ "type": "Feature", "properties": { "strassenschluessel": "05382000006836328", "bezeichnung": "Eintrachtstraße" }, "geometry": { "type": "Point", "coordinates": [ 7.125316274595024, 50.798262297186781 ] } },
{ "type": "Feature", "properties": { "strassenschluessel": "05382000006836329", "bezeichnung": "Eremitenstraße" }, "geometry": { "type": "Point", "coordinates": [ 7.128840346803176, 50.804577376954079 ] } },
{ "type": "Feature", "properties": { "strassenschluessel": "05382000006836330", "bezeichnung": "Evrystraße" }, "geometry": null },
{ "type": "Feature", "properties": { "strassenschluessel": "05382000006836331", "bezeichnung": "Fehmarnweg" }, "geometry": { "type": "Point", "coordinates": [ 7.121474545428704, 50.810614753928107 ] } },
{ "type": "Feature", "properties": { "strassenschluessel": "05382000006836332", "bezeichnung": "Flachtenstraße" }, "geometry": { "type": "Point", "coordinates": [ 7.121478420453342, 50.796901605869749 ] } },
{ "type": "Feature", "properties": { "strassenschluessel": "05382000006836334", "bezeichnung": "Frankenstraße" }, "geometry": { "type": "Point", "coordinates": [ 7.131575750362257, 50.806408084091721 ] } },
{ "type": "Feature", "properties": { "strassenschluessel": "05382000006836336", "bezeichnung": "Franz-von-Assisi-Straße" }, "geometry": { "type": "Point", "coordinates": [ 7.120269993119257, 50.803496807350385 ] } },
{ "type": "Feature", "properties": { "strassenschluessel": "05382000006836338", "bezeichnung": "Friedlandstraße" }, "geometry": { "type": "Point", "coordinates": [ 7.130084759227395, 50.803882151195175 ] } },
{ "type": "Feature", "properties": { "strassenschluessel": "05382000006836339", "bezeichnung": "Frühlingstraße" }, "geometry": { "type": "Point", "coordinates": [ 7.126960471195935, 50.803214784040755 ] } },
{ "type": "Feature", "properties": { "strassenschluessel": "05382000006836341", "bezeichnung": "Gotenstraße" }, "geometry": { "type": "Point", "coordinates": [ 7.133111015799614, 50.805478098435309 ] } },
{ "type": "Feature", "properties": { "strassenschluessel": "05382000006836342", "bezeichnung": "Goethestraße" }, "geometry": { "type": "Point", "coordinates": [ 7.119088630584471, 50.801173761994889 ] } },
{ "type": "Feature", "properties": { "strassenschluessel": "05382000006836343", "bezeichnung": "Grabenstraße" }, "geometry": { "type": "Point", "coordinates": [ 7.125301268868006, 50.799344969555314 ] } },
{ "type": "Feature", "properties": { "strassenschluessel": "05382000006836344", "bezeichnung": "Graf-Galen-Straße" }, "geometry": { "type": "Point", "coordinates": [ 7.124564561585799, 50.802041671927014 ] } },
{ "type": "Feature", "properties": { "strassenschluessel": "05382000006836347", "bezeichnung": "Haus Rott" }, "geometry": null },
{ "type": "Feature", "properties": { "strassenschluessel": "05382000006836349", "bezeichnung": "Heinrich-Heine-Straße" }, "geometry": { "type": "Point", "coordinates": [ 7.11892395839623, 50.799481489525363 ] } },
{ "type": "Feature", "properties": { "strassenschluessel": "05382000006836350", "bezeichnung": "Herderweg" }, "geometry": null },
{ "type": "Feature", "properties": { "strassenschluessel": "05382000006836351", "bezeichnung": "Hessenweg" }, "geometry": { "type": "Point", "coordinates": [ 7.122650692563337, 50.80993065778155 ] } },
{ "type": "Feature", "properties": { "strassenschluessel": "05382000006836352", "bezeichnung": "Hirschbergstraße" }, "geometry": { "type": "Point", "coordinates": [ 7.119689826846018, 50.794563114713696 ] } },
{ "type": "Feature", "properties": { "strassenschluessel": "05382000006836353", "bezeichnung": "Hitzbroicher Weg" }, "geometry": { "type": "Point", "coordinates": [ 7.128978444510717, 50.80577566406081 ] } },
{ "type": "Feature", "properties": { "strassenschluessel": "05382000006836355", "bezeichnung": "Hüttenstraße" }, "geometry": { "type": "Point", "coordinates": [ 7.131437003579845, 50.797734081952989 ] } },
{ "type": "Feature", "properties": { "strassenschluessel": "05382000006836356", "bezeichnung": "Im Engelsgarten" }, "geometry": { "type": "Point", "coordinates": [ 7.117404708075636, 50.795364514625248 ] } },
{ "type": "Feature", "properties": { "strassenschluessel": "05382000006836357", "bezeichnung": "Im Gäßchen" }, "geometry": { "type": "Point", "coordinates": [ 7.129540259059863, 50.802363726408082 ] } },
{ "type": "Feature", "properties": { "strassenschluessel": "05382000006836358", "bezeichnung": "Im Kirchtal" }, "geometry": { "type": "Point", "coordinates": [ 7.115993581480391, 50.793586983722129 ] } },
{ "type": "Feature", "properties": { "strassenschluessel": "05382000006836359", "bezeichnung": "In den Gärten" }, "geometry": { "type": "Point", "coordinates": [ 7.124248903832383, 50.798768437615728 ] } },
{ "type": "Feature", "properties": { "strassenschluessel": "05382000006836360", "bezeichnung": "Johannesstraße" }, "geometry": { "type": "Point", "coordinates": [ 7.128977995201858, 50.806619235746396 ] } },
{ "type": "Feature", "properties": { "strassenschluessel": "05382000006836361", "bezeichnung": "Kerpstraße" }, "geometry": { "type": "Point", "coordinates": [ 7.129032788305874, 50.800555474771819 ] } },
{ "type": "Feature", "properties": { "strassenschluessel": "05382000006836362", "bezeichnung": "Kettelerstraße" }, "geometry": { "type": "Point", "coordinates": [ 7.123865985643068, 50.803050617839503 ] } },
{ "type": "Feature", "properties": { "strassenschluessel": "05382000006836363", "bezeichnung": "Kieler Weg" }, "geometry": { "type": "Point", "coordinates": [ 7.117152943391826, 50.812766160906875 ] } },
{ "type": "Feature", "properties": { "strassenschluessel": "05382000006836364", "bezeichnung": "Kirchhofstraße" }, "geometry": { "type": "Point", "coordinates": [ 7.130341912399357, 50.799090995143303 ] } },
{ "type": "Feature", "properties": { "strassenschluessel": "05382000006836365", "bezeichnung": "Kleiststraße" }, "geometry": { "type": "Point", "coordinates": [ 7.123066890552879, 50.798990390700084 ] } },
{ "type": "Feature", "properties": { "strassenschluessel": "05382000006836366", "bezeichnung": "Kofferstraße" }, "geometry": { "type": "Point", "coordinates": [ 7.128084099203798, 50.798988043475454 ] } },
{ "type": "Feature", "properties": { "strassenschluessel": "05382000006836367", "bezeichnung": "Kolpingstraße" }, "geometry": { "type": "Point", "coordinates": [ 7.128730994287308, 50.803807150238598 ] } },
{ "type": "Feature", "properties": { "strassenschluessel": "05382000006836368", "bezeichnung": "Larstraße" }, "geometry": { "type": "Point", "coordinates": [ 7.127411142438132, 50.798883246092046 ] } },
{ "type": "Feature", "properties": { "strassenschluessel": "05382000006836369", "bezeichnung": "Leostraße" }, "geometry": { "type": "Point", "coordinates": [ 7.126787230016497, 50.803854309583429 ] } },
{ "type": "Feature", "properties": { "strassenschluessel": "05382000006836370", "bezeichnung": "Lessingstraße" }, "geometry": { "type": "Point", "coordinates": [ 7.118436769861054, 50.799958862977668 ] } },
{ "type": "Feature", "properties": { "strassenschluessel": "05382000006836371", "bezeichnung": "Löwenburgstraße" }, "geometry": { "type": "Point", "coordinates": [ 7.120394658366299, 50.794344020045116 ] } },
{ "type": "Feature", "properties": { "strassenschluessel": "05382000006836373", "bezeichnung": "Marktplatz" }, "geometry": { "type": "Point", "coordinates": [ 7.128910498835488, 50.798116893321136 ] } },
{ "type": "Feature", "properties": { "strassenschluessel": "05382000006836374", "bezeichnung": "Meindorfer Straße" }, "geometry": { "type": "Point", "coordinates": [ 7.129840569884959, 50.796959725028486 ] } },
{ "type": "Feature", "properties": { "strassenschluessel": "05382000006836375", "bezeichnung": "Mörikestraße" }, "geometry": { "type": "Point", "coordinates": [ 7.116643297947084, 50.79824103437219 ] } },
{ "type": "Feature", "properties": { "strassenschluessel": "05382000006836376", "bezeichnung": "Mühlenstraße" }, "geometry": { "type": "Point", "coordinates": [ 7.130991562836599, 50.798781778575695 ] } },
{ "type": "Feature", "properties": { "strassenschluessel": "05382000006836377", "bezeichnung": "Münchner Weg" }, "geometry": { "type": "Point", "coordinates": [ 7.123201294981703, 50.808899075547011 ] } },
{ "type": "Feature", "properties": { "strassenschluessel": "05382000006836378", "bezeichnung": "Niedersachsenweg" }, "geometry": { "type": "Point", "coordinates": [ 7.124160353219517, 50.809725849653915 ] } },
{ "type": "Feature", "properties": { "strassenschluessel": "05382000006836379", "bezeichnung": "Pastor-Böhm-Straße" }, "geometry": { "type": "Point", "coordinates": [ 7.12774302806681, 50.801710280407811 ] } },
{ "type": "Feature", "properties": { "strassenschluessel": "05382000006836380", "bezeichnung": "Pastor-Hellen-Straße" }, "geometry": { "type": "Point", "coordinates": [ 7.128860941390997, 50.80137067412717 ] } },
{ "type": "Feature", "properties": { "strassenschluessel": "05382000006836381", "bezeichnung": "Pastorsbitze" }, "geometry": { "type": "Point", "coordinates": [ 7.122953576729872, 50.80673229526812 ] } },
{ "type": "Feature", "properties": { "strassenschluessel": "05382000006836382", "bezeichnung": "Pastorserlen" }, "geometry": { "type": "Point", "coordinates": [ 7.132725238416468, 50.802816910497313 ] } },
{ "type": "Feature", "properties": { "strassenschluessel": "05382000006836383", "bezeichnung": "Pfälzer Weg" }, "geometry": { "type": "Point", "coordinates": [ 7.114680689765088, 50.810837335737205 ] } },
{ "type": "Feature", "properties": { "strassenschluessel": "05382000006836384", "bezeichnung": "Rathausstraße" }, "geometry": { "type": "Point", "coordinates": [ 7.115655462599599, 50.80221436935431 ] } },
{ "type": "Feature", "properties": { "strassenschluessel": "05382000006836385", "bezeichnung": "Robert-Koch-Straße" }, "geometry": { "type": "Point", "coordinates": [ 7.116107416572188, 50.796449702543853 ] } },
{ "type": "Feature", "properties": { "strassenschluessel": "05382000006836386", "bezeichnung": "Röntgenstraße" }, "geometry": { "type": "Point", "coordinates": [ 7.120166009008227, 50.797857749948015 ] } },
{ "type": "Feature", "properties": { "strassenschluessel": "05382000006836387", "bezeichnung": "Sauerbruchstraße" }, "geometry": { "type": "Point", "coordinates": [ 7.113794978874359, 50.797605342017484 ] } },
{ "type": "Feature", "properties": { "strassenschluessel": "05382000006836388", "bezeichnung": "Schillerstraße" }, "geometry": { "type": "Point", "coordinates": [ 7.119763382575283, 50.799735609513249 ] } },
{ "type": "Feature", "properties": { "strassenschluessel": "05382000006836389", "bezeichnung": "Schmelzer Weg" }, "geometry": { "type": "Point", "coordinates": [ 7.134025211957113, 50.801964485210462 ] } },
{ "type": "Feature", "properties": { "strassenschluessel": "05382000006836391", "bezeichnung": "Schwarzwaldweg" }, "geometry": { "type": "Point", "coordinates": [ 7.113196250719203, 50.812186446132841 ] } },
{ "type": "Feature", "properties": { "strassenschluessel": "05382000006836392", "bezeichnung": "Siebengebirgsblick" }, "geometry": { "type": "Point", "coordinates": [ 7.120758089408185, 50.793717667743607 ] } },
{ "type": "Feature", "properties": { "strassenschluessel": "05382000006836394", "bezeichnung": "Spicher Straße" }, "geometry": { "type": "Point", "coordinates": [ 7.124729502532725, 50.804238633300166 ] } },
{ "type": "Feature", "properties": { "strassenschluessel": "05382000006836395", "bezeichnung": "Steinstraße" }, "geometry": { "type": "Point", "coordinates": [ 7.126194796719617, 50.802640563099381 ] } },
{ "type": "Feature", "properties": { "strassenschluessel": "05382000006836396", "bezeichnung": "Troisdorfer Straße" }, "geometry": { "type": "Point", "coordinates": [ 7.131778921675999, 50.803694503507487 ] } },
{ "type": "Feature", "properties": { "strassenschluessel": "05382000006836397", "bezeichnung": "Uckendorfer Straße" }, "geometry": { "type": "Point", "coordinates": [ 7.112097107700091, 50.812202620571156 ] } },
{ "type": "Feature", "properties": { "strassenschluessel": "05382000006836398", "bezeichnung": "Ubierstraße" }, "geometry": { "type": "Point", "coordinates": [ 7.134344259032479, 50.800197943870565 ] } },
{ "type": "Feature", "properties": { "strassenschluessel": "05382000006836399", "bezeichnung": "Uhlandstraße" }, "geometry": { "type": "Point", "coordinates": [ 7.122083483520649, 50.798802274884714 ] } },
{ "type": "Feature", "properties": { "strassenschluessel": "05382000006836400", "bezeichnung": "Vorgebirgsblick" }, "geometry": { "type": "Point", "coordinates": [ 7.116490478754648, 50.795077897445339 ] } },
{ "type": "Feature", "properties": { "strassenschluessel": "05382000006836401", "bezeichnung": "Weidengasse" }, "geometry": { "type": "Point", "coordinates": [ 7.125606614491194, 50.796614240400316 ] } },
{ "type": "Feature", "properties": { "strassenschluessel": "05382000006836402", "bezeichnung": "Westfalenstraße" }, "geometry": { "type": "Point", "coordinates": [ 7.11924759075783, 50.811591787729419 ] } },
{ "type": "Feature", "properties": { "strassenschluessel": "05382000006836403", "bezeichnung": "Wielandstraße" }, "geometry": { "type": "Point", "coordinates": [ 7.123991648794624, 50.804854370230061 ] } },
{ "type": "Feature", "properties": { "strassenschluessel": "05382000006836404", "bezeichnung": "Wilhelm-Busch-Straße" }, "geometry": { "type": "Point", "coordinates": [ 7.116052833766097, 50.797578593471172 ] } },
{ "type": "Feature", "properties": { "strassenschluessel": "05382000006836405", "bezeichnung": "Zum Mühlenberg" }, "geometry": { "type": "Point", "coordinates": [ 7.124717629067173, 50.795750846124662 ] } },
{ "type": "Feature", "properties": { "strassenschluessel": "05382000006836406", "bezeichnung": "Zum Sonnenhang" }, "geometry": { "type": "Point", "coordinates": [ 7.119061448322923, 50.793218222175696 ] } },
{ "type": "Feature", "properties": { "strassenschluessel": "05382000006836407", "bezeichnung": "Adam-Riese-Straße" }, "geometry": { "type": "Point", "coordinates": [ 7.137434527524275, 50.812970080222691 ] } },
{ "type": "Feature", "properties": { "strassenschluessel": "05382000006836408", "bezeichnung": "Agnesstraße" }, "geometry": { "type": "Point", "coordinates": [ 7.135533351637672, 50.812177727726613 ] } },
{ "type": "Feature", "properties": { "strassenschluessel": "05382000006836409", "bezeichnung": "Am Annonisbach" }, "geometry": { "type": "Point", "coordinates": [ 7.129473248470022, 50.815544145641958 ] } },
{ "type": "Feature", "properties": { "strassenschluessel": "05382000006836410", "bezeichnung": "Am Kaninberg" }, "geometry": { "type": "Point", "coordinates": [ 7.144371773140826, 50.810942006411672 ] } },
{ "type": "Feature", "properties": { "strassenschluessel": "05382000006836411", "bezeichnung": "Am Wildzaun" }, "geometry": { "type": "Point", "coordinates": [ 7.131590269074552, 50.814762775874392 ] } },
{ "type": "Feature", "properties": { "strassenschluessel": "05382000006836412", "bezeichnung": "Antoniusstraße" }, "geometry": { "type": "Point", "coordinates": [ 7.142405325211016, 50.814467260414204 ] } },
{ "type": "Feature", "properties": { "strassenschluessel": "05382000006836413", "bezeichnung": "Auelblick" }, "geometry": { "type": "Point", "coordinates": [ 7.14070621806715, 50.809516869602604 ] } },
{ "type": "Feature", "properties": { "strassenschluessel": "05382000006836414", "bezeichnung": "Auf dem Schellerod" }, "geometry": { "type": "Point", "coordinates": [ 7.12472763243026, 50.816571396217462 ] } },
{ "type": "Feature", "properties": { "strassenschluessel": "05382000006836415", "bezeichnung": "Bahnstraße" }, "geometry": { "type": "Point", "coordinates": [ 7.141284881918573, 50.810437500852842 ] } },
{ "type": "Feature", "properties": { "strassenschluessel": "05382000006836416", "bezeichnung": "Bertramstraße" }, "geometry": { "type": "Point", "coordinates": [ 7.14175410559402, 50.812759139153769 ] } },
{ "type": "Feature", "properties": { "strassenschluessel": "05382000006836417", "bezeichnung": "Beuthener Straße" }, "geometry": { "type": "Point", "coordinates": [ 7.133363788442288, 50.815399113398222 ] } },
{ "type": "Feature", "properties": { "strassenschluessel": "05382000006836418", "bezeichnung": "Bonner Straße" }, "geometry": { "type": "Point", "coordinates": [ 7.122854369101511, 50.815921584978035 ] } },
{ "type": "Feature", "properties": { "strassenschluessel": "05382000006836419", "bezeichnung": "Boschstraße" }, "geometry": { "type": "Point", "coordinates": [ 7.123414164760725, 50.820851478592992 ] } },
{ "type": "Feature", "properties": { "strassenschluessel": "05382000006836420", "bezeichnung": "Bunzlauer Straße" }, "geometry": { "type": "Point", "coordinates": [ 7.126261826264128, 50.81380842971712 ] } },
{ "type": "Feature", "properties": { "strassenschluessel": "05382000006836421", "bezeichnung": "Einsteinstraße" }, "geometry": { "type": "Point", "coordinates": [ 7.128385593305967, 50.819973736786224 ] } },
{ "type": "Feature", "properties": { "strassenschluessel": "05382000006836422", "bezeichnung": "Elbinger Straße" }, "geometry": { "type": "Point", "coordinates": [ 7.129269528115623, 50.814026528815063 ] } },
{ "type": "Feature", "properties": { "strassenschluessel": "05382000006836423", "bezeichnung": "Elisabethstraße" }, "geometry": { "type": "Point", "coordinates": [ 7.137935569569275, 50.812134062372209 ] } },
{ "type": "Feature", "properties": { "strassenschluessel": "05382000006836424", "bezeichnung": "Franziskastraße" }, "geometry": { "type": "Point", "coordinates": [ 7.136471451428351, 50.810377583781559 ] } },
{ "type": "Feature", "properties": { "strassenschluessel": "05382000006836425", "bezeichnung": "Fröbelstraße" }, "geometry": { "type": "Point", "coordinates": [ 7.135781291204265, 50.813446481334651 ] } },
{ "type": "Feature", "properties": { "strassenschluessel": "05382000006836426", "bezeichnung": "Gertrudenweg" }, "geometry": { "type": "Point", "coordinates": [ 7.135456356946282, 50.808412828560627 ] } },
{ "type": "Feature", "properties": { "strassenschluessel": "05382000006836427", "bezeichnung": "Haberstraße" }, "geometry": { "type": "Point", "coordinates": [ 7.131736233750254, 50.810468772529575 ] } },
{ "type": "Feature", "properties": { "strassenschluessel": "05382000006836428", "bezeichnung": "Hans-Sachs-Straße" }, "geometry": { "type": "Point", "coordinates": [ 7.139325854281735, 50.813022814718167 ] } },
{ "type": "Feature", "properties": { "strassenschluessel": "05382000006836429", "bezeichnung": "Hochfeldstraße" }, "geometry": { "type": "Point", "coordinates": [ 7.138385427984118, 50.810420299234707 ] } },
{ "type": "Feature", "properties": { "strassenschluessel": "05382000006836430", "bezeichnung": "Im Grandsgarten" }, "geometry": { "type": "Point", "coordinates": [ 7.13965863892257, 50.808982395122811 ] } },
{ "type": "Feature", "properties": { "strassenschluessel": "05382000006836431", "bezeichnung": "Im Winkel" }, "geometry": { "type": "Point", "coordinates": [ 7.133788894065487, 50.810976989966441 ] } },
{ "type": "Feature", "properties": { "strassenschluessel": "05382000006836432", "bezeichnung": "Im Zehntfeld" }, "geometry": { "type": "Point", "coordinates": [ 7.134505168936805, 50.812255164050043 ] } },
{ "type": "Feature", "properties": { "strassenschluessel": "05382000006836433", "bezeichnung": "In der Kleinen Heide" }, "geometry": { "type": "Point", "coordinates": [ 7.142324566528227, 50.811536425687343 ] } },
{ "type": "Feature", "properties": { "strassenschluessel": "05382000006836434", "bezeichnung": "Industriestraße" }, "geometry": { "type": "Point", "coordinates": [ 7.129550593570512, 50.81912470799746 ] } },
{ "type": "Feature", "properties": { "strassenschluessel": "05382000006836435", "bezeichnung": "Josefstraße" }, "geometry": { "type": "Point", "coordinates": [ 7.141095561899165, 50.814620944039497 ] } },
{ "type": "Feature", "properties": { "strassenschluessel": "05382000006836436", "bezeichnung": "Kantstraße" }, "geometry": { "type": "Point", "coordinates": [ 7.132992078546713, 50.813290147366381 ] } },
{ "type": "Feature", "properties": { "strassenschluessel": "05382000006836437", "bezeichnung": "Keplerstraße" }, "geometry": { "type": "Point", "coordinates": [ 7.141095016035403, 50.812716250261758 ] } },
{ "type": "Feature", "properties": { "strassenschluessel": "05382000006836438", "bezeichnung": "Landgrafenstraße" }, "geometry": { "type": "Point", "coordinates": [ 7.130990254999982, 50.818652571918157 ] } },
{ "type": "Feature", "properties": { "strassenschluessel": "05382000006836439", "bezeichnung": "Liegnitzer Straße" }, "geometry": { "type": "Point", "coordinates": [ 7.133767108858451, 50.814826154277839 ] } },
{ "type": "Feature", "properties": { "strassenschluessel": "05382000006836440", "bezeichnung": "Lindenstraße" }, "geometry": { "type": "Point", "coordinates": [ 7.137548574617092, 50.817217450679344 ] } },
{ "type": "Feature", "properties": { "strassenschluessel": "05382000006836441", "bezeichnung": "Lindlaustraße" }, "geometry": { "type": "Point", "coordinates": [ 7.142375678178662, 50.813809831722779 ] } },
{ "type": "Feature", "properties": { "strassenschluessel": "05382000006836442", "bezeichnung": "Luisenstraße" }, "geometry": { "type": "Point", "coordinates": [ 7.141187797202375, 50.813220416042867 ] } },
{ "type": "Feature", "properties": { "strassenschluessel": "05382000006836443", "bezeichnung": "Magdalenenstraße" }, "geometry": { "type": "Point", "coordinates": [ 7.130768576136728, 50.813853293350803 ] } },
{ "type": "Feature", "properties": { "strassenschluessel": "05382000006836444", "bezeichnung": "Marienstraße" }, "geometry": { "type": "Point", "coordinates": [ 7.140524246758943, 50.815168567752337 ] } },
{ "type": "Feature", "properties": { "strassenschluessel": "05382000006836445", "bezeichnung": "Max-Planck-Straße" }, "geometry": { "type": "Point", "coordinates": [ 7.1247010527643, 50.818123272294343 ] } },
{ "type": "Feature", "properties": { "strassenschluessel": "05382000006836446", "bezeichnung": "Meitnerstraße" }, "geometry": { "type": "Point", "coordinates": [ 7.125752736730523, 50.820427420914314 ] } },
{ "type": "Feature", "properties": { "strassenschluessel": "05382000006836448", "bezeichnung": "Moltkestraße" }, "geometry": { "type": "Point", "coordinates": [ 7.137147167126449, 50.810789427277165 ] } },
{ "type": "Feature", "properties": { "strassenschluessel": "05382000006836449", "bezeichnung": "Mottmannstraße" }, "geometry": { "type": "Point", "coordinates": [ 7.128295978507578, 50.811840672445939 ] } },
{ "type": "Feature", "properties": { "strassenschluessel": "05382000006836450", "bezeichnung": "Oberlarer Platz" }, "geometry": { "type": "Point", "coordinates": [ 7.136305466592985, 50.813761517793992 ] } },
{ "type": "Feature", "properties": { "strassenschluessel": "05382000006836451", "bezeichnung": "Otto-Hahn-Straße" }, "geometry": { "type": "Point", "coordinates": [ 7.124667860845315, 50.81867887613479 ] } },
{ "type": "Feature", "properties": { "strassenschluessel": "05382000006836452", "bezeichnung": "Pastor-Willems-Straße" }, "geometry": { "type": "Point", "coordinates": [ 7.138527883757396, 50.814885070394354 ] } },
{ "type": "Feature", "properties": { "strassenschluessel": "05382000006836453", "bezeichnung": "Pestalozzistraße" }, "geometry": { "type": "Point", "coordinates": [ 7.136024596645592, 50.813200037961877 ] } },
{ "type": "Feature", "properties": { "strassenschluessel": "05382000006836454", "bezeichnung": "Piusstraße" }, "geometry": { "type": "Point", "coordinates": [ 7.140767927201003, 50.813623667583478 ] } },
{ "type": "Feature", "properties": { "strassenschluessel": "05382000006836455", "bezeichnung": "Posener Straße" }, "geometry": { "type": "Point", "coordinates": [ 7.135349738061961, 50.815137997602164 ] } },
{ "type": "Feature", "properties": { "strassenschluessel": "05382000006836456", "bezeichnung": "Schopenhauerstraße" }, "geometry": { "type": "Point", "coordinates": [ 7.13117729060551, 50.813409174928253 ] } },
{ "type": "Feature", "properties": { "strassenschluessel": "05382000006836457", "bezeichnung": "Schützenstraße" }, "geometry": { "type": "Point", "coordinates": [ 7.124851342343247, 50.813020555376617 ] } },
{ "type": "Feature", "properties": { "strassenschluessel": "05382000006836458", "bezeichnung": "Willy-Brandt-Ring" }, "geometry": null },
{ "type": "Feature", "properties": { "strassenschluessel": "05382000006836459", "bezeichnung": "Sieglarer Straße" }, "geometry": { "type": "Point", "coordinates": [ 7.140553865132565, 50.810665343320558 ] } },
{ "type": "Feature", "properties": { "strassenschluessel": "05382000006836460", "bezeichnung": "Stralsunder Straße" }, "geometry": { "type": "Point", "coordinates": [ 7.130415889452396, 50.814564991082399 ] } },
{ "type": "Feature", "properties": { "strassenschluessel": "05382000006836461", "bezeichnung": "von-Werth-Straße" }, "geometry": { "type": "Point", "coordinates": [ 7.137884704307522, 50.815162801444949 ] } },
{ "type": "Feature", "properties": { "strassenschluessel": "05382000006836462", "bezeichnung": "Wasserwerk" }, "geometry": null },
{ "type": "Feature", "properties": { "strassenschluessel": "05382000006836463", "bezeichnung": "Ziethenstraße" }, "geometry": { "type": "Point", "coordinates": [ 7.138843500874204, 50.815844756442765 ] } },
{ "type": "Feature", "properties": { "strassenschluessel": "05382000006836464", "bezeichnung": "Am Bahnhof" }, "geometry": { "type": "Point", "coordinates": [ 7.159545110181102, 50.802744720207293 ] } },
{ "type": "Feature", "properties": { "strassenschluessel": "05382000006836465", "bezeichnung": "Am Gerstenkamp" }, "geometry": { "type": "Point", "coordinates": [ 7.149839714161936, 50.7997922973477 ] } },
{ "type": "Feature", "properties": { "strassenschluessel": "05382000006836466", "bezeichnung": "Am Mühlengraben" }, "geometry": null },
{ "type": "Feature", "properties": { "strassenschluessel": "05382000006836467", "bezeichnung": "Am Sportplatz" }, "geometry": { "type": "Point", "coordinates": [ 7.147479937450494, 50.799292379077649 ] } },
{ "type": "Feature", "properties": { "strassenschluessel": "05382000006836468", "bezeichnung": "An der Kirche" }, "geometry": { "type": "Point", "coordinates": [ 7.153197544495395, 50.801601123739758 ] } },
{ "type": "Feature", "properties": { "strassenschluessel": "05382000006836469", "bezeichnung": "Anemonenweg" }, "geometry": { "type": "Point", "coordinates": [ 7.15148657913691, 50.803208648970475 ] } },
{ "type": "Feature", "properties": { "strassenschluessel": "05382000006836470", "bezeichnung": "Aurikelweg" }, "geometry": { "type": "Point", "coordinates": [ 7.152080219961586, 50.803301041648893 ] } },
{ "type": "Feature", "properties": { "strassenschluessel": "05382000006836471", "bezeichnung": "Azaleenplatz" }, "geometry": { "type": "Point", "coordinates": [ 7.149743739322414, 50.803161640213396 ] } },
{ "type": "Feature", "properties": { "strassenschluessel": "05382000006836472", "bezeichnung": "Bebelstraße" }, "geometry": { "type": "Point", "coordinates": [ 7.149475216851589, 50.80183683718748 ] } },
{ "type": "Feature", "properties": { "strassenschluessel": "05382000006836473", "bezeichnung": "Begonienstraße" }, "geometry": { "type": "Point", "coordinates": [ 7.149849239617895, 50.8050037755566 ] } },
{ "type": "Feature", "properties": { "strassenschluessel": "05382000006836474", "bezeichnung": "Bessemerstraße" }, "geometry": { "type": "Point", "coordinates": [ 7.157120359288363, 50.799765226506075 ] } },
{ "type": "Feature", "properties": { "strassenschluessel": "05382000006836475", "bezeichnung": "Beumerstraße" }, "geometry": { "type": "Point", "coordinates": [ 7.153877111931473, 50.800420823272347 ] } },
{ "type": "Feature", "properties": { "strassenschluessel": "05382000006836476", "bezeichnung": "Blumenhof" }, "geometry": { "type": "Point", "coordinates": [ 7.148650576882416, 50.806044541224708 ] } },
{ "type": "Feature", "properties": { "strassenschluessel": "05382000006836477", "bezeichnung": "Borsigstraße" }, "geometry": { "type": "Point", "coordinates": [ 7.145857140351976, 50.801098393316984 ] } },
{ "type": "Feature", "properties": { "strassenschluessel": "05382000006836478", "bezeichnung": "Bueckstraße" }, "geometry": { "type": "Point", "coordinates": [ 7.154653976092252, 50.800465459434079 ] } },
{ "type": "Feature", "properties": { "strassenschluessel": "05382000006836479", "bezeichnung": "Dahlienweg" }, "geometry": { "type": "Point", "coordinates": [ 7.15021664408428, 50.8056265469314 ] } },
{ "type": "Feature", "properties": { "strassenschluessel": "05382000006836480", "bezeichnung": "Dieselstraße" }, "geometry": { "type": "Point", "coordinates": [ 7.154101481091509, 50.799535064184838 ] } },
{ "type": "Feature", "properties": { "strassenschluessel": "05382000006836481", "bezeichnung": "Floraplatz" }, "geometry": { "type": "Point", "coordinates": [ 7.149245319082691, 50.803719411543568 ] } },
{ "type": "Feature", "properties": { "strassenschluessel": "05382000006836482", "bezeichnung": "Fraunhoferweg" }, "geometry": { "type": "Point", "coordinates": [ 7.153901066195211, 50.803123840087437 ] } },
{ "type": "Feature", "properties": { "strassenschluessel": "05382000006836483", "bezeichnung": "Fritz-Erler-Straße" }, "geometry": { "type": "Point", "coordinates": [ 7.145138956048777, 50.799686627956135 ] } },
{ "type": "Feature", "properties": { "strassenschluessel": "05382000006836484", "bezeichnung": "Gersbeckplatz" }, "geometry": null },
{ "type": "Feature", "properties": { "strassenschluessel": "05382000006836485", "bezeichnung": "Gilchriststraße" }, "geometry": { "type": "Point", "coordinates": [ 7.156444305042843, 50.799688572708689 ] } },
{ "type": "Feature", "properties": { "strassenschluessel": "05382000006836486", "bezeichnung": "Gladiolenstraße" }, "geometry": { "type": "Point", "coordinates": [ 7.147299760439915, 50.805073711535528 ] } },
{ "type": "Feature", "properties": { "strassenschluessel": "05382000006836487", "bezeichnung": "Heisenbergstraße" }, "geometry": { "type": "Point", "coordinates": [ 7.152564817231581, 50.799681793541808 ] } },
{ "type": "Feature", "properties": { "strassenschluessel": "05382000006836488", "bezeichnung": "Helmholtzstraße" }, "geometry": { "type": "Point", "coordinates": [ 7.156775625837867, 50.800320331622586 ] } },
{ "type": "Feature", "properties": { "strassenschluessel": "05382000006836489", "bezeichnung": "Henschelweg" }, "geometry": { "type": "Point", "coordinates": [ 7.153632753155808, 50.803746285534061 ] } },
{ "type": "Feature", "properties": { "strassenschluessel": "05382000006836490", "bezeichnung": "Hyazinthenfeld" }, "geometry": { "type": "Point", "coordinates": [ 7.150566400457405, 50.803097791898466 ] } },
{ "type": "Feature", "properties": { "strassenschluessel": "05382000006836492", "bezeichnung": "Im Grotten" }, "geometry": { "type": "Point", "coordinates": [ 7.156803547776819, 50.804053723245438 ] } },
{ "type": "Feature", "properties": { "strassenschluessel": "05382000006836493", "bezeichnung": "Im Hüttenfeld" }, "geometry": { "type": "Point", "coordinates": [ 7.149844026023938, 50.799275351048671 ] } },
{ "type": "Feature", "properties": { "strassenschluessel": "05382000006836494", "bezeichnung": "In den Hecken" }, "geometry": { "type": "Point", "coordinates": [ 7.148287496459888, 50.801512908693965 ] } },
{ "type": "Feature", "properties": { "strassenschluessel": "05382000006836495", "bezeichnung": "Jasminweg" }, "geometry": { "type": "Point", "coordinates": [ 7.148253081138646, 50.805601719580302 ] } },
{ "type": "Feature", "properties": { "strassenschluessel": "05382000006836497", "bezeichnung": "Kruppstraße" }, "geometry": { "type": "Point", "coordinates": [ 7.15561709359224, 50.80038545980446 ] } },
{ "type": "Feature", "properties": { "strassenschluessel": "05382000006836498", "bezeichnung": "Kurt-Schumacher-Straße" }, "geometry": { "type": "Point", "coordinates": [ 7.151030356384162, 50.799979182896422 ] } },
{ "type": "Feature", "properties": { "strassenschluessel": "05382000006836499", "bezeichnung": "Langenstraße" }, "geometry": { "type": "Point", "coordinates": [ 7.15358200886928, 50.798876674142257 ] } },
{ "type": "Feature", "properties": { "strassenschluessel": "05382000006836500", "bezeichnung": "Lavendelweg" }, "geometry": { "type": "Point", "coordinates": [ 7.149613843872209, 50.805209253581957 ] } },
{ "type": "Feature", "properties": { "strassenschluessel": "05382000006836501", "bezeichnung": "Lilienweg" }, "geometry": { "type": "Point", "coordinates": [ 7.151659435441916, 50.804358612285426 ] } },
{ "type": "Feature", "properties": { "strassenschluessel": "05382000006836502", "bezeichnung": "Lürmannstraße" }, "geometry": { "type": "Point", "coordinates": [ 7.154971798255947, 50.801223965580427 ] } },
{ "type": "Feature", "properties": { "strassenschluessel": "05382000006836503", "bezeichnung": "Lupinenweg" }, "geometry": { "type": "Point", "coordinates": [ 7.148186108338623, 50.803682344512055 ] } },
{ "type": "Feature", "properties": { "strassenschluessel": "05382000006836505", "bezeichnung": "Martinstraße" }, "geometry": { "type": "Point", "coordinates": [ 7.155217936386141, 50.799300437033146 ] } },
{ "type": "Feature", "properties": { "strassenschluessel": "05382000006836506", "bezeichnung": "Mendener Straße" }, "geometry": { "type": "Point", "coordinates": [ 7.158186852310153, 50.802078166592082 ] } },
{ "type": "Feature", "properties": { "strassenschluessel": "05382000006836507", "bezeichnung": "Narzissenhof" }, "geometry": { "type": "Point", "coordinates": [ 7.149983281728939, 50.806039552534607 ] } },
{ "type": "Feature", "properties": { "strassenschluessel": "05382000006836508", "bezeichnung": "Nelkenstraße" }, "geometry": { "type": "Point", "coordinates": [ 7.15110109928782, 50.804592881308125 ] } },
{ "type": "Feature", "properties": { "strassenschluessel": "05382000006836509", "bezeichnung": "Oleanderweg" }, "geometry": { "type": "Point", "coordinates": [ 7.148626510784012, 50.804401523969545 ] } },
{ "type": "Feature", "properties": { "strassenschluessel": "05382000006836510", "bezeichnung": "Orchideenplatz" }, "geometry": { "type": "Point", "coordinates": [ 7.149345135903546, 50.803855218106193 ] } },
{ "type": "Feature", "properties": { "strassenschluessel": "05382000006836511", "bezeichnung": "Pascalstraße" }, "geometry": { "type": "Point", "coordinates": [ 7.151223976250567, 50.798378046349626 ] } },
{ "type": "Feature", "properties": { "strassenschluessel": "05382000006836512", "bezeichnung": "Pfarrer-Wünnenberg-Straße" }, "geometry": { "type": "Point", "coordinates": [ 7.150633016225172, 50.802057030825459 ] } },
{ "type": "Feature", "properties": { "strassenschluessel": "05382000006836513", "bezeichnung": "Robert-Müller-Platz" }, "geometry": { "type": "Point", "coordinates": [ 7.157326345814218, 50.800428765761033 ] } },
{ "type": "Feature", "properties": { "strassenschluessel": "05382000006836515", "bezeichnung": "Roncallistraße" }, "geometry": { "type": "Point", "coordinates": [ 7.154860027081126, 50.802637425488768 ] } },
{ "type": "Feature", "properties": { "strassenschluessel": "05382000006836517", "bezeichnung": "Siemensstraße" }, "geometry": { "type": "Point", "coordinates": [ 7.156970822312123, 50.800085846752708 ] } },
{ "type": "Feature", "properties": { "strassenschluessel": "05382000006836518", "bezeichnung": "Thomasstraße" }, "geometry": { "type": "Point", "coordinates": [ 7.155969838369801, 50.799172664317304 ] } },
{ "type": "Feature", "properties": { "strassenschluessel": "05382000006836520", "bezeichnung": "Veilchenweg" }, "geometry": { "type": "Point", "coordinates": [ 7.149624924267964, 50.803453526892724 ] } },
{ "type": "Feature", "properties": { "strassenschluessel": "05382000006836521", "bezeichnung": "Wattstraße" }, "geometry": { "type": "Point", "coordinates": [ 7.154553399040371, 50.799110372372816 ] } },
{ "type": "Feature", "properties": { "strassenschluessel": "05382000006836522", "bezeichnung": "Westend" }, "geometry": { "type": "Point", "coordinates": [ 7.145675970817414, 50.800903577266432 ] } },
{ "type": "Feature", "properties": { "strassenschluessel": "05382000006836523", "bezeichnung": "Windgassenplatz" }, "geometry": { "type": "Point", "coordinates": [ 7.154543448062113, 50.799845606469511 ] } },
{ "type": "Feature", "properties": { "strassenschluessel": "05382000006836524", "bezeichnung": "Windthorststraße" }, "geometry": { "type": "Point", "coordinates": [ 7.145345896359101, 50.797552328155213 ] } },
{ "type": "Feature", "properties": { "strassenschluessel": "05382000006836525", "bezeichnung": "Am Feldgarten" }, "geometry": { "type": "Point", "coordinates": [ 7.094677953084778, 50.775812688429575 ] } },