{
"type": "FeatureCollection",
"features": [
{ "type": "Feature", "properties": { "strassenschluessel": "05154000005655501", "bezeichnung": "An der Delle" }, "geometry": null },
{ "type": "Feature", "properties": { "strassenschluessel": "05154000005655502", "bezeichnung": "Adolf-Kolping-Straße" }, "geometry": { "type": "Point", "coordinates": [ 6.265371905423255, 51.663782439631994 ] } },
{ "type": "Feature", "properties": { "strassenschluessel": "05154000005655503", "bezeichnung": "Agathawall" }, "geometry": { "type": "Point", "coordinates": [ 6.272447573100038, 51.6668283623696 ] } },
{ "type": "Feature", "properties": { "strassenschluessel": "05154000005655504", "bezeichnung": "Alter Grüner Weg" }, "geometry": { "type": "Point", "coordinates": [ 6.268568559004946, 51.663730198015713 ] } },
{ "type": "Feature", "properties": { "strassenschluessel": "05154000005655505", "bezeichnung": "Alex-Devries-Straße" }, "geometry": { "type": "Point", "coordinates": [ 6.264229611863269, 51.666904767107901 ] } },
{ "type": "Feature", "properties": { "strassenschluessel": "05154000005655506", "bezeichnung": "Am Kirchenhecken" }, "geometry": { "type": "Point", "coordinates": [ 6.264809485587023, 51.666703913728981 ] } },
{ "type": "Feature", "properties": { "strassenschluessel": "05154000005655507", "bezeichnung": "Industriestraße" }, "geometry": { "type": "Point", "coordinates": [ 6.266357845587175, 51.657207475930406 ] } },
{ "type": "Feature", "properties": { "strassenschluessel": "05154000005655509", "bezeichnung": "Am Lohstück" }, "geometry": { "type": "Point", "coordinates": [ 6.276147815233604, 51.665182964973965 ] } },
{ "type": "Feature", "properties": { "strassenschluessel": "05154000005655510", "bezeichnung": "Am Mollenacker" }, "geometry": { "type": "Point", "coordinates": [ 6.266596815377764, 51.667094421883625 ] } },
{ "type": "Feature", "properties": { "strassenschluessel": "05154000005655511", "bezeichnung": "Am Peddenschlag" }, "geometry": null },
{ "type": "Feature", "properties": { "strassenschluessel": "05154000005655512", "bezeichnung": "Am Roten Berg" }, "geometry": { "type": "Point", "coordinates": [ 6.284703641749819, 51.66509772443743 ] } },
{ "type": "Feature", "properties": { "strassenschluessel": "05154000005655513", "bezeichnung": "An der Bockmühle" }, "geometry": { "type": "Point", "coordinates": [ 6.271779587645502, 51.673040640333326 ] } },
{ "type": "Feature", "properties": { "strassenschluessel": "05154000005655515", "bezeichnung": "Augustinerstraße" }, "geometry": { "type": "Point", "coordinates": [ 6.272061281586722, 51.669165251022235 ] } },
{ "type": "Feature", "properties": { "strassenschluessel": "05154000005655518", "bezeichnung": "Bahnhofstraße" }, "geometry": { "type": "Point", "coordinates": [ 6.265088137483525, 51.662165652520684 ] } },
{ "type": "Feature", "properties": { "strassenschluessel": "05154000005655521", "bezeichnung": "Bergstraße" }, "geometry": { "type": "Point", "coordinates": [ 6.283381739691369, 51.665831177149961 ] } },
{ "type": "Feature", "properties": { "strassenschluessel": "05154000005655523", "bezeichnung": "Boxteler Bahn" }, "geometry": null },
{ "type": "Feature", "properties": { "strassenschluessel": "05154000005655524", "bezeichnung": "Brunnenstraße" }, "geometry": { "type": "Point", "coordinates": [ 6.271604830450853, 51.665150458927783 ] } },
{ "type": "Feature", "properties": { "strassenschluessel": "05154000005655527", "bezeichnung": "Buchenweg" }, "geometry": { "type": "Point", "coordinates": [ 6.271281045212018, 51.670902653514148 ] } },
{ "type": "Feature", "properties": { "strassenschluessel": "05154000005655530", "bezeichnung": "Bünnert" }, "geometry": { "type": "Point", "coordinates": [ 6.252715774772526, 51.678787179697935 ] } },
{ "type": "Feature", "properties": { "strassenschluessel": "05154000005655533", "bezeichnung": "Burgwall" }, "geometry": { "type": "Point", "coordinates": [ 6.270790690031756, 51.667230391582962 ] } },
{ "type": "Feature", "properties": { "strassenschluessel": "05154000005655536", "bezeichnung": "Crispinusstraße" }, "geometry": { "type": "Point", "coordinates": [ 6.273440180299972, 51.671067490353686 ] } },
{ "type": "Feature", "properties": { "strassenschluessel": "05154000005655537", "bezeichnung": "Crispinusweg" }, "geometry": { "type": "Point", "coordinates": [ 6.275086270583612, 51.670534240480123 ] } },
{ "type": "Feature", "properties": { "strassenschluessel": "05154000005655538", "bezeichnung": "Dr.-Willem-Pies-Straße" }, "geometry": { "type": "Point", "coordinates": [ 6.286411818811878, 51.663828919762103 ] } },
{ "type": "Feature", "properties": { "strassenschluessel": "05154000005655539", "bezeichnung": "Fichtenweg" }, "geometry": { "type": "Point", "coordinates": [ 6.280354051892579, 51.662437004279283 ] } },
{ "type": "Feature", "properties": { "strassenschluessel": "05154000005655542", "bezeichnung": "Friedensstraße" }, "geometry": { "type": "Point", "coordinates": [ 6.281518107146672, 51.664926718427971 ] } },
{ "type": "Feature", "properties": { "strassenschluessel": "05154000005655545", "bezeichnung": "Gartenring" }, "geometry": { "type": "Point", "coordinates": [ 6.276507350564211, 51.663232617608024 ] } },
{ "type": "Feature", "properties": { "strassenschluessel": "05154000005655548", "bezeichnung": "Gartenstraße" }, "geometry": { "type": "Point", "coordinates": [ 6.278417708907383, 51.662012904615779 ] } },
{ "type": "Feature", "properties": { "strassenschluessel": "05154000005655549", "bezeichnung": "Gerberweg" }, "geometry": { "type": "Point", "coordinates": [ 6.275902281999085, 51.670419965222962 ] } },
{ "type": "Feature", "properties": { "strassenschluessel": "05154000005655551", "bezeichnung": "Gocher Straße" }, "geometry": { "type": "Point", "coordinates": [ 6.264011029200223, 51.666105327832597 ] } },
{ "type": "Feature", "properties": { "strassenschluessel": "05154000005655554", "bezeichnung": "Graf-Johann-Wall" }, "geometry": { "type": "Point", "coordinates": [ 6.274948257411274, 51.668044886564587 ] } },
{ "type": "Feature", "properties": { "strassenschluessel": "05154000005655557", "bezeichnung": "Grüner Weg" }, "geometry": { "type": "Point", "coordinates": [ 6.270493424497271, 51.664375927204595 ] } },
{ "type": "Feature", "properties": { "strassenschluessel": "05154000005655559", "bezeichnung": "Heeregrass" }, "geometry": { "type": "Point", "coordinates": [ 6.268691057922166, 51.669017558933547 ] } },
{ "type": "Feature", "properties": { "strassenschluessel": "05154000005655560", "bezeichnung": "Gustav-Adolf-Straße" }, "geometry": { "type": "Point", "coordinates": [ 6.266056061951648, 51.664365106352378 ] } },
{ "type": "Feature", "properties": { "strassenschluessel": "05154000005655561", "bezeichnung": "Heinrich-Raescop-Straße" }, "geometry": { "type": "Point", "coordinates": [ 6.264711672994641, 51.664813963948752 ] } },
{ "type": "Feature", "properties": { "strassenschluessel": "05154000005655562", "bezeichnung": "Heinrich-Tillmann-Straße" }, "geometry": { "type": "Point", "coordinates": [ 6.262834968684882, 51.665192104506588 ] } },
{ "type": "Feature", "properties": { "strassenschluessel": "05154000005655563", "bezeichnung": "Hosenmarkt" }, "geometry": { "type": "Point", "coordinates": [ 6.27087672105753, 51.667835985157033 ] } },
{ "type": "Feature", "properties": { "strassenschluessel": "05154000005655564", "bezeichnung": "In der Loh" }, "geometry": { "type": "Point", "coordinates": [ 6.27955916997953, 51.66571233109061 ] } },
{ "type": "Feature", "properties": { "strassenschluessel": "05154000005655565", "bezeichnung": "Katzenberg" }, "geometry": { "type": "Point", "coordinates": [ 6.285496622501038, 51.669372280802953 ] } },
{ "type": "Feature", "properties": { "strassenschluessel": "05154000005655566", "bezeichnung": "Keppelner Straße" }, "geometry": { "type": "Point", "coordinates": [ 6.270618412988407, 51.670396634407567 ] } },
{ "type": "Feature", "properties": { "strassenschluessel": "05154000005655567", "bezeichnung": "Horlemannplatz" }, "geometry": { "type": "Point", "coordinates": [ 6.25850422356472, 51.660057945955131 ] } },
{ "type": "Feature", "properties": { "strassenschluessel": "05154000005655569", "bezeichnung": "Kervenheimer Straße" }, "geometry": { "type": "Point", "coordinates": [ 6.275867915618226, 51.660763401462773 ] } },
{ "type": "Feature", "properties": { "strassenschluessel": "05154000005655572", "bezeichnung": "Kettelerstraße" }, "geometry": { "type": "Point", "coordinates": [ 6.27685830417242, 51.662401592944121 ] } },
{ "type": "Feature", "properties": { "strassenschluessel": "05154000005655574", "bezeichnung": "Kiefernweg" }, "geometry": { "type": "Point", "coordinates": [ 6.280804616764095, 51.661683626656767 ] } },
{ "type": "Feature", "properties": { "strassenschluessel": "05154000005655575", "bezeichnung": "Kirselstraße" }, "geometry": { "type": "Point", "coordinates": [ 6.279860962382091, 51.671969981914629 ] } },
{ "type": "Feature", "properties": { "strassenschluessel": "05154000005655576", "bezeichnung": "Kirsel" }, "geometry": { "type": "Point", "coordinates": [ 6.282351975267403, 51.672718999470888 ] } },
{ "type": "Feature", "properties": { "strassenschluessel": "05154000005655577", "bezeichnung": "Kirselfeld" }, "geometry": { "type": "Point", "coordinates": [ 6.279168768487406, 51.67066425491187 ] } },
{ "type": "Feature", "properties": { "strassenschluessel": "05154000005655578", "bezeichnung": "Kleinbergsbäumchen" }, "geometry": { "type": "Point", "coordinates": [ 6.284797779293341, 51.66604931441119 ] } },
{ "type": "Feature", "properties": { "strassenschluessel": "05154000005655581", "bezeichnung": "Klosterfeld" }, "geometry": { "type": "Point", "coordinates": [ 6.266343467697988, 51.665314947632822 ] } },
{ "type": "Feature", "properties": { "strassenschluessel": "05154000005655584", "bezeichnung": "Laurentiusstraße" }, "geometry": { "type": "Point", "coordinates": [ 6.271936884694958, 51.667580662359569 ] } },
{ "type": "Feature", "properties": { "strassenschluessel": "05154000005655587", "bezeichnung": "Lerchenweg" }, "geometry": { "type": "Point", "coordinates": [ 6.276381844970971, 51.661319382830797 ] } },
{ "type": "Feature", "properties": { "strassenschluessel": "05154000005655590", "bezeichnung": "Lohberg" }, "geometry": { "type": "Point", "coordinates": [ 6.279482923888213, 51.664366106609265 ] } },
{ "type": "Feature", "properties": { "strassenschluessel": "05154000005655593", "bezeichnung": "Lohfeldstraße" }, "geometry": { "type": "Point", "coordinates": [ 6.279529525823, 51.665358268351341 ] } },
{ "type": "Feature", "properties": { "strassenschluessel": "05154000005655596", "bezeichnung": "Lohstraße" }, "geometry": { "type": "Point", "coordinates": [ 6.27450389480753, 51.666991628526262 ] } },
{ "type": "Feature", "properties": { "strassenschluessel": "05154000005655599", "bezeichnung": "Marienstraße" }, "geometry": { "type": "Point", "coordinates": [ 6.276415909340442, 51.67120879637239 ] } },
{ "type": "Feature", "properties": { "strassenschluessel": "05154000005655602", "bezeichnung": "Markt" }, "geometry": { "type": "Point", "coordinates": [ 6.273920781623258, 51.66879779592746 ] } },
{ "type": "Feature", "properties": { "strassenschluessel": "05154000005655605", "bezeichnung": "Meursfeldstraße" }, "geometry": { "type": "Point", "coordinates": [ 6.274081605310336, 51.664288812638809 ] } },
{ "type": "Feature", "properties": { "strassenschluessel": "05154000005655608", "bezeichnung": "Molkereistraße" }, "geometry": { "type": "Point", "coordinates": [ 6.268631179571925, 51.658532888585164 ] } },
{ "type": "Feature", "properties": { "strassenschluessel": "05154000005655611", "bezeichnung": "Mollenackerstraße" }, "geometry": { "type": "Point", "coordinates": [ 6.268124222078938, 51.667032507542707 ] } },
{ "type": "Feature", "properties": { "strassenschluessel": "05154000005655614", "bezeichnung": "Mosterstraße" }, "geometry": { "type": "Point", "coordinates": [ 6.270938201450439, 51.666760872508689 ] } },
{ "type": "Feature", "properties": { "strassenschluessel": "05154000005655617", "bezeichnung": "Mühlenstraße" }, "geometry": { "type": "Point", "coordinates": [ 6.28288744194766, 51.67092724089445 ] } },
{ "type": "Feature", "properties": { "strassenschluessel": "05154000005655618", "bezeichnung": "Mühlhoffstraße" }, "geometry": { "type": "Point", "coordinates": [ 6.261131472613636, 51.662420756161303 ] } },
{ "type": "Feature", "properties": { "strassenschluessel": "05154000005655620", "bezeichnung": "Neustraße" }, "geometry": { "type": "Point", "coordinates": [ 6.273065815727693, 51.669396602255574 ] } },
{ "type": "Feature", "properties": { "strassenschluessel": "05154000005655623", "bezeichnung": "Niedermühlenweg" }, "geometry": { "type": "Point", "coordinates": [ 6.271618264978151, 51.671692810407706 ] } },
{ "type": "Feature", "properties": { "strassenschluessel": "05154000005655626", "bezeichnung": "Nordwall" }, "geometry": { "type": "Point", "coordinates": [ 6.271865778066929, 51.670430984472091 ] } },
{ "type": "Feature", "properties": { "strassenschluessel": "05154000005655629", "bezeichnung": "Ostwall" }, "geometry": { "type": "Point", "coordinates": [ 6.275637367587513, 51.667039294535968 ] } },
{ "type": "Feature", "properties": { "strassenschluessel": "05154000005655632", "bezeichnung": "Pannekuk" }, "geometry": { "type": "Point", "coordinates": [ 6.263959330152014, 51.663690366523731 ] } },
{ "type": "Feature", "properties": { "strassenschluessel": "05154000005655635", "bezeichnung": "Pastoratsstraße" }, "geometry": { "type": "Point", "coordinates": [ 6.270122407333237, 51.668593621001911 ] } },
{ "type": "Feature", "properties": { "strassenschluessel": "05154000005655636", "bezeichnung": "Pastor-Frankeser-Straße" }, "geometry": { "type": "Point", "coordinates": [ 6.261887932848541, 51.663388542579597 ] } },
{ "type": "Feature", "properties": { "strassenschluessel": "05154000005655637", "bezeichnung": "Rother Berg" }, "geometry": { "type": "Point", "coordinates": [ 6.285965563961355, 51.661689148868199 ] } },
{ "type": "Feature", "properties": { "strassenschluessel": "05154000005655638", "bezeichnung": "Schulweg" }, "geometry": { "type": "Point", "coordinates": [ 6.273603557972119, 51.666057189682704 ] } },
{ "type": "Feature", "properties": { "strassenschluessel": "05154000005655639", "bezeichnung": "Schusterstraße" }, "geometry": { "type": "Point", "coordinates": [ 6.274872434259859, 51.67316464131158 ] } },
{ "type": "Feature", "properties": { "strassenschluessel": "05154000005655641", "bezeichnung": "Stadtweg-Nord" }, "geometry": { "type": "Point", "coordinates": [ 6.274798309932002, 51.669770042513832 ] } },
{ "type": "Feature", "properties": { "strassenschluessel": "05154000005655644", "bezeichnung": "Stadtweg-Ost" }, "geometry": { "type": "Point", "coordinates": [ 6.275147694702451, 51.668752670787768 ] } },
{ "type": "Feature", "properties": { "strassenschluessel": "05154000005655647", "bezeichnung": "Stadtweg-Süd" }, "geometry": { "type": "Point", "coordinates": [ 6.271428173779682, 51.666277981669914 ] } },
{ "type": "Feature", "properties": { "strassenschluessel": "05154000005655650", "bezeichnung": "Stadtweg-West" }, "geometry": { "type": "Point", "coordinates": [ 6.270420622368079, 51.666755573346798 ] } },
{ "type": "Feature", "properties": { "strassenschluessel": "05154000005655651", "bezeichnung": "Stefan-von Hertefeld-Str." }, "geometry": { "type": "Point", "coordinates": [ 6.26516259077958, 51.665301891204578 ] } },
{ "type": "Feature", "properties": { "strassenschluessel": "05154000005655653", "bezeichnung": "Südwall" }, "geometry": { "type": "Point", "coordinates": [ 6.270564997289435, 51.666227854686092 ] } },
{ "type": "Feature", "properties": { "strassenschluessel": "05154000005655656", "bezeichnung": "Tannenweg" }, "geometry": { "type": "Point", "coordinates": [ 6.28018784486967, 51.661737238860646 ] } },
{ "type": "Feature", "properties": { "strassenschluessel": "05154000005655659", "bezeichnung": "Thelenweg" }, "geometry": { "type": "Point", "coordinates": [ 6.283014996573806, 51.665017338328745 ] } },
{ "type": "Feature", "properties": { "strassenschluessel": "05154000005655661", "bezeichnung": "Tönishang" }, "geometry": { "type": "Point", "coordinates": [ 6.284051091960606, 51.670049009639776 ] } },
{ "type": "Feature", "properties": { "strassenschluessel": "05154000005655662", "bezeichnung": "Tönisstraße" }, "geometry": { "type": "Point", "coordinates": [ 6.281802028370453, 51.667025962924768 ] } },
{ "type": "Feature", "properties": { "strassenschluessel": "05154000005655663", "bezeichnung": "Tönisweg" }, "geometry": { "type": "Point", "coordinates": [ 6.281335915108544, 51.669495621545558 ] } },
{ "type": "Feature", "properties": { "strassenschluessel": "05154000005655665", "bezeichnung": "Turmwall" }, "geometry": { "type": "Point", "coordinates": [ 6.272380153604356, 51.669563775566921 ] } },
{ "type": "Feature", "properties": { "strassenschluessel": "05154000005655668", "bezeichnung": "Viehstraße" }, "geometry": { "type": "Point", "coordinates": [ 6.271281095948705, 51.668742834886075 ] } },
{ "type": "Feature", "properties": { "strassenschluessel": "05154000005655671", "bezeichnung": "Weberplatz" }, "geometry": { "type": "Point", "coordinates": [ 6.271434681097707, 51.667601897132428 ] } },
{ "type": "Feature", "properties": { "strassenschluessel": "05154000005655674", "bezeichnung": "Weezer Straße" }, "geometry": { "type": "Point", "coordinates": [ 6.262323673097635, 51.66115039115968 ] } },
{ "type": "Feature", "properties": { "strassenschluessel": "05154000005655677", "bezeichnung": "Wellesweg" }, "geometry": { "type": "Point", "coordinates": [ 6.266831688332789, 51.660854440914797 ] } },
{ "type": "Feature", "properties": { "strassenschluessel": "05154000005655680", "bezeichnung": "Westwall" }, "geometry": { "type": "Point", "coordinates": [ 6.269862383979327, 51.667133830000019 ] } },
{ "type": "Feature", "properties": { "strassenschluessel": "05154000005655700", "bezeichnung": "Am Hochwald" }, "geometry": null },
{ "type": "Feature", "properties": { "strassenschluessel": "05154000005655701", "bezeichnung": "Am Welleshof" }, "geometry": null },
{ "type": "Feature", "properties": { "strassenschluessel": "05154000005655702", "bezeichnung": "An der Ley" }, "geometry": null },
{ "type": "Feature", "properties": { "strassenschluessel": "05154000005655704", "bezeichnung": "An der Disserei" }, "geometry": { "type": "Point", "coordinates": [ 6.26977168524222, 51.657364235202287 ] } },
{ "type": "Feature", "properties": { "strassenschluessel": "05154000005655705", "bezeichnung": "Am Steinberger Feld" }, "geometry": null },
{ "type": "Feature", "properties": { "strassenschluessel": "05154000005655706", "bezeichnung": "Bergstraße" }, "geometry": { "type": "Point", "coordinates": [ 6.28961311645811, 51.65916438333219 ] } },
{ "type": "Feature", "properties": { "strassenschluessel": "05154000005655708", "bezeichnung": "Boxteler Bahn" }, "geometry": null },
{ "type": "Feature", "properties": { "strassenschluessel": "05154000005655709", "bezeichnung": "Dellweg" }, "geometry": { "type": "Point", "coordinates": [ 6.303889918422355, 51.685072185585518 ] } },
{ "type": "Feature", "properties": { "strassenschluessel": "05154000005655712", "bezeichnung": "Gocher Straße" }, "geometry": { "type": "Point", "coordinates": [ 6.242863470406803, 51.66707619744426 ] } },
{ "type": "Feature", "properties": { "strassenschluessel": "05154000005655713", "bezeichnung": "Haus Kolk" }, "geometry": { "type": "Point", "coordinates": [ 6.299532218101188, 51.663287352878015 ] } },
{ "type": "Feature", "properties": { "strassenschluessel": "05154000005655715", "bezeichnung": "Hoppenweg" }, "geometry": { "type": "Point", "coordinates": [ 6.274354589763458, 51.680974625722641 ] } },
{ "type": "Feature", "properties": { "strassenschluessel": "05154000005655718", "bezeichnung": "Kirsel" }, "geometry": { "type": "Point", "coordinates": [ 6.293689981436709, 51.682694072675744 ] } },
{ "type": "Feature", "properties": { "strassenschluessel": "05154000005655721", "bezeichnung": "Mühlenstraße" }, "geometry": { "type": "Point", "coordinates": [ 6.306554539946872, 51.680068645088703 ] } },
{ "type": "Feature", "properties": { "strassenschluessel": "05154000005655724", "bezeichnung": "Perselstraße" }, "geometry": { "type": "Point", "coordinates": [ 6.278200210448134, 51.67575611449876 ] } },
{ "type": "Feature", "properties": { "strassenschluessel": "05154000005655727", "bezeichnung": "Steinbergen" }, "geometry": { "type": "Point", "coordinates": [ 6.250414915223556, 51.659664055369475 ] } },
{ "type": "Feature", "properties": { "strassenschluessel": "05154000005655730", "bezeichnung": "Uedemerfelder Weg" }, "geometry": { "type": "Point", "coordinates": [ 6.316516657756458, 51.678314862237926 ] } },
{ "type": "Feature", "properties": { "strassenschluessel": "05154000005655803", "bezeichnung": "Am Beginnenkamp" }, "geometry": { "type": "Point", "coordinates": [ 6.267599908101777, 51.6869795350595 ] } },
{ "type": "Feature", "properties": { "strassenschluessel": "05154000005655804", "bezeichnung": "Am Geijtenhögel" }, "geometry": { "type": "Point", "coordinates": [ 6.261121308200749, 51.689343410588002 ] } },
{ "type": "Feature", "properties": { "strassenschluessel": "05154000005655805", "bezeichnung": "Am Kirchfeld" }, "geometry": { "type": "Point", "coordinates": [ 6.263988678531484, 51.689275545904131 ] } },
{ "type": "Feature", "properties": { "strassenschluessel": "05154000005655806", "bezeichnung": "Am Lindchen" }, "geometry": { "type": "Point", "coordinates": [ 6.236162756164039, 51.703393795604775 ] } },
{ "type": "Feature", "properties": { "strassenschluessel": "05154000005655808", "bezeichnung": "Am Rickenhof" }, "geometry": { "type": "Point", "coordinates": [ 6.266585075978266, 51.689152789593386 ] } },
{ "type": "Feature", "properties": { "strassenschluessel": "05154000005655809", "bezeichnung": "Biesenweg" }, "geometry": { "type": "Point", "coordinates": [ 6.290797554537014, 51.690129654194727 ] } },
{ "type": "Feature", "properties": { "strassenschluessel": "05154000005655810", "bezeichnung": "Beginnenfeld" }, "geometry": { "type": "Point", "coordinates": [ 6.266124841030847, 51.685884004354286 ] } },
{ "type": "Feature", "properties": { "strassenschluessel": "05154000005655812", "bezeichnung": "Buchholter Straße" }, "geometry": { "type": "Point", "coordinates": [ 6.239396451395637, 51.673682275126602 ] } },
{ "type": "Feature", "properties": { "strassenschluessel": "05154000005655815", "bezeichnung": "Delsenweg" }, "geometry": { "type": "Point", "coordinates": [ 6.307574547613582, 51.692357950099336 ] } },
{ "type": "Feature", "properties": { "strassenschluessel": "05154000005655818", "bezeichnung": "Dorfstraße" }, "geometry": { "type": "Point", "coordinates": [ 6.267363375034699, 51.68999814059093 ] } },
{ "type": "Feature", "properties": { "strassenschluessel": "05154000005655821", "bezeichnung": "Friedhofsweg" }, "geometry": { "type": "Point", "coordinates": [ 6.264094539046783, 51.689821778474581 ] } },
{ "type": "Feature", "properties": { "strassenschluessel": "05154000005655824", "bezeichnung": "Grenzstraße" }, "geometry": { "type": "Point", "coordinates": [ 6.285849371355805, 51.701207669875785 ] } },
{ "type": "Feature", "properties": { "strassenschluessel": "05154000005655827", "bezeichnung": "Großackersweg" }, "geometry": { "type": "Point", "coordinates": [ 6.225903713845195, 51.705686281399473 ] } },
{ "type": "Feature", "properties": { "strassenschluessel": "05154000005655830", "bezeichnung": "Hardtscher Weg" }, "geometry": { "type": "Point", "coordinates": [ 6.286341236049283, 51.693004573654953 ] } },
{ "type": "Feature", "properties": { "strassenschluessel": "05154000005655833", "bezeichnung": "Heideweg" }, "geometry": { "type": "Point", "coordinates": [ 6.26581103249808, 51.713494761045077 ] } },
{ "type": "Feature", "properties": { "strassenschluessel": "05154000005655836", "bezeichnung": "Herringscher Weg" }, "geometry": { "type": "Point", "coordinates": [ 6.230715967930006, 51.672374903609011 ] } },
{ "type": "Feature", "properties": { "strassenschluessel": "05154000005655839", "bezeichnung": "Hoffmannsweg" }, "geometry": { "type": "Point", "coordinates": [ 6.248753996936233, 51.704529054366361 ] } },
{ "type": "Feature", "properties": { "strassenschluessel": "05154000005655842", "bezeichnung": "Im Heidkamp" }, "geometry": { "type": "Point", "coordinates": [ 6.248252624747326, 51.70989205098941 ] } },
{ "type": "Feature", "properties": { "strassenschluessel": "05154000005655845", "bezeichnung": "Im Hollen" }, "geometry": { "type": "Point", "coordinates": [ 6.245708789413277, 51.690497374730612 ] } },
{ "type": "Feature", "properties": { "strassenschluessel": "05154000005655846", "bezeichnung": "Im Lindental" }, "geometry": { "type": "Point", "coordinates": [ 6.265806619537433, 51.688579330060406 ] } },
{ "type": "Feature", "properties": { "strassenschluessel": "05154000005655848", "bezeichnung": "Kalkarer Straße" }, "geometry": { "type": "Point", "coordinates": [ 6.267011369251348, 51.699135824711689 ] } },
{ "type": "Feature", "properties": { "strassenschluessel": "05154000005655851", "bezeichnung": "Klever Straße" }, "geometry": { "type": "Point", "coordinates": [ 6.268358043752675, 51.678665120051441 ] } },
{ "type": "Feature", "properties": { "strassenschluessel": "05154000005655854", "bezeichnung": "Kühnenstraße" }, "geometry": { "type": "Point", "coordinates": [ 6.233360345555556, 51.697401818433462 ] } },
{ "type": "Feature", "properties": { "strassenschluessel": "05154000005655857", "bezeichnung": "Landwehr" }, "geometry": { "type": "Point", "coordinates": [ 6.222722452686024, 51.684222136986278 ] } },
{ "type": "Feature", "properties": { "strassenschluessel": "05154000005655860", "bezeichnung": "Läpperstraße" }, "geometry": { "type": "Point", "coordinates": [ 6.257965237595871, 51.709497275277513 ] } },
{ "type": "Feature", "properties": { "strassenschluessel": "05154000005655863", "bezeichnung": "Loefscher Weg" }, "geometry": { "type": "Point", "coordinates": [ 6.274002393042321, 51.706878720467962 ] } },
{ "type": "Feature", "properties": { "strassenschluessel": "05154000005655866", "bezeichnung": "Rennstraße" }, "geometry": { "type": "Point", "coordinates": [ 6.241728623280606, 51.680778825546732 ] } },
{ "type": "Feature", "properties": { "strassenschluessel": "05154000005655869", "bezeichnung": "Reutersweg" }, "geometry": { "type": "Point", "coordinates": [ 6.231082279320059, 51.669451584334894 ] } },
{ "type": "Feature", "properties": { "strassenschluessel": "05154000005655871", "bezeichnung": "Rickenkamp" }, "geometry": { "type": "Point", "coordinates": [ 6.26257399809981, 51.687536998705944 ] } },
{ "type": "Feature", "properties": { "strassenschluessel": "05154000005655872", "bezeichnung": "Rickenstraße" }, "geometry": { "type": "Point", "coordinates": [ 6.266972282834326, 51.68836170723533 ] } },
{ "type": "Feature", "properties": { "strassenschluessel": "05154000005655875", "bezeichnung": "Rickenwiese" }, "geometry": { "type": "Point", "coordinates": [ 6.264830041945477, 51.687753757705607 ] } },
{ "type": "Feature", "properties": { "strassenschluessel": "05154000005655878", "bezeichnung": "Rosenstraße" }, "geometry": { "type": "Point", "coordinates": [ 6.26859173222527, 51.690264495928034 ] } },
{ "type": "Feature", "properties": { "strassenschluessel": "05154000005655881", "bezeichnung": "Schafheider Weg" }, "geometry": { "type": "Point", "coordinates": [ 6.246681670440072, 51.67939240571846 ] } },
{ "type": "Feature", "properties": { "strassenschluessel": "05154000005655884", "bezeichnung": "Steinstraße" }, "geometry": { "type": "Point", "coordinates": [ 6.265773147747712, 51.690305234461235 ] } },
{ "type": "Feature", "properties": { "strassenschluessel": "05154000005655887", "bezeichnung": "Tackenstraße" }, "geometry": { "type": "Point", "coordinates": [ 6.275255477528608, 51.69930527529305 ] } },
{ "type": "Feature", "properties": { "strassenschluessel": "05154000005655890", "bezeichnung": "Totenhügel" }, "geometry": { "type": "Point", "coordinates": [ 6.313847847689261, 51.695868602009682 ] } },
{ "type": "Feature", "properties": { "strassenschluessel": "05154000005655891", "bezeichnung": "Uedemer Straße" }, "geometry": null },
{ "type": "Feature", "properties": { "strassenschluessel": "05154000005655893", "bezeichnung": "Verkältstraße" }, "geometry": { "type": "Point", "coordinates": [ 6.25697086595325, 51.694472234285676 ] } },
{ "type": "Feature", "properties": { "strassenschluessel": "05154000005655901", "bezeichnung": "Albersfeld" }, "geometry": { "type": "Point", "coordinates": [ 6.324959115889793, 51.652203316080396 ] } },
{ "type": "Feature", "properties": { "strassenschluessel": "05154000005655903", "bezeichnung": "Am Bahndamm" }, "geometry": { "type": "Point", "coordinates": [ 6.321932005296172, 51.654518630260114 ] } },
{ "type": "Feature", "properties": { "strassenschluessel": "05154000005655906", "bezeichnung": "Am Hochwald" }, "geometry": { "type": "Point", "coordinates": [ 6.326950487302869, 51.689410160440147 ] } },
{ "type": "Feature", "properties": { "strassenschluessel": "05154000005655909", "bezeichnung": "An der Ley" }, "geometry": { "type": "Point", "coordinates": [ 6.321380573675506, 51.68164333680415 ] } },
{ "type": "Feature", "properties": { "strassenschluessel": "05154000005655912", "bezeichnung": "Betteraysstraße" }, "geometry": { "type": "Point", "coordinates": [ 6.310893335399895, 51.649792884948525 ] } },
{ "type": "Feature", "properties": { "strassenschluessel": "05154000005655915", "bezeichnung": "Bohnenstraße" }, "geometry": { "type": "Point", "coordinates": [ 6.329088801397979, 51.652664352315924 ] } },
{ "type": "Feature", "properties": { "strassenschluessel": "05154000005655918", "bezeichnung": "Dorf" }, "geometry": { "type": "Point", "coordinates": [ 6.32499792701392, 51.654037458446155 ] } },
{ "type": "Feature", "properties": { "strassenschluessel": "05154000005655921", "bezeichnung": "Gellinger Straße" }, "geometry": { "type": "Point", "coordinates": [ 6.326107502636519, 51.673081764451432 ] } },
{ "type": "Feature", "properties": { "strassenschluessel": "05154000005655923", "bezeichnung": "Haus Kolk" }, "geometry": { "type": "Point", "coordinates": [ 6.300374862642539, 51.663510797127635 ] } },
{ "type": "Feature", "properties": { "strassenschluessel": "05154000005655924", "bezeichnung": "Holländische Straße" }, "geometry": { "type": "Point", "coordinates": [ 6.317379515633554, 51.655403829695302 ] } },
{ "type": "Feature", "properties": { "strassenschluessel": "05154000005655927", "bezeichnung": "Knäckerderp" }, "geometry": { "type": "Point", "coordinates": [ 6.332233294972449, 51.677141528929354 ] } },
{ "type": "Feature", "properties": { "strassenschluessel": "05154000005655930", "bezeichnung": "Labbecker Straße" }, "geometry": { "type": "Point", "coordinates": [ 6.320961309426506, 51.64474957556827 ] } },
{ "type": "Feature", "properties": { "strassenschluessel": "05154000005655933", "bezeichnung": "Marienbaumer Straße" }, "geometry": { "type": "Point", "coordinates": [ 6.335005489510493, 51.673532136402855 ] } },
{ "type": "Feature", "properties": { "strassenschluessel": "05154000005655936", "bezeichnung": "Müsersweg" }, "geometry": { "type": "Point", "coordinates": [ 6.336327715538745, 51.658672954844818 ] } },
{ "type": "Feature", "properties": { "strassenschluessel": "05154000005655939", "bezeichnung": "Reichswaldstraße" }, "geometry": { "type": "Point", "coordinates": [ 6.352962424099767, 51.657555211252657 ] } },
{ "type": "Feature", "properties": { "strassenschluessel": "05154000005655942", "bezeichnung": "Sonsbecker Straße" }, "geometry": { "type": "Point", "coordinates": [ 6.328467325696762, 51.646466155064935 ] } },
{ "type": "Feature", "properties": { "strassenschluessel": "05154000005655942", "bezeichnung": "Sonsbecker Straße" }, "geometry": { "type": "Point", "coordinates": [ 6.328467325696762, 51.646466155064935 ] } },
{ "type": "Feature", "properties": { "strassenschluessel": "05154000005655953", "bezeichnung": "Wiesengrund" }, "geometry": { "type": "Point", "coordinates": [ 6.322963437066236, 51.653837249674837 ] } },
{ "type": "Feature", "properties": { "strassenschluessel": "05154000005655990", "bezeichnung": "In Keppeln" }, "geometry": null },
{ "type": "Feature", "properties": { "strassenschluessel": "05154000005655991", "bezeichnung": "In Uedem" }, "geometry": null },
{ "type": "Feature", "properties": { "strassenschluessel": "05154000005655992", "bezeichnung": "In Uedemerbruch" }, "geometry": null },
{ "type": "Feature", "properties": { "strassenschluessel": "05154000005655993", "bezeichnung": "In Uedemerfeld" }, "geometry": null },
{ "type": "Feature", "properties": { "strassenschluessel": "051540000056=2515", "bezeichnung": "Eisenbahn Büderich-Goch" }, "geometry": null }
]
}
