{
"type": "FeatureCollection",
"features": [
{ "type": "Feature", "properties": { "strassenschluessel": "05154000006459503", "bezeichnung": "Adelholmstraße" }, "geometry": { "type": "Point", "coordinates": [ 6.203263072997814, 51.625355944885897 ] } },
{ "type": "Feature", "properties": { "strassenschluessel": "05154000006459504", "bezeichnung": "Albrecht-Dürer-Straße" }, "geometry": { "type": "Point", "coordinates": [ 6.188964393180329, 51.631288040017566 ] } },
{ "type": "Feature", "properties": { "strassenschluessel": "05154000006459505", "bezeichnung": "Albatross Way" }, "geometry": { "type": "Point", "coordinates": [ 6.184656349241179, 51.627504721864696 ] } },
{ "type": "Feature", "properties": { "strassenschluessel": "05154000006459506", "bezeichnung": "Alte Heerstraße" }, "geometry": { "type": "Point", "coordinates": [ 6.201508974440429, 51.623794575493129 ] } },
{ "type": "Feature", "properties": { "strassenschluessel": "05154000006459509", "bezeichnung": "Alte Jülicher Straße" }, "geometry": { "type": "Point", "coordinates": [ 6.174991908932694, 51.585380486549148 ] } },
{ "type": "Feature", "properties": { "strassenschluessel": "05154000006459512", "bezeichnung": "Alte Zollstraße" }, "geometry": { "type": "Point", "coordinates": [ 6.169876424109611, 51.609892813560421 ] } },
{ "type": "Feature", "properties": { "strassenschluessel": "05154000006459513", "bezeichnung": "Alter Markt" }, "geometry": { "type": "Point", "coordinates": [ 6.198984158429044, 51.627588854454757 ] } },
{ "type": "Feature", "properties": { "strassenschluessel": "05154000006459514", "bezeichnung": "Am Backhaus" }, "geometry": { "type": "Point", "coordinates": [ 6.186469431309729, 51.633192134970351 ] } },
{ "type": "Feature", "properties": { "strassenschluessel": "05154000006459515", "bezeichnung": "Am Bruch" }, "geometry": { "type": "Point", "coordinates": [ 6.173002893964003, 51.57701264881959 ] } },
{ "type": "Feature", "properties": { "strassenschluessel": "05154000006459517", "bezeichnung": "Am Grafschen Hof" }, "geometry": { "type": "Point", "coordinates": [ 6.186592998883083, 51.633688913844146 ] } },
{ "type": "Feature", "properties": { "strassenschluessel": "05154000006459518", "bezeichnung": "Am Geenenforst" }, "geometry": { "type": "Point", "coordinates": [ 6.187401826777039, 51.629291662627409 ] } },
{ "type": "Feature", "properties": { "strassenschluessel": "05154000006459519", "bezeichnung": "Am großen Graf" }, "geometry": { "type": "Point", "coordinates": [ 6.18771175549837, 51.631928139170462 ] } },
{ "type": "Feature", "properties": { "strassenschluessel": "05154000006459520", "bezeichnung": "Am kleinen Graf" }, "geometry": { "type": "Point", "coordinates": [ 6.187139422275951, 51.631465969588994 ] } },
{ "type": "Feature", "properties": { "strassenschluessel": "05154000006459521", "bezeichnung": "Am Heekeren" }, "geometry": { "type": "Point", "coordinates": [ 6.197350370594293, 51.631691284944964 ] } },
{ "type": "Feature", "properties": { "strassenschluessel": "05154000006459524", "bezeichnung": "Am Manist" }, "geometry": { "type": "Point", "coordinates": [ 6.187145195600358, 51.631123814034886 ] } },
{ "type": "Feature", "properties": { "strassenschluessel": "05154000006459527", "bezeichnung": "Am Nierspaß" }, "geometry": { "type": "Point", "coordinates": [ 6.197476662959668, 51.637117018646215 ] } },
{ "type": "Feature", "properties": { "strassenschluessel": "05154000006459528", "bezeichnung": "Fuchsweg" }, "geometry": { "type": "Point", "coordinates": [ 6.190708428531265, 51.636269845330702 ] } },
{ "type": "Feature", "properties": { "strassenschluessel": "05154000006459529", "bezeichnung": "Am Ottersgraben" }, "geometry": { "type": "Point", "coordinates": [ 6.190135331834581, 51.637070655120922 ] } },
{ "type": "Feature", "properties": { "strassenschluessel": "05154000006459530", "bezeichnung": "Amselstraße" }, "geometry": { "type": "Point", "coordinates": [ 6.188541654673484, 51.628009947657169 ] } },
{ "type": "Feature", "properties": { "strassenschluessel": "05154000006459531", "bezeichnung": "Am Theresienstift" }, "geometry": { "type": "Point", "coordinates": [ 6.204776617043459, 51.62378486038245 ] } },
{ "type": "Feature", "properties": { "strassenschluessel": "05154000006459533", "bezeichnung": "Am Tichelkamp" }, "geometry": { "type": "Point", "coordinates": [ 6.192023262848745, 51.632219680496327 ] } },
{ "type": "Feature", "properties": { "strassenschluessel": "05154000006459536", "bezeichnung": "An der Beek" }, "geometry": { "type": "Point", "coordinates": [ 6.175673961415118, 51.590838051677245 ] } },
{ "type": "Feature", "properties": { "strassenschluessel": "05154000006459539", "bezeichnung": "An der Horst" }, "geometry": { "type": "Point", "coordinates": [ 6.197030974119324, 51.626060637578568 ] } },
{ "type": "Feature", "properties": { "strassenschluessel": "05154000006459542", "bezeichnung": "An der Windmühle" }, "geometry": { "type": "Point", "coordinates": [ 6.193505389822207, 51.638777259982888 ] } },
{ "type": "Feature", "properties": { "strassenschluessel": "05154000006459544", "bezeichnung": "Anna Thielen-Straße" }, "geometry": null },
{ "type": "Feature", "properties": { "strassenschluessel": "05154000006459545", "bezeichnung": "Antoniusstraße" }, "geometry": { "type": "Point", "coordinates": [ 6.193454076378494, 51.6311136006182 ] } },
{ "type": "Feature", "properties": { "strassenschluessel": "05154000006459548", "bezeichnung": "Auf dem Freitag" }, "geometry": { "type": "Point", "coordinates": [ 6.207500037744978, 51.621853030660994 ] } },
{ "type": "Feature", "properties": { "strassenschluessel": "05154000006459551", "bezeichnung": "Auf der Schanz" }, "geometry": { "type": "Point", "coordinates": [ 6.17594045947411, 51.58896227815066 ] } },
{ "type": "Feature", "properties": { "strassenschluessel": "05154000006459554", "bezeichnung": "Ayenscherweg" }, "geometry": { "type": "Point", "coordinates": [ 6.169393311853269, 51.612330573583151 ] } },
{ "type": "Feature", "properties": { "strassenschluessel": "05154000006459557", "bezeichnung": "Baal" }, "geometry": { "type": "Point", "coordinates": [ 6.154959889440232, 51.613717209174958 ] } },
{ "type": "Feature", "properties": { "strassenschluessel": "05154000006459558", "bezeichnung": "Baaler Deich" }, "geometry": null },
{ "type": "Feature", "properties": { "strassenschluessel": "05154000006459560", "bezeichnung": "Bahnstraße" }, "geometry": { "type": "Point", "coordinates": [ 6.199344378206687, 51.625067119633876 ] } },
{ "type": "Feature", "properties": { "strassenschluessel": "05154000006459563", "bezeichnung": "Berliner Straße" }, "geometry": { "type": "Point", "coordinates": [ 6.192306932499363, 51.621216971074524 ] } },
{ "type": "Feature", "properties": { "strassenschluessel": "05154000006459565", "bezeichnung": "Biberweg" }, "geometry": { "type": "Point", "coordinates": [ 6.191706971935752, 51.636352694884202 ] } },
{ "type": "Feature", "properties": { "strassenschluessel": "05154000006459566", "bezeichnung": "Birkenweg" }, "geometry": { "type": "Point", "coordinates": [ 6.191418038252356, 51.626529466488101 ] } },
{ "type": "Feature", "properties": { "strassenschluessel": "05154000006459567", "bezeichnung": "bij Sent Jan" }, "geometry": null },
{ "type": "Feature", "properties": { "strassenschluessel": "05154000006459569", "bezeichnung": "Blumenstraße" }, "geometry": { "type": "Point", "coordinates": [ 6.196553963774938, 51.62876653384199 ] } },
{ "type": "Feature", "properties": { "strassenschluessel": "05154000006459572", "bezeichnung": "Bodelschwinghstraße" }, "geometry": { "type": "Point", "coordinates": [ 6.188799988488119, 51.627267143491537 ] } },
{ "type": "Feature", "properties": { "strassenschluessel": "05154000006459573", "bezeichnung": "Boyensteg" }, "geometry": null },
{ "type": "Feature", "properties": { "strassenschluessel": "05154000006459575", "bezeichnung": "Breslauer Straße" }, "geometry": { "type": "Point", "coordinates": [ 6.193628753763166, 51.619737639065349 ] } },
{ "type": "Feature", "properties": { "strassenschluessel": "05154000006459578", "bezeichnung": "Brückerhöfe" }, "geometry": { "type": "Point", "coordinates": [ 6.18097390354571, 51.595633551455059 ] } },
{ "type": "Feature", "properties": { "strassenschluessel": "05154000006459581", "bezeichnung": "Brunnenstraße" }, "geometry": { "type": "Point", "coordinates": [ 6.188929196419077, 51.630147566317568 ] } },
{ "type": "Feature", "properties": { "strassenschluessel": "05154000006459582", "bezeichnung": "Buchenweg" }, "geometry": { "type": "Point", "coordinates": [ 6.192632716385804, 51.625532519021462 ] } },
{ "type": "Feature", "properties": { "strassenschluessel": "05154000006459584", "bezeichnung": "Cyriakusplatz" }, "geometry": { "type": "Point", "coordinates": [ 6.20133674680674, 51.626558457770841 ] } },
{ "type": "Feature", "properties": { "strassenschluessel": "05154000006459586", "bezeichnung": "Dachsweg" }, "geometry": { "type": "Point", "coordinates": [ 6.191763365134772, 51.637414895071451 ] } },
{ "type": "Feature", "properties": { "strassenschluessel": "05154000006459587", "bezeichnung": "Deroystraße" }, "geometry": { "type": "Point", "coordinates": [ 6.190248030238945, 51.62265309585586 ] } },
{ "type": "Feature", "properties": { "strassenschluessel": "05154000006459588", "bezeichnung": "Dietrich-Bonhoeffer-Str." }, "geometry": null },
{ "type": "Feature", "properties": { "strassenschluessel": "05154000006459590", "bezeichnung": "Drosselweg" }, "geometry": { "type": "Point", "coordinates": [ 6.18716851071577, 51.625850419628144 ] } },
{ "type": "Feature", "properties": { "strassenschluessel": "05154000006459591", "bezeichnung": "Eagle Way" }, "geometry": { "type": "Point", "coordinates": [ 6.185188244877416, 51.627973930037456 ] } },
{ "type": "Feature", "properties": { "strassenschluessel": "05154000006459593", "bezeichnung": "Eichenweg" }, "geometry": { "type": "Point", "coordinates": [ 6.19047613268677, 51.627147576563274 ] } },
{ "type": "Feature", "properties": { "strassenschluessel": "05154000006459596", "bezeichnung": "Elisabethstraße" }, "geometry": { "type": "Point", "coordinates": [ 6.207082071615761, 51.622343578871032 ] } },
{ "type": "Feature", "properties": { "strassenschluessel": "05154000006459597", "bezeichnung": "Europa-Ring" }, "geometry": { "type": "Point", "coordinates": [ 6.164221667583295, 51.592599194359693 ] } },
{ "type": "Feature", "properties": { "strassenschluessel": "05154000006459598", "bezeichnung": "Euregio-Park" }, "geometry": { "type": "Point", "coordinates": [ 6.148447177998827, 51.588189021518538 ] } },
{ "type": "Feature", "properties": { "strassenschluessel": "05154000006459599", "bezeichnung": "Erdgrabenweg" }, "geometry": { "type": "Point", "coordinates": [ 6.190022927820586, 51.62720763206687 ] } },
{ "type": "Feature", "properties": { "strassenschluessel": "05154000006459600", "bezeichnung": "Ervelensteg" }, "geometry": null },
{ "type": "Feature", "properties": { "strassenschluessel": "05154000006459601", "bezeichnung": "Eyll" }, "geometry": { "type": "Point", "coordinates": [ 6.19830576069971, 51.630187120318098 ] } },
{ "type": "Feature", "properties": { "strassenschluessel": "05154000006459602", "bezeichnung": "Fährsteg" }, "geometry": { "type": "Point", "coordinates": [ 6.199201214671032, 51.629529686622291 ] } },
{ "type": "Feature", "properties": { "strassenschluessel": "05154000006459605", "bezeichnung": "Falkenstraße" }, "geometry": { "type": "Point", "coordinates": [ 6.187045546193572, 51.628310958773163 ] } },
{ "type": "Feature", "properties": { "strassenschluessel": "05154000006459608", "bezeichnung": "Fasanenweg" }, "geometry": { "type": "Point", "coordinates": [ 6.171105070801494, 51.614079457582633 ] } },
{ "type": "Feature", "properties": { "strassenschluessel": "05154000006459611", "bezeichnung": "Feldstraße" }, "geometry": { "type": "Point", "coordinates": [ 6.176838768281028, 51.588423572863213 ] } },
{ "type": "Feature", "properties": { "strassenschluessel": "05154000006459614", "bezeichnung": "Fichtenweg" }, "geometry": { "type": "Point", "coordinates": [ 6.19345966652605, 51.626779534872888 ] } },
{ "type": "Feature", "properties": { "strassenschluessel": "05154000006459617", "bezeichnung": "Finkenweg" }, "geometry": { "type": "Point", "coordinates": [ 6.186549518129601, 51.62724027226291 ] } },
{ "type": "Feature", "properties": { "strassenschluessel": "05154000006459618", "bezeichnung": "Flughafen-Ring" }, "geometry": { "type": "Point", "coordinates": [ 6.161926797070116, 51.593718345038177 ] } },
{ "type": "Feature", "properties": { "strassenschluessel": "05154000006459620", "bezeichnung": "Franz-Hitze-Straße" }, "geometry": { "type": "Point", "coordinates": [ 6.192592514555225, 51.623590263757436 ] } },
{ "type": "Feature", "properties": { "strassenschluessel": "05154000006459623", "bezeichnung": "Franziskanerstraße" }, "geometry": { "type": "Point", "coordinates": [ 6.186166308471504, 51.625225731787694 ] } },
{ "type": "Feature", "properties": { "strassenschluessel": "05154000006459626", "bezeichnung": "Friedrich-Adolf-Lampe-Str." }, "geometry": { "type": "Point", "coordinates": [ 6.193320468990283, 51.624258684477915 ] } },
{ "type": "Feature", "properties": { "strassenschluessel": "05154000006459630", "bezeichnung": "Gaesdonker Str." }, "geometry": null },
{ "type": "Feature", "properties": { "strassenschluessel": "05154000006459632", "bezeichnung": "Gartenstraße" }, "geometry": { "type": "Point", "coordinates": [ 6.194806517685963, 51.63092529303961 ] } },
{ "type": "Feature", "properties": { "strassenschluessel": "05154000006459635", "bezeichnung": "Gassweg" }, "geometry": { "type": "Point", "coordinates": [ 6.175044610805866, 51.582667485045313 ] } },
{ "type": "Feature", "properties": { "strassenschluessel": "05154000006459638", "bezeichnung": "Geenenstraße" }, "geometry": { "type": "Point", "coordinates": [ 6.205974231667898, 51.623879888271631 ] } },
{ "type": "Feature", "properties": { "strassenschluessel": "05154000006459641", "bezeichnung": "Gehrstraße" }, "geometry": { "type": "Point", "coordinates": [ 6.185444053993145, 51.629418857264255 ] } },
{ "type": "Feature", "properties": { "strassenschluessel": "05154000006459642", "bezeichnung": "Gelderland-Ring" }, "geometry": { "type": "Point", "coordinates": [ 6.158794920604831, 51.590343692700436 ] } },
{ "type": "Feature", "properties": { "strassenschluessel": "05154000006459644", "bezeichnung": "Gerhardstraße" }, "geometry": { "type": "Point", "coordinates": [ 6.205991100751775, 51.622515380912816 ] } },
{ "type": "Feature", "properties": { "strassenschluessel": "05154000006459646", "bezeichnung": "Geschwister-Koopmann-Str." }, "geometry": null },
{ "type": "Feature", "properties": { "strassenschluessel": "05154000006459647", "bezeichnung": "Gesseltweg" }, "geometry": { "type": "Point", "coordinates": [ 6.209554448332645, 51.626386154883136 ] } },
{ "type": "Feature", "properties": { "strassenschluessel": "05154000006459650", "bezeichnung": "Ginsterweg" }, "geometry": { "type": "Point", "coordinates": [ 6.19594254000366, 51.627186077312849 ] } },
{ "type": "Feature", "properties": { "strassenschluessel": "05154000006459653", "bezeichnung": "Gocher Straße" }, "geometry": { "type": "Point", "coordinates": [ 6.192458091244388, 51.644256256419979 ] } },
{ "type": "Feature", "properties": { "strassenschluessel": "05154000006459656", "bezeichnung": "Goethestraße" }, "geometry": { "type": "Point", "coordinates": [ 6.193921821734782, 51.629778062832315 ] } },
{ "type": "Feature", "properties": { "strassenschluessel": "05154000006459659", "bezeichnung": "Grafscherweg" }, "geometry": { "type": "Point", "coordinates": [ 6.189388553363321, 51.636035611585442 ] } },
{ "type": "Feature", "properties": { "strassenschluessel": "05154000006459660", "bezeichnung": "Grenzweg" }, "geometry": null },
{ "type": "Feature", "properties": { "strassenschluessel": "05154000006459661", "bezeichnung": "Greversweg" }, "geometry": null },
{ "type": "Feature", "properties": { "strassenschluessel": "05154000006459662", "bezeichnung": "Grootestraße" }, "geometry": { "type": "Point", "coordinates": [ 6.172938081706335, 51.614686123259595 ] } },
{ "type": "Feature", "properties": { "strassenschluessel": "05154000006459663", "bezeichnung": "Grote Laarweg" }, "geometry": null },
{ "type": "Feature", "properties": { "strassenschluessel": "05154000006459665", "bezeichnung": "Hamscherweg" }, "geometry": { "type": "Point", "coordinates": [ 6.195955940404392, 51.638223238567932 ] } },
{ "type": "Feature", "properties": { "strassenschluessel": "05154000006459668", "bezeichnung": "Hees" }, "geometry": { "type": "Point", "coordinates": [ 6.092616455642678, 51.608533378501555 ] } },
{ "type": "Feature", "properties": { "strassenschluessel": "05154000006459671", "bezeichnung": "Hegenerstraße" }, "geometry": { "type": "Point", "coordinates": [ 6.212470726144784, 51.6103054659565 ] } },
{ "type": "Feature", "properties": { "strassenschluessel": "05154000006459674", "bezeichnung": "Heideweg" }, "geometry": { "type": "Point", "coordinates": [ 6.196324283870844, 51.627563971899441 ] } },
{ "type": "Feature", "properties": { "strassenschluessel": "05154000006459677", "bezeichnung": "Herrlichkeit" }, "geometry": { "type": "Point", "coordinates": [ 6.205029085584369, 51.625620809064863 ] } },
{ "type": "Feature", "properties": { "strassenschluessel": "05154000006459680", "bezeichnung": "Hertefeld" }, "geometry": { "type": "Point", "coordinates": [ 6.208287880105567, 51.628841033421267 ] } },
{ "type": "Feature", "properties": { "strassenschluessel": "05154000006459681", "bezeichnung": "Hildegard von Bingen-Str." }, "geometry": { "type": "Point", "coordinates": [ 6.19168889724516, 51.629241427348525 ] } },
{ "type": "Feature", "properties": { "strassenschluessel": "05154000006459683", "bezeichnung": "Höst-Vornicker-Weg" }, "geometry": { "type": "Point", "coordinates": [ 6.192954052021155, 51.676575869056983 ] } },
{ "type": "Feature", "properties": { "strassenschluessel": "05154000006459686", "bezeichnung": "Holtumsweg" }, "geometry": { "type": "Point", "coordinates": [ 6.198386453442186, 51.623416183241474 ] } },
{ "type": "Feature", "properties": { "strassenschluessel": "05154000006459689", "bezeichnung": "Hoogeweg" }, "geometry": { "type": "Point", "coordinates": [ 6.1877334192702, 51.631215424687767 ] } },
{ "type": "Feature", "properties": { "strassenschluessel": "05154000006459692", "bezeichnung": "Hoolmannsweg" }, "geometry": { "type": "Point", "coordinates": [ 6.171237073104106, 51.611973390161161 ] } },
{ "type": "Feature", "properties": { "strassenschluessel": "05154000006459693", "bezeichnung": "Hotsweg" }, "geometry": { "type": "Point", "coordinates": [ 6.210619430784297, 51.613980404526806 ] } },
{ "type": "Feature", "properties": { "strassenschluessel": "05154000006459694", "bezeichnung": "Houenweg" }, "geometry": null },
{ "type": "Feature", "properties": { "strassenschluessel": "05154000006459695", "bezeichnung": "Hüdderath" }, "geometry": { "type": "Point", "coordinates": [ 6.230622348117352, 51.603719691394708 ] } },
{ "type": "Feature", "properties": { "strassenschluessel": "05154000006459699", "bezeichnung": "Hülmer Deich" }, "geometry": null },
{ "type": "Feature", "properties": { "strassenschluessel": "05154000006459700", "bezeichnung": "Huelmer Str." }, "geometry": null },
{ "type": "Feature", "properties": { "strassenschluessel": "05154000006459701", "bezeichnung": "Im grünen Feld" }, "geometry": { "type": "Point", "coordinates": [ 6.186261272075645, 51.626566552688665 ] } },
{ "type": "Feature", "properties": { "strassenschluessel": "05154000006459702", "bezeichnung": "Industriestraße" }, "geometry": { "type": "Point", "coordinates": [ 6.209436846074848, 51.621952133240391 ] } },
{ "type": "Feature", "properties": { "strassenschluessel": "05154000006459703", "bezeichnung": "Jan-Palach-Straße" }, "geometry": { "type": "Point", "coordinates": [ 6.188780744530332, 51.621531083201837 ] } },
{ "type": "Feature", "properties": { "strassenschluessel": "05154000006459704", "bezeichnung": "Kalbeck" }, "geometry": { "type": "Point", "coordinates": [ 6.206331508217589, 51.675276334328409 ] } },
{ "type": "Feature", "properties": { "strassenschluessel": "05154000006459705", "bezeichnung": "Kärburs Ströche" }, "geometry": { "type": "Point", "coordinates": [ 6.177585429945397, 51.586766728742376 ] } },
{ "type": "Feature", "properties": { "strassenschluessel": "05154000006459706", "bezeichnung": "Kalbecker Straße" }, "geometry": { "type": "Point", "coordinates": [ 6.188623249425447, 51.677036652146377 ] } },
{ "type": "Feature", "properties": { "strassenschluessel": "05154000006459707", "bezeichnung": "Kalbecker Weg" }, "geometry": { "type": "Point", "coordinates": [ 6.21251295993628, 51.641129434143025 ] } },
{ "type": "Feature", "properties": { "strassenschluessel": "05154000006459708", "bezeichnung": "Kapellenweg" }, "geometry": { "type": "Point", "coordinates": [ 6.187907680432527, 51.62235577761335 ] } },
{ "type": "Feature", "properties": { "strassenschluessel": "05154000006459709", "bezeichnung": "Iltisgasse" }, "geometry": { "type": "Point", "coordinates": [ 6.19092466252142, 51.635812937690531 ] } },
{ "type": "Feature", "properties": { "strassenschluessel": "05154000006459710", "bezeichnung": "Kardinal-Galen-Straße" }, "geometry": { "type": "Point", "coordinates": [ 6.196889743146136, 51.627609501284503 ] } },
{ "type": "Feature", "properties": { "strassenschluessel": "05154000006459711", "bezeichnung": "Kalbecker Forst Ost" }, "geometry": { "type": "Point", "coordinates": [ 6.198863505138415, 51.653061791057972 ] } },
{ "type": "Feature", "properties": { "strassenschluessel": "05154000006459712", "bezeichnung": "Kalbecker Forst West" }, "geometry": { "type": "Point", "coordinates": [ 6.198517025344899, 51.652143790026358 ] } },
{ "type": "Feature", "properties": { "strassenschluessel": "05154000006459713", "bezeichnung": "Karl-Arnold-Straße" }, "geometry": { "type": "Point", "coordinates": [ 6.187855029454216, 51.624315328073088 ] } },
{ "type": "Feature", "properties": { "strassenschluessel": "05154000006459714", "bezeichnung": "Karl-Leisner-Straße" }, "geometry": null },
{ "type": "Feature", "properties": { "strassenschluessel": "05154000006459715", "bezeichnung": "Katharinenquartier" }, "geometry": { "type": "Point", "coordinates": [ 6.208217636286521, 51.620824872744087 ] } },
{ "type": "Feature", "properties": { "strassenschluessel": "05154000006459716", "bezeichnung": "Katharinenstraße" }, "geometry": { "type": "Point", "coordinates": [ 6.207549375776821, 51.62535398789398 ] } },
{ "type": "Feature", "properties": { "strassenschluessel": "05154000006459719", "bezeichnung": "Kendel" }, "geometry": { "type": "Point", "coordinates": [ 6.179440205068372, 51.628518706100856 ] } },
{ "type": "Feature", "properties": { "strassenschluessel": "05154000006459720", "bezeichnung": "Kendelweg" }, "geometry": null },
{ "type": "Feature", "properties": { "strassenschluessel": "05154000006459721", "bezeichnung": "Kerstenweg" }, "geometry": null },
{ "type": "Feature", "properties": { "strassenschluessel": "05154000006459722", "bezeichnung": "Kervenheimer Straße" }, "geometry": { "type": "Point", "coordinates": [ 6.240753591106531, 51.623090228757604 ] } },
{ "type": "Feature", "properties": { "strassenschluessel": "05154000006459725", "bezeichnung": "Kettelerstraße" }, "geometry": { "type": "Point", "coordinates": [ 6.187152793386124, 51.623134506526206 ] } },
{ "type": "Feature", "properties": { "strassenschluessel": "05154000006459728", "bezeichnung": "Kevelaerer Straße" }, "geometry": { "type": "Point", "coordinates": [ 6.204584727394188, 51.622976325089965 ] } },
{ "type": "Feature", "properties": { "strassenschluessel": "05154000006459731", "bezeichnung": "Keylaer" }, "geometry": { "type": "Point", "coordinates": [ 6.219883804642971, 51.598708020274749 ] } },
{ "type": "Feature", "properties": { "strassenschluessel": "05154000006459734", "bezeichnung": "Kiefernweg" }, "geometry": { "type": "Point", "coordinates": [ 6.19223053936859, 51.627436783370463 ] } },
{ "type": "Feature", "properties": { "strassenschluessel": "05154000006459737", "bezeichnung": "Kirchplatz" }, "geometry": { "type": "Point", "coordinates": [ 6.200718286864983, 51.627880633326882 ] } },
{ "type": "Feature", "properties": { "strassenschluessel": "05154000006459738", "bezeichnung": "Kirchweg" }, "geometry": { "type": "Point", "coordinates": [ 6.197561677692796, 51.627909546900433 ] } },
{ "type": "Feature", "properties": { "strassenschluessel": "05154000006459739", "bezeichnung": "Klosterweg" }, "geometry": { "type": "Point", "coordinates": [ 6.184953175418267, 51.623038308840187 ] } },
{ "type": "Feature", "properties": { "strassenschluessel": "05154000006459740", "bezeichnung": "Knappheide" }, "geometry": { "type": "Point", "coordinates": [ 6.178828541311439, 51.64400036784545 ] } },
{ "type": "Feature", "properties": { "strassenschluessel": "05154000006459741", "bezeichnung": "Klever-Tor" }, "geometry": null },
{ "type": "Feature", "properties": { "strassenschluessel": "05154000006459743", "bezeichnung": "Königsberger Straße" }, "geometry": { "type": "Point", "coordinates": [ 6.193133888721031, 51.621805224716873 ] } },
{ "type": "Feature", "properties": { "strassenschluessel": "05154000006459746", "bezeichnung": "Kolpingstraße" }, "geometry": { "type": "Point", "coordinates": [ 6.190060436206889, 51.62353101463988 ] } },
{ "type": "Feature", "properties": { "strassenschluessel": "05154000006459749", "bezeichnung": "Koningsstraße" }, "geometry": { "type": "Point", "coordinates": [ 6.202246032833401, 51.623617658695338 ] } },
{ "type": "Feature", "properties": { "strassenschluessel": "05154000006459751", "bezeichnung": "Korte Weg" }, "geometry": null },
{ "type": "Feature", "properties": { "strassenschluessel": "05154000006459752", "bezeichnung": "Kuhstraße" }, "geometry": { "type": "Point", "coordinates": [ 6.167147831377207, 51.608668985532162 ] } },
{ "type": "Feature", "properties": { "strassenschluessel": "05154000006459753", "bezeichnung": "Kullweg" }, "geometry": { "type": "Point", "coordinates": [ 6.174739218158789, 51.589147417083183 ] } },
{ "type": "Feature", "properties": { "strassenschluessel": "05154000006459755", "bezeichnung": "Küstersweg" }, "geometry": { "type": "Point", "coordinates": [ 6.193738584623614, 51.628188353143585 ] } },
{ "type": "Feature", "properties": { "strassenschluessel": "05154000006459758", "bezeichnung": "Laar" }, "geometry": { "type": "Point", "coordinates": [ 6.201164748030851, 51.614988517130577 ] } },
{ "type": "Feature", "properties": { "strassenschluessel": "05154000006459761", "bezeichnung": "Laarbruch" }, "geometry": null },
{ "type": "Feature", "properties": { "strassenschluessel": "05154000006459764", "bezeichnung": "Leipziger Straße" }, "geometry": { "type": "Point", "coordinates": [ 6.190187114897132, 51.621131261930849 ] } },
{ "type": "Feature", "properties": { "strassenschluessel": "05154000006459765", "bezeichnung": "Lerchenweg" }, "geometry": { "type": "Point", "coordinates": [ 6.184739643531785, 51.626671419152082 ] } },
{ "type": "Feature", "properties": { "strassenschluessel": "05154000006459767", "bezeichnung": "Lindenweg" }, "geometry": { "type": "Point", "coordinates": [ 6.191811150074768, 51.627645102725815 ] } },
{ "type": "Feature", "properties": { "strassenschluessel": "05154000006459768", "bezeichnung": "Limburger-Tor" }, "geometry": { "type": "Point", "coordinates": [ 6.132361938131662, 51.595327709613144 ] } },
{ "type": "Feature", "properties": { "strassenschluessel": "05154000006459770", "bezeichnung": "Loestraße" }, "geometry": { "type": "Point", "coordinates": [ 6.205171061028519, 51.626345058807402 ] } },
{ "type": "Feature", "properties": { "strassenschluessel": "05154000006459772", "bezeichnung": "London Street" }, "geometry": { "type": "Point", "coordinates": [ 6.189549768239687, 51.619978468824321 ] } },
{ "type": "Feature", "properties": { "strassenschluessel": "05154000006459773", "bezeichnung": "Lorschstraße" }, "geometry": { "type": "Point", "coordinates": [ 6.202918664691009, 51.624221354636916 ] } },
{ "type": "Feature", "properties": { "strassenschluessel": "05154000006459776", "bezeichnung": "Magdeburger Straße" }, "geometry": { "type": "Point", "coordinates": [ 6.193404837199676, 51.620796094173897 ] } },
{ "type": "Feature", "properties": { "strassenschluessel": "05154000006459779", "bezeichnung": "Marienwasserweg" }, "geometry": { "type": "Point", "coordinates": [ 6.186568345713914, 51.62214850925649 ] } },
{ "type": "Feature", "properties": { "strassenschluessel": "05154000006459780", "bezeichnung": "Martin-Luther-Straße" }, "geometry": { "type": "Point", "coordinates": [ 6.188866507425975, 51.63102127108278 ] } },
{ "type": "Feature", "properties": { "strassenschluessel": "05154000006459782", "bezeichnung": "Matthias-Claudius-Straße" }, "geometry": { "type": "Point", "coordinates": [ 6.190159281822656, 51.629278844536358 ] } },
{ "type": "Feature", "properties": { "strassenschluessel": "05154000006459785", "bezeichnung": "Matthiasstraße" }, "geometry": { "type": "Point", "coordinates": [ 6.205142644267142, 51.623294360047417 ] } },
{ "type": "Feature", "properties": { "strassenschluessel": "05154000006459786", "bezeichnung": "Max-Devries-Straße" }, "geometry": null },
{ "type": "Feature", "properties": { "strassenschluessel": "05154000006459787", "bezeichnung": "Mühlenweg" }, "geometry": null },
{ "type": "Feature", "properties": { "strassenschluessel": "05154000006459788", "bezeichnung": "Nachtigallenweg" }, "geometry": { "type": "Point", "coordinates": [ 6.185883263569559, 51.627362550011291 ] } },
{ "type": "Feature", "properties": { "strassenschluessel": "05154000006459791", "bezeichnung": "Niederhelsum" }, "geometry": { "type": "Point", "coordinates": [ 6.153639698001379, 51.632369643039183 ] } },
{ "type": "Feature", "properties": { "strassenschluessel": "05154000006459792", "bezeichnung": "Nord-Ring" }, "geometry": { "type": "Point", "coordinates": [ 6.147977646888179, 51.608705874596026 ] } },
{ "type": "Feature", "properties": { "strassenschluessel": "05154000006459794", "bezeichnung": "Oberhelsum" }, "geometry": { "type": "Point", "coordinates": [ 6.169549602639488, 51.634831247694109 ] } },
{ "type": "Feature", "properties": { "strassenschluessel": "05154000006459797", "bezeichnung": "Op den Marschall" }, "geometry": { "type": "Point", "coordinates": [ 6.204971127485581, 51.62142332927688 ] } },
{ "type": "Feature", "properties": { "strassenschluessel": "05154000006459798", "bezeichnung": "Pastor-Krafft-Straße" }, "geometry": { "type": "Point", "coordinates": [ 6.188032805988661, 51.632956806314809 ] } },
{ "type": "Feature", "properties": { "strassenschluessel": "05154000006459799", "bezeichnung": "Pastor-Mütter-Straße" }, "geometry": { "type": "Point", "coordinates": [ 6.18809924260579, 51.632482031024431 ] } },
{ "type": "Feature", "properties": { "strassenschluessel": "05154000006459800", "bezeichnung": "Pater-Fonck-Straße" }, "geometry": { "type": "Point", "coordinates": [ 6.194851622880393, 51.629392715245466 ] } },
{ "type": "Feature", "properties": { "strassenschluessel": "05154000006459803", "bezeichnung": "Petersstraße" }, "geometry": { "type": "Point", "coordinates": [ 6.201807266332754, 51.625949922513648 ] } },
{ "type": "Feature", "properties": { "strassenschluessel": "05154000006459804", "bezeichnung": "Phillipsen Wiesen" }, "geometry": { "type": "Point", "coordinates": [ 6.189421827415447, 51.634626419328121 ] } },
{ "type": "Feature", "properties": { "strassenschluessel": "05154000006459806", "bezeichnung": "Piesackerweg" }, "geometry": { "type": "Point", "coordinates": [ 6.173555626241378, 51.590928797760036 ] } },
{ "type": "Feature", "properties": { "strassenschluessel": "05154000006459809", "bezeichnung": "Reintjesweg" }, "geometry": { "type": "Point", "coordinates": [ 6.200713193632595, 51.623099000418378 ] } },
{ "type": "Feature", "properties": { "strassenschluessel": "05154000006459812", "bezeichnung": "Remmetsstraße" }, "geometry": { "type": "Point", "coordinates": [ 6.203435618041224, 51.626271490255775 ] } },
{ "type": "Feature", "properties": { "strassenschluessel": "05154000006459813", "bezeichnung": "Rittorpweg" }, "geometry": null },
{ "type": "Feature", "properties": { "strassenschluessel": "05154000006459815", "bezeichnung": "Roggenstraße" }, "geometry": { "type": "Point", "coordinates": [ 6.197817266686982, 51.62887808957889 ] } },
{ "type": "Feature", "properties": { "strassenschluessel": "05154000006459816", "bezeichnung": "Rosenweg" }, "geometry": { "type": "Point", "coordinates": [ 6.196318204687858, 51.629851350308861 ] } },
{ "type": "Feature", "properties": { "strassenschluessel": "05154000006459817", "bezeichnung": "Rübenweg" }, "geometry": null },
{ "type": "Feature", "properties": { "strassenschluessel": "05154000006459818", "bezeichnung": "Rühlscherweg" }, "geometry": { "type": "Point", "coordinates": [ 6.187946047601026, 51.584812357902884 ] } },
{ "type": "Feature", "properties": { "strassenschluessel": "05154000006459819", "bezeichnung": "Saarbrocksweg" }, "geometry": null },
{ "type": "Feature", "properties": { "strassenschluessel": "05154000006459821", "bezeichnung": "Sandheider Weg" }, "geometry": { "type": "Point", "coordinates": [ 6.216137417456251, 51.657824002079046 ] } },
{ "type": "Feature", "properties": { "strassenschluessel": "05154000006459824", "bezeichnung": "Schafweg" }, "geometry": { "type": "Point", "coordinates": [ 6.170475157520531, 51.587163729868358 ] } },
{ "type": "Feature", "properties": { "strassenschluessel": "05154000006459827", "bezeichnung": "Schillerstraße" }, "geometry": { "type": "Point", "coordinates": [ 6.193104885373136, 51.62988547250302 ] } },
{ "type": "Feature", "properties": { "strassenschluessel": "05154000006459830", "bezeichnung": "Schloßallee" }, "geometry": { "type": "Point", "coordinates": [ 6.221545201627915, 51.615522975483628 ] } },
{ "type": "Feature", "properties": { "strassenschluessel": "05154000006459833", "bezeichnung": "Schmiedestraße" }, "geometry": { "type": "Point", "coordinates": [ 6.198820384140613, 51.627784197427211 ] } },
{ "type": "Feature", "properties": { "strassenschluessel": "05154000006459836", "bezeichnung": "Schulstraße" }, "geometry": { "type": "Point", "coordinates": [ 6.176401458173418, 51.586545614483946 ] } },
{ "type": "Feature", "properties": { "strassenschluessel": "05154000006459837", "bezeichnung": "Schwarzer Weg" }, "geometry": null },
{ "type": "Feature", "properties": { "strassenschluessel": "05154000006459839", "bezeichnung": "Sent-Jan-Straße" }, "geometry": { "type": "Point", "coordinates": [ 6.188692706417616, 51.624003865849637 ] } },
{ "type": "Feature", "properties": { "strassenschluessel": "05154000006459842", "bezeichnung": "Siegfried-Eulen-Straße" }, "geometry": { "type": "Point", "coordinates": [ 6.205560434713323, 51.621137381551769 ] } },
{ "type": "Feature", "properties": { "strassenschluessel": "05154000006459848", "bezeichnung": "Steeg" }, "geometry": { "type": "Point", "coordinates": [ 6.186364235449009, 51.62485523013941 ] } },
{ "type": "Feature", "properties": { "strassenschluessel": "05154000006459849", "bezeichnung": "Steegsches Feld" }, "geometry": null },
{ "type": "Feature", "properties": { "strassenschluessel": "05154000006459851", "bezeichnung": "Stettiner Straße" }, "geometry": { "type": "Point", "coordinates": [ 6.191644317136452, 51.61995193345544 ] } },
{ "type": "Feature", "properties": { "strassenschluessel": "05154000006459853", "bezeichnung": "Strohweg" }, "geometry": null },
{ "type": "Feature", "properties": { "strassenschluessel": "05154000006459854", "bezeichnung": "Südstraße" }, "geometry": { "type": "Point", "coordinates": [ 6.205905690780492, 51.62019844762321 ] } },
{ "type": "Feature", "properties": { "strassenschluessel": "05154000006459855", "bezeichnung": "Technologie-Park" }, "geometry": { "type": "Point", "coordinates": [ 6.165771470346366, 51.596471975935032 ] } },
{ "type": "Feature", "properties": { "strassenschluessel": "05154000006459857", "bezeichnung": "Uedemer Straße" }, "geometry": { "type": "Point", "coordinates": [ 6.254888320362729, 51.653612511283455 ] } },
{ "type": "Feature", "properties": { "strassenschluessel": "05154000006459860", "bezeichnung": "Ulmenstraße" }, "geometry": { "type": "Point", "coordinates": [ 6.190943466622936, 51.628069076639576 ] } },
{ "type": "Feature", "properties": { "strassenschluessel": "05154000006459862", "bezeichnung": "Vittinghoff-Schell-Park" }, "geometry": { "type": "Point", "coordinates": [ 6.19723891139057, 51.625361914727314 ] } },
{ "type": "Feature", "properties": { "strassenschluessel": "05154000006459863", "bezeichnung": "Vogteistraße" }, "geometry": { "type": "Point", "coordinates": [ 6.195090784078704, 51.631190873172017 ] } },
{ "type": "Feature", "properties": { "strassenschluessel": "05154000006459866", "bezeichnung": "Vorselaer" }, "geometry": { "type": "Point", "coordinates": [ 6.205589090381152, 51.631900064087176 ] } },
{ "type": "Feature", "properties": { "strassenschluessel": "05154000006459869", "bezeichnung": "Wasserstraße" }, "geometry": { "type": "Point", "coordinates": [ 6.199830856500324, 51.628685744194428 ] } },
{ "type": "Feature", "properties": { "strassenschluessel": "05154000006459872", "bezeichnung": "Weller Straße" }, "geometry": { "type": "Point", "coordinates": [ 6.194978178045176, 51.622520906745883 ] } },
{ "type": "Feature", "properties": { "strassenschluessel": "05154000006459875", "bezeichnung": "Wemberdyk" }, "geometry": { "type": "Point", "coordinates": [ 6.182285954202807, 51.578225371048966 ] } },
{ "type": "Feature", "properties": { "strassenschluessel": "05154000006459878", "bezeichnung": "Wember Straße" }, "geometry": { "type": "Point", "coordinates": [ 6.173312163068332, 51.612841274077553 ] } },
{ "type": "Feature", "properties": { "strassenschluessel": "05154000006459881", "bezeichnung": "Wichernstraße" }, "geometry": { "type": "Point", "coordinates": [ 6.194068421029093, 51.624568394159077 ] } },
{ "type": "Feature", "properties": { "strassenschluessel": "05154000006459884", "bezeichnung": "Wiesenstraße" }, "geometry": { "type": "Point", "coordinates": [ 6.188400544789218, 51.627056573932023 ] } },
{ "type": "Feature", "properties": { "strassenschluessel": "05154000006459885", "bezeichnung": "Winkel" }, "geometry": null },
{ "type": "Feature", "properties": { "strassenschluessel": "05154000006459886", "bezeichnung": "Willy-Brandt-Ring" }, "geometry": { "type": "Point", "coordinates": [ 6.196755344385897, 51.617421914777331 ] } },
{ "type": "Feature", "properties": { "strassenschluessel": "05154000006459887", "bezeichnung": "Wissenerfeld" }, "geometry": { "type": "Point", "coordinates": [ 6.216307583885018, 51.610256212208455 ] } },
{ "type": "Feature", "properties": { "strassenschluessel": "05154000006459889", "bezeichnung": "York Way" }, "geometry": { "type": "Point", "coordinates": [ 6.192858498766294, 51.619809394664649 ] } },
{ "type": "Feature", "properties": { "strassenschluessel": "05154000006459890", "bezeichnung": "Zur Geizefurt" }, "geometry": { "type": "Point", "coordinates": [ 6.200250634282305, 51.627205331852799 ] } },
{ "type": "Feature", "properties": { "strassenschluessel": "05154000006459895", "bezeichnung": "Ilmenauer Straße" }, "geometry": { "type": "Point", "coordinates": [ 6.194952766279657, 51.61961442569261 ] } },
{ "type": "Feature", "properties": { "strassenschluessel": "051540000064=2610", "bezeichnung": "Eisenbahn Köln-Kranenburg" }, "geometry": null }
]
}
