{
"type": "FeatureCollection",
"features": [
{ "type": "Feature", "properties": { "strassenschluessel": "05974000005204001", "bezeichnung": "Alter Keller" }, "geometry": { "type": "Point", "coordinates": [ 7.911191574793127, 51.557317476754321 ] } },
{ "type": "Feature", "properties": { "strassenschluessel": "05974000005204002", "bezeichnung": "Am Budberger Pfad" }, "geometry": { "type": "Point", "coordinates": [ 7.899588530260534, 51.558845334437159 ] } },
{ "type": "Feature", "properties": { "strassenschluessel": "05974000005204003", "bezeichnung": "Am Fuchsschwanz" }, "geometry": { "type": "Point", "coordinates": [ 7.909776148941019, 51.561764314469684 ] } },
{ "type": "Feature", "properties": { "strassenschluessel": "05974000005204004", "bezeichnung": "Auf dem Kreiter" }, "geometry": { "type": "Point", "coordinates": [ 7.905597164597409, 51.561122859826561 ] } },
{ "type": "Feature", "properties": { "strassenschluessel": "05974000005204005", "bezeichnung": "Berdinghof" }, "geometry": { "type": "Point", "coordinates": [ 7.909804869486277, 51.560138629527017 ] } },
{ "type": "Feature", "properties": { "strassenschluessel": "05974000005204006", "bezeichnung": "Brandisstraße" }, "geometry": { "type": "Point", "coordinates": [ 7.909190409828593, 51.560223297811099 ] } },
{ "type": "Feature", "properties": { "strassenschluessel": "05974000005204007", "bezeichnung": "Einsteinstraße" }, "geometry": { "type": "Point", "coordinates": [ 7.909261693892921, 51.56680066318539 ] } },
{ "type": "Feature", "properties": { "strassenschluessel": "05974000005204008", "bezeichnung": "Gaugrevestraße" }, "geometry": { "type": "Point", "coordinates": [ 7.909046350031899, 51.560874373340546 ] } },
{ "type": "Feature", "properties": { "strassenschluessel": "05974000005204009", "bezeichnung": "Gutenbergring" }, "geometry": { "type": "Point", "coordinates": [ 7.906556888296609, 51.566030027993861 ] } },
{ "type": "Feature", "properties": { "strassenschluessel": "05974000005204010", "bezeichnung": "Hammer Straße" }, "geometry": { "type": "Point", "coordinates": [ 7.897712953729702, 51.56472748655365 ] } },
{ "type": "Feature", "properties": { "strassenschluessel": "05974000005204011", "bezeichnung": "Herrensberger Weg" }, "geometry": { "type": "Point", "coordinates": [ 7.911805966144158, 51.562404403699013 ] } },
{ "type": "Feature", "properties": { "strassenschluessel": "05974000005204012", "bezeichnung": "Humboldtstraße" }, "geometry": { "type": "Point", "coordinates": [ 7.909052079893085, 51.564651641998807 ] } },
{ "type": "Feature", "properties": { "strassenschluessel": "05974000005204013", "bezeichnung": "Justus-Liebig-Platz" }, "geometry": { "type": "Point", "coordinates": [ 7.908272979563617, 51.565167721567704 ] } },
{ "type": "Feature", "properties": { "strassenschluessel": "05974000005204014", "bezeichnung": "Kettelerstraße" }, "geometry": { "type": "Point", "coordinates": [ 7.906770711315017, 51.563948646178446 ] } },
{ "type": "Feature", "properties": { "strassenschluessel": "05974000005204015", "bezeichnung": "Kneippstraße" }, "geometry": { "type": "Point", "coordinates": [ 7.906123997033244, 51.567360756442326 ] } },
{ "type": "Feature", "properties": { "strassenschluessel": "05974000005204016", "bezeichnung": "Langenwiedenweg" }, "geometry": { "type": "Point", "coordinates": [ 7.913773667695582, 51.568360442937873 ] } },
{ "type": "Feature", "properties": { "strassenschluessel": "05974000005204017", "bezeichnung": "Laurenzstraße" }, "geometry": { "type": "Point", "coordinates": [ 7.910392633665979, 51.560286549067655 ] } },
{ "type": "Feature", "properties": { "strassenschluessel": "05974000005204018", "bezeichnung": "Mailoh" }, "geometry": { "type": "Point", "coordinates": [ 7.898728000561394, 51.565584782939744 ] } },
{ "type": "Feature", "properties": { "strassenschluessel": "05974000005204019", "bezeichnung": "Neuwerk" }, "geometry": { "type": "Point", "coordinates": [ 7.900965140638987, 51.565229602998222 ] } },
{ "type": "Feature", "properties": { "strassenschluessel": "05974000005204020", "bezeichnung": "Panningstraße" }, "geometry": { "type": "Point", "coordinates": [ 7.910362031153318, 51.563127746032322 ] } },
{ "type": "Feature", "properties": { "strassenschluessel": "05974000005204021", "bezeichnung": "Robert-Koch-Straße" }, "geometry": { "type": "Point", "coordinates": [ 7.908569976872718, 51.563351528975893 ] } },
{ "type": "Feature", "properties": { "strassenschluessel": "05974000005204022", "bezeichnung": "Röntgenstraße" }, "geometry": { "type": "Point", "coordinates": [ 7.909239425831082, 51.565168795797454 ] } },
{ "type": "Feature", "properties": { "strassenschluessel": "05974000005204023", "bezeichnung": "Rustigestraße" }, "geometry": { "type": "Point", "coordinates": [ 7.908960514472909, 51.561263720287791 ] } },
{ "type": "Feature", "properties": { "strassenschluessel": "05974000005204024", "bezeichnung": "Schüngelstraße" }, "geometry": { "type": "Point", "coordinates": [ 7.910727622492544, 51.560216599154295 ] } },
{ "type": "Feature", "properties": { "strassenschluessel": "05974000005204025", "bezeichnung": "Virchowanger" }, "geometry": { "type": "Point", "coordinates": [ 7.905291484189982, 51.566248434395902 ] } },
{ "type": "Feature", "properties": { "strassenschluessel": "05974000005204026", "bezeichnung": "Harkortstraße" }, "geometry": { "type": "Point", "coordinates": [ 7.900165683032035, 51.561055217636095 ] } },
{ "type": "Feature", "properties": { "strassenschluessel": "05974000005204027", "bezeichnung": "Kopfermannstraße" }, "geometry": { "type": "Point", "coordinates": [ 7.910958696270808, 51.565939866696255 ] } },
{ "type": "Feature", "properties": { "strassenschluessel": "05974000005204028", "bezeichnung": "An der Gottesgabe" }, "geometry": { "type": "Point", "coordinates": [ 7.907796753915775, 51.558384840198052 ] } },
{ "type": "Feature", "properties": { "strassenschluessel": "05974000005204029", "bezeichnung": "Bibopfad" }, "geometry": { "type": "Point", "coordinates": [ 7.910765062331341, 51.561404718156943 ] } },
{ "type": "Feature", "properties": { "strassenschluessel": "05974000005204030", "bezeichnung": "Hansering" }, "geometry": { "type": "Point", "coordinates": [ 7.923259245256454, 51.570577457481264 ] } },
{ "type": "Feature", "properties": { "strassenschluessel": "05974000005204031", "bezeichnung": "Walkmühlenstraße" }, "geometry": { "type": "Point", "coordinates": [ 7.911321651921682, 51.570685654975442 ] } },
{ "type": "Feature", "properties": { "strassenschluessel": "05974000005204032", "bezeichnung": "Am Fliegerhorst" }, "geometry": null },
{ "type": "Feature", "properties": { "strassenschluessel": "05974000005204033", "bezeichnung": "Hallenser Straße" }, "geometry": { "type": "Point", "coordinates": [ 7.90334208420822, 51.567220090007481 ] } },
{ "type": "Feature", "properties": { "strassenschluessel": "05974000005204034", "bezeichnung": "Lübecker Weg" }, "geometry": { "type": "Point", "coordinates": [ 7.904197228961701, 51.566376230540627 ] } },
{ "type": "Feature", "properties": { "strassenschluessel": "05974000005204035", "bezeichnung": "Bremer Weg" }, "geometry": { "type": "Point", "coordinates": [ 7.904108298135911, 51.567630224236552 ] } },
{ "type": "Feature", "properties": { "strassenschluessel": "05974000005204036", "bezeichnung": "Rostocker Weg" }, "geometry": { "type": "Point", "coordinates": [ 7.906183199205702, 51.568708578721129 ] } },
{ "type": "Feature", "properties": { "strassenschluessel": "05974000005204037", "bezeichnung": "Hamburger Weg" }, "geometry": { "type": "Point", "coordinates": [ 7.906457739038247, 51.568264109408922 ] } },
{ "type": "Feature", "properties": { "strassenschluessel": "05974000005204038", "bezeichnung": "Berliner Weg" }, "geometry": { "type": "Point", "coordinates": [ 7.907508696293646, 51.568773475218094 ] } },
{ "type": "Feature", "properties": { "strassenschluessel": "05974000005204039", "bezeichnung": "Lüneburger Weg" }, "geometry": { "type": "Point", "coordinates": [ 7.907901384338784, 51.568729283928604 ] } },
{ "type": "Feature", "properties": { "strassenschluessel": "05974000005204040", "bezeichnung": "Adolf-von-Hatzfeld-Straße" }, "geometry": { "type": "Point", "coordinates": [ 7.925030898080272, 51.564695202076486 ] } },
{ "type": "Feature", "properties": { "strassenschluessel": "05974000005204041", "bezeichnung": "Am Grüggelgraben" }, "geometry": { "type": "Point", "coordinates": [ 7.924347199723772, 51.559498939979321 ] } },
{ "type": "Feature", "properties": { "strassenschluessel": "05974000005204042", "bezeichnung": "An der Bundesbahn" }, "geometry": { "type": "Point", "coordinates": [ 7.913289280402133, 51.558480211081338 ] } },
{ "type": "Feature", "properties": { "strassenschluessel": "05974000005204043", "bezeichnung": "An der Kleinbahn" }, "geometry": { "type": "Point", "coordinates": [ 7.913339746823662, 51.558835260097169 ] } },
{ "type": "Feature", "properties": { "strassenschluessel": "05974000005204044", "bezeichnung": "Bergweg" }, "geometry": { "type": "Point", "coordinates": [ 7.91383063459851, 51.564538699621949 ] } },
{ "type": "Feature", "properties": { "strassenschluessel": "05974000005204045", "bezeichnung": "Bergstraßer Weg" }, "geometry": { "type": "Point", "coordinates": [ 7.932254995911008, 51.562953758677665 ] } },
{ "type": "Feature", "properties": { "strassenschluessel": "05974000005204046", "bezeichnung": "Drosselweg" }, "geometry": { "type": "Point", "coordinates": [ 7.922381798643305, 51.561014797579304 ] } },
{ "type": "Feature", "properties": { "strassenschluessel": "05974000005204047", "bezeichnung": "Droste-Hülshoff-Straße" }, "geometry": { "type": "Point", "coordinates": [ 7.925231160976144, 51.561935767727526 ] } },
{ "type": "Feature", "properties": { "strassenschluessel": "05974000005204048", "bezeichnung": "Finkenstraße" }, "geometry": { "type": "Point", "coordinates": [ 7.919911697350923, 51.561722714216558 ] } },
{ "type": "Feature", "properties": { "strassenschluessel": "05974000005204049", "bezeichnung": "Haus Koeningen" }, "geometry": { "type": "Point", "coordinates": [ 7.954483768911661, 51.581159433082853 ] } },
{ "type": "Feature", "properties": { "strassenschluessel": "05974000005204050", "bezeichnung": "Hilleanger" }, "geometry": { "type": "Point", "coordinates": [ 7.924796635102212, 51.563936236302567 ] } },
{ "type": "Feature", "properties": { "strassenschluessel": "05974000005204051", "bezeichnung": "Hof Flerke" }, "geometry": { "type": "Point", "coordinates": [ 7.93737290149089, 51.589453215217041 ] } },
{ "type": "Feature", "properties": { "strassenschluessel": "05974000005204052", "bezeichnung": "Hof Heide" }, "geometry": { "type": "Point", "coordinates": [ 7.939764985209082, 51.585776488613433 ] } },
{ "type": "Feature", "properties": { "strassenschluessel": "05974000005204053", "bezeichnung": "Industriestraße" }, "geometry": { "type": "Point", "coordinates": [ 7.92291641876224, 51.559155827394903 ] } },
{ "type": "Feature", "properties": { "strassenschluessel": "05974000005204054", "bezeichnung": "Kiebitzweg" }, "geometry": { "type": "Point", "coordinates": [ 7.922596664606989, 51.560629665257188 ] } },
{ "type": "Feature", "properties": { "strassenschluessel": "05974000005204055", "bezeichnung": "Kranichweg" }, "geometry": { "type": "Point", "coordinates": [ 7.917832703532339, 51.561943835038299 ] } },
{ "type": "Feature", "properties": { "strassenschluessel": "05974000005204056", "bezeichnung": "Meisenstraße" }, "geometry": { "type": "Point", "coordinates": [ 7.915846909160849, 51.561554944872285 ] } },
{ "type": "Feature", "properties": { "strassenschluessel": "05974000005204057", "bezeichnung": "Nordstraße" }, "geometry": { "type": "Point", "coordinates": [ 7.914847432824852, 51.560691952136153 ] } },
{ "type": "Feature", "properties": { "strassenschluessel": "05974000005204058", "bezeichnung": "Olakenweg" }, "geometry": { "type": "Point", "coordinates": [ 7.914514335405552, 51.560020954558645 ] } },
{ "type": "Feature", "properties": { "strassenschluessel": "05974000005204059", "bezeichnung": "Plaschkestraße" }, "geometry": { "type": "Point", "coordinates": [ 7.921675762381234, 51.562126951555911 ] } },
{ "type": "Feature", "properties": { "strassenschluessel": "05974000005204060", "bezeichnung": "Scheidinger Straße" }, "geometry": { "type": "Point", "coordinates": [ 7.923976851482955, 51.560544361673315 ] } },
{ "type": "Feature", "properties": { "strassenschluessel": "05974000005204061", "bezeichnung": "Schwalbennest" }, "geometry": { "type": "Point", "coordinates": [ 7.916844139263235, 51.560813331343525 ] } },
{ "type": "Feature", "properties": { "strassenschluessel": "05974000005204062", "bezeichnung": "Sperlingsgasse" }, "geometry": { "type": "Point", "coordinates": [ 7.916112689658314, 51.560872353806985 ] } },
{ "type": "Feature", "properties": { "strassenschluessel": "05974000005204063", "bezeichnung": "Weberanger" }, "geometry": { "type": "Point", "coordinates": [ 7.924541652791683, 51.561472135801885 ] } },
{ "type": "Feature", "properties": { "strassenschluessel": "05974000005204064", "bezeichnung": "Wibbeltanger" }, "geometry": { "type": "Point", "coordinates": [ 7.924888897928143, 51.563200961531734 ] } },
{ "type": "Feature", "properties": { "strassenschluessel": "05974000005204065", "bezeichnung": "Zur Mersch" }, "geometry": { "type": "Point", "coordinates": [ 7.92974811592706, 51.560076469023009 ] } },
{ "type": "Feature", "properties": { "strassenschluessel": "05974000005204066", "bezeichnung": "Am Brandhagen" }, "geometry": { "type": "Point", "coordinates": [ 7.928981737120396, 51.568444278002673 ] } },
{ "type": "Feature", "properties": { "strassenschluessel": "05974000005204067", "bezeichnung": "Melsterhag" }, "geometry": { "type": "Point", "coordinates": [ 7.919730028952114, 51.562903516017727 ] } },
{ "type": "Feature", "properties": { "strassenschluessel": "05974000005204068", "bezeichnung": "Belgische Straße" }, "geometry": { "type": "Point", "coordinates": [ 7.914563368632276, 51.566777921311655 ] } },
{ "type": "Feature", "properties": { "strassenschluessel": "05974000005204069", "bezeichnung": "Von-Papen-Anger" }, "geometry": { "type": "Point", "coordinates": [ 7.92250469501348, 51.567168478610057 ] } },
{ "type": "Feature", "properties": { "strassenschluessel": "05974000005204070", "bezeichnung": "Zunftweg" }, "geometry": { "type": "Point", "coordinates": [ 7.918138514381495, 51.567548206464821 ] } },
{ "type": "Feature", "properties": { "strassenschluessel": "05974000005204071", "bezeichnung": "Lohdiecksweg" }, "geometry": { "type": "Point", "coordinates": [ 7.920410403362863, 51.567098983186327 ] } },
{ "type": "Feature", "properties": { "strassenschluessel": "05974000005204072", "bezeichnung": "Hafervöhde" }, "geometry": { "type": "Point", "coordinates": [ 7.91842332366418, 51.571234928399335 ] } },
{ "type": "Feature", "properties": { "strassenschluessel": "05974000005204073", "bezeichnung": "Bernhard-Hellmann-Straße" }, "geometry": { "type": "Point", "coordinates": [ 7.922569038376644, 51.563698171507987 ] } },
{ "type": "Feature", "properties": { "strassenschluessel": "05974000005204074", "bezeichnung": "Kaspar-Basse-Weg" }, "geometry": { "type": "Point", "coordinates": [ 7.921173431749407, 51.564290645118305 ] } },
{ "type": "Feature", "properties": { "strassenschluessel": "05974000005204075", "bezeichnung": "Josef-Steinweg-Straße" }, "geometry": { "type": "Point", "coordinates": [ 7.921155597220585, 51.563989600193189 ] } },
{ "type": "Feature", "properties": { "strassenschluessel": "05974000005204076", "bezeichnung": "Hermann-Koch-Straße" }, "geometry": { "type": "Point", "coordinates": [ 7.920304443331773, 51.56338827355782 ] } },
{ "type": "Feature", "properties": { "strassenschluessel": "05974000005204077", "bezeichnung": "Alois-Bölte-Straße " }, "geometry": { "type": "Point", "coordinates": [ 7.905835981740066, 51.54876055571814 ] } },
{ "type": "Feature", "properties": { "strassenschluessel": "05974000005204080", "bezeichnung": "Aldegreveranger" }, "geometry": { "type": "Point", "coordinates": [ 7.925106524398814, 51.557335913749924 ] } },
{ "type": "Feature", "properties": { "strassenschluessel": "05974000005204081", "bezeichnung": "Alteraugenstraße" }, "geometry": { "type": "Point", "coordinates": [ 7.919500830743126, 51.556597287435117 ] } },
{ "type": "Feature", "properties": { "strassenschluessel": "05974000005204082", "bezeichnung": "Cloerstraße" }, "geometry": { "type": "Point", "coordinates": [ 7.922908088817804, 51.557423118980481 ] } },
{ "type": "Feature", "properties": { "strassenschluessel": "05974000005204083", "bezeichnung": "Conrad-von-Soest-Straße" }, "geometry": { "type": "Point", "coordinates": [ 7.925261785353499, 51.555139412699184 ] } },
{ "type": "Feature", "properties": { "strassenschluessel": "05974000005204084", "bezeichnung": "Freiligrathanger" }, "geometry": { "type": "Point", "coordinates": [ 7.924095378987313, 51.55734415427785 ] } },
{ "type": "Feature", "properties": { "strassenschluessel": "05974000005204085", "bezeichnung": "Friedhofsgasse" }, "geometry": { "type": "Point", "coordinates": [ 7.916259743644797, 51.550026035015726 ] } },
{ "type": "Feature", "properties": { "strassenschluessel": "05974000005204086", "bezeichnung": "Grafenstraße" }, "geometry": { "type": "Point", "coordinates": [ 7.915038879038606, 51.556869505034193 ] } },
{ "type": "Feature", "properties": { "strassenschluessel": "05974000005204087", "bezeichnung": "Gröhnestraße" }, "geometry": { "type": "Point", "coordinates": [ 7.923583293476367, 51.55624260480414 ] } },
{ "type": "Feature", "properties": { "strassenschluessel": "05974000005204088", "bezeichnung": "Hedwig-Dransfeld-Straße" }, "geometry": { "type": "Point", "coordinates": [ 7.918303263920603, 51.551505967952416 ] } },
{ "type": "Feature", "properties": { "strassenschluessel": "05974000005204089", "bezeichnung": "Kapellenweg" }, "geometry": { "type": "Point", "coordinates": [ 7.917908292867907, 51.556922473830021 ] } },
{ "type": "Feature", "properties": { "strassenschluessel": "05974000005204090", "bezeichnung": "Kleinsorgenring" }, "geometry": { "type": "Point", "coordinates": [ 7.9277523142684, 51.554088067421873 ] } },
{ "type": "Feature", "properties": { "strassenschluessel": "05974000005204091", "bezeichnung": "Maximilian-Heinrich-Platz" }, "geometry": { "type": "Point", "coordinates": [ 7.921793406048462, 51.554687685016937 ] } },
{ "type": "Feature", "properties": { "strassenschluessel": "05974000005204092", "bezeichnung": "Mellinstraße" }, "geometry": { "type": "Point", "coordinates": [ 7.92246539394764, 51.552889504383671 ] } },
{ "type": "Feature", "properties": { "strassenschluessel": "05974000005204093", "bezeichnung": "Münstermannstraße" }, "geometry": { "type": "Point", "coordinates": [ 7.922993784157694, 51.555978441656471 ] } },
{ "type": "Feature", "properties": { "strassenschluessel": "05974000005204094", "bezeichnung": "Ostuffeln" }, "geometry": { "type": "Point", "coordinates": [ 7.931457167889606, 51.556991947446363 ] } },
{ "type": "Feature", "properties": { "strassenschluessel": "05974000005204095", "bezeichnung": "Paul-Gerhardt-Straße" }, "geometry": { "type": "Point", "coordinates": [ 7.920362211277989, 51.554266854702917 ] } },
{ "type": "Feature", "properties": { "strassenschluessel": "05974000005204096", "bezeichnung": "Rottmannsring" }, "geometry": { "type": "Point", "coordinates": [ 7.926183259038147, 51.553705936847749 ] } },
{ "type": "Feature", "properties": { "strassenschluessel": "05974000005204097", "bezeichnung": "Schützenstraße" }, "geometry": { "type": "Point", "coordinates": [ 7.919203847162575, 51.557690893116572 ] } },
{ "type": "Feature", "properties": { "strassenschluessel": "05974000005204098", "bezeichnung": "Taubenpöthen" }, "geometry": { "type": "Point", "coordinates": [ 7.920874118266016, 51.55610498816543 ] } },
{ "type": "Feature", "properties": { "strassenschluessel": "05974000005204099", "bezeichnung": "Zur Beeke" }, "geometry": { "type": "Point", "coordinates": [ 7.92162233556554, 51.549869517474114 ] } },
{ "type": "Feature", "properties": { "strassenschluessel": "05974000005204100", "bezeichnung": "Kapuzinerring" }, "geometry": { "type": "Point", "coordinates": [ 7.923769173538886, 51.554806390014079 ] } },
{ "type": "Feature", "properties": { "strassenschluessel": "05974000005204101", "bezeichnung": "Kardinal-Jaeger-Straße" }, "geometry": { "type": "Point", "coordinates": [ 7.918775572583568, 51.553958233510286 ] } },
{ "type": "Feature", "properties": { "strassenschluessel": "05974000005204102", "bezeichnung": "Morgnerstraße" }, "geometry": { "type": "Point", "coordinates": [ 7.926606440395477, 51.555597256628438 ] } },
{ "type": "Feature", "properties": { "strassenschluessel": "05974000005204103", "bezeichnung": "Dr.-Abele-Weg" }, "geometry": { "type": "Point", "coordinates": [ 7.921862458337078, 51.5561035347528 ] } },
{ "type": "Feature", "properties": { "strassenschluessel": "05974000005204104", "bezeichnung": "Pengel-Pad" }, "geometry": null },
{ "type": "Feature", "properties": { "strassenschluessel": "05974000005204105", "bezeichnung": "Uffler Gasse" }, "geometry": null },
{ "type": "Feature", "properties": { "strassenschluessel": "05974000005204106", "bezeichnung": "Propst-Köster-Straße" }, "geometry": { "type": "Point", "coordinates": [ 7.92033948254903, 51.551511773425233 ] } },
{ "type": "Feature", "properties": { "strassenschluessel": "05974000005204107", "bezeichnung": "An den sieben Quellen" }, "geometry": { "type": "Point", "coordinates": [ 7.923299109480337, 51.55068829824824 ] } },
{ "type": "Feature", "properties": { "strassenschluessel": "05974000005204108", "bezeichnung": "Egbert-Lammers-Weg" }, "geometry": { "type": "Point", "coordinates": [ 7.922596456648588, 51.551131529700449 ] } },
{ "type": "Feature", "properties": { "strassenschluessel": "05974000005204109", "bezeichnung": "Lothar-Buhne-Weg" }, "geometry": { "type": "Point", "coordinates": [ 7.923286554368892, 51.550976331931956 ] } },
{ "type": "Feature", "properties": { "strassenschluessel": "05974000005204110", "bezeichnung": "Joseph-Wäscher-Weg" }, "geometry": { "type": "Point", "coordinates": [ 7.924219564429667, 51.551211164786551 ] } },
{ "type": "Feature", "properties": { "strassenschluessel": "05974000005204111", "bezeichnung": "Carl-Brodhun-Weg" }, "geometry": { "type": "Point", "coordinates": [ 7.924997538631859, 51.551432889256986 ] } },
{ "type": "Feature", "properties": { "strassenschluessel": "05974000005204120", "bezeichnung": "Am Kreuzkamp" }, "geometry": { "type": "Point", "coordinates": [ 7.911178065920939, 51.548486457316187 ] } },
{ "type": "Feature", "properties": { "strassenschluessel": "05974000005204121", "bezeichnung": "Am Vogelsang" }, "geometry": { "type": "Point", "coordinates": [ 7.911126632209318, 51.546862128959724 ] } },
{ "type": "Feature", "properties": { "strassenschluessel": "05974000005204122", "bezeichnung": "Auf dem Hönningen" }, "geometry": { "type": "Point", "coordinates": [ 7.913055532375029, 51.544976052312499 ] } },
{ "type": "Feature", "properties": { "strassenschluessel": "05974000005204123", "bezeichnung": "Blumenthaler Weg" }, "geometry": { "type": "Point", "coordinates": [ 7.917887261124542, 51.542479452102675 ] } },
{ "type": "Feature", "properties": { "strassenschluessel": "05974000005204124", "bezeichnung": "Breslauer Straße" }, "geometry": { "type": "Point", "coordinates": [ 7.930250532789759, 51.54545982382745 ] } },
{ "type": "Feature", "properties": { "strassenschluessel": "05974000005204125", "bezeichnung": "Danziger Straße" }, "geometry": { "type": "Point", "coordinates": [ 7.928869499457253, 51.545341379175603 ] } },
{ "type": "Feature", "properties": { "strassenschluessel": "05974000005204126", "bezeichnung": "Franziskaneranger" }, "geometry": { "type": "Point", "coordinates": [ 7.914363633680574, 51.545448186273006 ] } },
{ "type": "Feature", "properties": { "strassenschluessel": "05974000005204127", "bezeichnung": "Friedhofsweg" }, "geometry": { "type": "Point", "coordinates": [ 7.91925470838595, 51.548584967047866 ] } },
{ "type": "Feature", "properties": { "strassenschluessel": "05974000005204128", "bezeichnung": "Gartenweg" }, "geometry": { "type": "Point", "coordinates": [ 7.914292729215811, 51.549461261720907 ] } },
{ "type": "Feature", "properties": { "strassenschluessel": "05974000005204129", "bezeichnung": "Gerhart-Hauptmann-Straße" }, "geometry": { "type": "Point", "coordinates": [ 7.913580599086177, 51.544389950629586 ] } },
{ "type": "Feature", "properties": { "strassenschluessel": "05974000005204130", "bezeichnung": "Hammerstein" }, "geometry": { "type": "Point", "coordinates": [ 7.926600725338306, 51.545850220643729 ] } },
{ "type": "Feature", "properties": { "strassenschluessel": "05974000005204131", "bezeichnung": "Hellweg" }, "geometry": { "type": "Point", "coordinates": [ 7.915494404748195, 51.547747850045937 ] } },
{ "type": "Feature", "properties": { "strassenschluessel": "05974000005204132", "bezeichnung": "Hinter dem Friedhof" }, "geometry": { "type": "Point", "coordinates": [ 7.924557387206682, 51.546192583564896 ] } },
{ "type": "Feature", "properties": { "strassenschluessel": "05974000005204133", "bezeichnung": "Hohe Fahrt" }, "geometry": { "type": "Point", "coordinates": [ 7.918402190174482, 51.546236363689367 ] } },
{ "type": "Feature", "properties": { "strassenschluessel": "05974000005204134", "bezeichnung": "Im Steinerfeld" }, "geometry": null },
{ "type": "Feature", "properties": { "strassenschluessel": "05974000005204135", "bezeichnung": "Josef-Steinhoff-Straße" }, "geometry": { "type": "Point", "coordinates": [ 7.913842550877036, 51.548112563872351 ] } },
{ "type": "Feature", "properties": { "strassenschluessel": "05974000005204136", "bezeichnung": "Königsberger Straße" }, "geometry": { "type": "Point", "coordinates": [ 7.928604584135352, 51.545728512351246 ] } },
{ "type": "Feature", "properties": { "strassenschluessel": "05974000005204137", "bezeichnung": "Marienburger Straße" }, "geometry": { "type": "Point", "coordinates": [ 7.928320379368835, 51.545455302180407 ] } },
{ "type": "Feature", "properties": { "strassenschluessel": "05974000005204138", "bezeichnung": "Michaelisanger" }, "geometry": { "type": "Point", "coordinates": [ 7.907980538849692, 51.547019959811706 ] } },
{ "type": "Feature", "properties": { "strassenschluessel": "05974000005204139", "bezeichnung": "Neheimer Straße" }, "geometry": { "type": "Point", "coordinates": [ 7.922425559257256, 51.544598341994003 ] } },
{ "type": "Feature", "properties": { "strassenschluessel": "05974000005204140", "bezeichnung": "Paul-Keller-Straße" }, "geometry": { "type": "Point", "coordinates": [ 7.911678525151975, 51.54467978693615 ] } },
{ "type": "Feature", "properties": { "strassenschluessel": "05974000005204141", "bezeichnung": "Ruhrgraben" }, "geometry": { "type": "Point", "coordinates": [ 7.914505789174061, 51.544737216474125 ] } },
{ "type": "Feature", "properties": { "strassenschluessel": "05974000005204142", "bezeichnung": "Soester Straße" }, "geometry": { "type": "Point", "coordinates": [ 7.92868757975164, 51.549200203793085 ] } },
{ "type": "Feature", "properties": { "strassenschluessel": "05974000005204143", "bezeichnung": "Steinkuhle" }, "geometry": { "type": "Point", "coordinates": [ 7.916148951702004, 51.539596199801615 ] } },
{ "type": "Feature", "properties": { "strassenschluessel": "05974000005204144", "bezeichnung": "Stettiner Straße" }, "geometry": { "type": "Point", "coordinates": [ 7.927282759060824, 51.546269398475545 ] } },
{ "type": "Feature", "properties": { "strassenschluessel": "05974000005204145", "bezeichnung": "Stralsunder Straße" }, "geometry": { "type": "Point", "coordinates": [ 7.927813638808449, 51.547454704157118 ] } },
{ "type": "Feature", "properties": { "strassenschluessel": "05974000005204146", "bezeichnung": "Unionstraße" }, "geometry": { "type": "Point", "coordinates": [ 7.928958294209592, 51.550094996954108 ] } },
{ "type": "Feature", "properties": { "strassenschluessel": "05974000005204147", "bezeichnung": "Waltringer Weg" }, "geometry": { "type": "Point", "coordinates": [ 7.916726413374567, 51.546470666008375 ] } },
{ "type": "Feature", "properties": { "strassenschluessel": "05974000005204148", "bezeichnung": "Wulfs Appelhof" }, "geometry": { "type": "Point", "coordinates": [ 7.916312075946749, 51.540228992037356 ] } },
{ "type": "Feature", "properties": { "strassenschluessel": "05974000005204149", "bezeichnung": "Propst-Hamm-Weg" }, "geometry": { "type": "Point", "coordinates": [ 7.918887448888868, 51.544891835378365 ] } },
{ "type": "Feature", "properties": { "strassenschluessel": "05974000005204150", "bezeichnung": "Kaiserhalle" }, "geometry": { "type": "Point", "coordinates": [ 7.916105113883429, 51.544513686580864 ] } },
{ "type": "Feature", "properties": { "strassenschluessel": "05974000005204151", "bezeichnung": "Pater-Kirchhoff-Straße" }, "geometry": { "type": "Point", "coordinates": [ 7.914146960812565, 51.546114144546415 ] } },
{ "type": "Feature", "properties": { "strassenschluessel": "05974000005204152", "bezeichnung": "Pater-Kolbe-Straße" }, "geometry": { "type": "Point", "coordinates": [ 7.912471689659875, 51.54554498959363 ] } },
{ "type": "Feature", "properties": { "strassenschluessel": "05974000005204153", "bezeichnung": "Pater-Luig-Straße" }, "geometry": { "type": "Point", "coordinates": [ 7.915571251869359, 51.545943601340156 ] } },
{ "type": "Feature", "properties": { "strassenschluessel": "05974000005204154", "bezeichnung": "Benditstraße" }, "geometry": { "type": "Point", "coordinates": [ 7.923610246837726, 51.541634917302495 ] } },
{ "type": "Feature", "properties": { "strassenschluessel": "05974000005204155", "bezeichnung": "Beethovenstraße" }, "geometry": { "type": "Point", "coordinates": [ 7.913190064707639, 51.541053897635713 ] } },
{ "type": "Feature", "properties": { "strassenschluessel": "05974000005204156", "bezeichnung": "Brahmsweg" }, "geometry": { "type": "Point", "coordinates": [ 7.91468071310564, 51.54157832670743 ] } },
{ "type": "Feature", "properties": { "strassenschluessel": "05974000005204157", "bezeichnung": "Cappstraße" }, "geometry": { "type": "Point", "coordinates": [ 7.91180684659582, 51.542655190535442 ] } },
{ "type": "Feature", "properties": { "strassenschluessel": "05974000005204158", "bezeichnung": "Johann-Sebastian-Bach-Straße" }, "geometry": { "type": "Point", "coordinates": [ 7.913016964046992, 51.542335807172968 ] } },
{ "type": "Feature", "properties": { "strassenschluessel": "05974000005204159", "bezeichnung": "Joseph-Haydn-Weg" }, "geometry": { "type": "Point", "coordinates": [ 7.914380483439962, 51.541886133673117 ] } },
{ "type": "Feature", "properties": { "strassenschluessel": "05974000005204160", "bezeichnung": "Lisztweg" }, "geometry": { "type": "Point", "coordinates": [ 7.914934114454147, 51.539491120849881 ] } },
{ "type": "Feature", "properties": { "strassenschluessel": "05974000005204161", "bezeichnung": "Mozartstraße" }, "geometry": { "type": "Point", "coordinates": [ 7.912698626062072, 51.539679264551388 ] } },
{ "type": "Feature", "properties": { "strassenschluessel": "05974000005204162", "bezeichnung": "Offenbachweg" }, "geometry": { "type": "Point", "coordinates": [ 7.912688418710231, 51.539224191121292 ] } },
{ "type": "Feature", "properties": { "strassenschluessel": "05974000005204163", "bezeichnung": "Orffstraße" }, "geometry": { "type": "Point", "coordinates": [ 7.913574930690642, 51.539421056496366 ] } },
{ "type": "Feature", "properties": { "strassenschluessel": "05974000005204164", "bezeichnung": "Schubertweg" }, "geometry": { "type": "Point", "coordinates": [ 7.911927090759449, 51.541702125627523 ] } },
{ "type": "Feature", "properties": { "strassenschluessel": "05974000005204165", "bezeichnung": "Schumannweg" }, "geometry": { "type": "Point", "coordinates": [ 7.914583989699905, 51.539696668151201 ] } },
{ "type": "Feature", "properties": { "strassenschluessel": "05974000005204166", "bezeichnung": "Telemannstraße" }, "geometry": { "type": "Point", "coordinates": [ 7.911998310379432, 51.540720874425297 ] } },
{ "type": "Feature", "properties": { "strassenschluessel": "05974000005204167", "bezeichnung": "Crispenweg" }, "geometry": { "type": "Point", "coordinates": [ 7.914132815166334, 51.547003971876123 ] } },
{ "type": "Feature", "properties": { "strassenschluessel": "05974000005204168", "bezeichnung": "Max-Liersch-Anger" }, "geometry": { "type": "Point", "coordinates": [ 7.915567614100121, 51.541656152903464 ] } },
{ "type": "Feature", "properties": { "strassenschluessel": "05974000005204169", "bezeichnung": "An Sanders Steinbruch" }, "geometry": { "type": "Point", "coordinates": [ 7.923103376563011, 51.545650022085283 ] } },
{ "type": "Feature", "properties": { "strassenschluessel": "05974000005204170", "bezeichnung": "Ahornallee" }, "geometry": { "type": "Point", "coordinates": [ 7.902719091231812, 51.546830246065241 ] } },
{ "type": "Feature", "properties": { "strassenschluessel": "05974000005204171", "bezeichnung": "Akazienweg" }, "geometry": { "type": "Point", "coordinates": [ 7.902153065738152, 51.550221221261971 ] } },
{ "type": "Feature", "properties": { "strassenschluessel": "05974000005204172", "bezeichnung": "Am Alten Schloß" }, "geometry": null },
{ "type": "Feature", "properties": { "strassenschluessel": "05974000005204173", "bezeichnung": "Am Stadtgraben" }, "geometry": { "type": "Point", "coordinates": [ 7.909066882428368, 51.551822892968588 ] } },
{ "type": "Feature", "properties": { "strassenschluessel": "05974000005204174", "bezeichnung": "Birkenweg" }, "geometry": { "type": "Point", "coordinates": [ 7.899035664531289, 51.548404612343859 ] } },
{ "type": "Feature", "properties": { "strassenschluessel": "05974000005204175", "bezeichnung": "Buchenweg" }, "geometry": { "type": "Point", "coordinates": [ 7.89938462774176, 51.54720221710312 ] } },
{ "type": "Feature", "properties": { "strassenschluessel": "05974000005204176", "bezeichnung": "Kastanienallee" }, "geometry": { "type": "Point", "coordinates": [ 7.902533711087123, 51.548220828667539 ] } },
{ "type": "Feature", "properties": { "strassenschluessel": "05974000005204177", "bezeichnung": "Kurfürstenring" }, "geometry": { "type": "Point", "coordinates": [ 7.908918430456873, 51.54731118760683 ] } },
{ "type": "Feature", "properties": { "strassenschluessel": "05974000005204178", "bezeichnung": "Lindenallee" }, "geometry": { "type": "Point", "coordinates": [ 7.900127528373749, 51.549066190065439 ] } },
{ "type": "Feature", "properties": { "strassenschluessel": "05974000005204179", "bezeichnung": "Rotdornweg" }, "geometry": { "type": "Point", "coordinates": [ 7.902555355260946, 51.547625192483224 ] } },
{ "type": "Feature", "properties": { "strassenschluessel": "05974000005204180", "bezeichnung": "St.-Georg-Straße" }, "geometry": { "type": "Point", "coordinates": [ 7.907673598402321, 51.54786532022208 ] } },
{ "type": "Feature", "properties": { "strassenschluessel": "05974000005204181", "bezeichnung": "Steinerbrücke" }, "geometry": { "type": "Point", "coordinates": [ 7.906987473649877, 51.548408729810006 ] } },
{ "type": "Feature", "properties": { "strassenschluessel": "05974000005204182", "bezeichnung": "Unnaer Straße" }, "geometry": { "type": "Point", "coordinates": [ 7.902093270037334, 51.55082324417387 ] } },
{ "type": "Feature", "properties": { "strassenschluessel": "05974000005204183", "bezeichnung": "Weingassenpfad" }, "geometry": { "type": "Point", "coordinates": [ 7.907101281731403, 51.551757500972641 ] } },
{ "type": "Feature", "properties": { "strassenschluessel": "05974000005204184", "bezeichnung": "Westuffler Weg" }, "geometry": { "type": "Point", "coordinates": [ 7.90501372251765, 51.549957797989414 ] } },
{ "type": "Feature", "properties": { "strassenschluessel": "05974000005204185", "bezeichnung": "Wickeder Straße" }, "geometry": { "type": "Point", "coordinates": [ 7.897945141066023, 51.528845052236036 ] } },
{ "type": "Feature", "properties": { "strassenschluessel": "05974000005204186", "bezeichnung": "Schloßgassenpfad" }, "geometry": { "type": "Point", "coordinates": [ 7.909240846004065, 51.552785271133537 ] } },
{ "type": "Feature", "properties": { "strassenschluessel": "05974000005204187", "bezeichnung": "Am Golfplatz" }, "geometry": { "type": "Point", "coordinates": [ 7.880306040969513, 51.511965795253765 ] } },
{ "type": "Feature", "properties": { "strassenschluessel": "05974000005204188", "bezeichnung": "Pater-Oswald-Straße" }, "geometry": { "type": "Point", "coordinates": [ 7.915079502233376, 51.544088802857004 ] } },
{ "type": "Feature", "properties": { "strassenschluessel": "05974000005204200", "bezeichnung": "Am Breilsgraben" }, "geometry": { "type": "Point", "coordinates": [ 7.903834899012049, 51.554076897338106 ] } },
{ "type": "Feature", "properties": { "strassenschluessel": "05974000005204201", "bezeichnung": "Am Lyggengraben" }, "geometry": { "type": "Point", "coordinates": [ 7.906311043770484, 51.552780011475818 ] } },
{ "type": "Feature", "properties": { "strassenschluessel": "05974000005204202", "bezeichnung": "Beringweg" }, "geometry": { "type": "Point", "coordinates": [ 7.898663222435674, 51.552975225100631 ] } },
{ "type": "Feature", "properties": { "strassenschluessel": "05974000005204203", "bezeichnung": "Brabanter Straße" }, "geometry": { "type": "Point", "coordinates": [ 7.899362827583694, 51.550533243876934 ] } },
{ "type": "Feature", "properties": { "strassenschluessel": "05974000005204204", "bezeichnung": "Büdericher Straße" }, "geometry": { "type": "Point", "coordinates": [ 7.895658623253255, 51.551246080481278 ] } },
{ "type": "Feature", "properties": { "strassenschluessel": "05974000005204205", "bezeichnung": "Grüner Weg" }, "geometry": { "type": "Point", "coordinates": [ 7.897737014692178, 51.55349818116467 ] } },
{ "type": "Feature", "properties": { "strassenschluessel": "05974000005204206", "bezeichnung": "Höppe" }, "geometry": { "type": "Point", "coordinates": [ 7.905904731165123, 51.559253610321313 ] } },
{ "type": "Feature", "properties": { "strassenschluessel": "05974000005204207", "bezeichnung": "Im Westenfeld" }, "geometry": { "type": "Point", "coordinates": [ 7.897545267255142, 51.551998003056092 ] } },
{ "type": "Feature", "properties": { "strassenschluessel": "05974000005204208", "bezeichnung": "Johannes-Spieker-Anger" }, "geometry": { "type": "Point", "coordinates": [ 7.89741989063075, 51.55604288357879 ] } },
{ "type": "Feature", "properties": { "strassenschluessel": "05974000005204209", "bezeichnung": "Kucklermühlenweg" }, "geometry": { "type": "Point", "coordinates": [ 7.900685435500224, 51.554339574407315 ] } },
{ "type": "Feature", "properties": { "strassenschluessel": "05974000005204210", "bezeichnung": "Lüenbrink" }, "geometry": { "type": "Point", "coordinates": [ 7.907322144992682, 51.554306986927855 ] } },
{ "type": "Feature", "properties": { "strassenschluessel": "05974000005204211", "bezeichnung": "Marianne-Heese-Straße" }, "geometry": { "type": "Point", "coordinates": [ 7.902348259232981, 51.554476164903363 ] } },
{ "type": "Feature", "properties": { "strassenschluessel": "05974000005204212", "bezeichnung": "Mühlenweg" }, "geometry": { "type": "Point", "coordinates": [ 7.908558482931068, 51.553785671789768 ] } },
{ "type": "Feature", "properties": { "strassenschluessel": "05974000005204213", "bezeichnung": "Rosenthalanger" }, "geometry": { "type": "Point", "coordinates": [ 7.897655300344106, 51.552633666860551 ] } },
{ "type": "Feature", "properties": { "strassenschluessel": "05974000005204214", "bezeichnung": "Salinenring" }, "geometry": { "type": "Point", "coordinates": [ 7.904469355076484, 51.553089025055669 ] } },
{ "type": "Feature", "properties": { "strassenschluessel": "05974000005204215", "bezeichnung": "Tentsbecke" }, "geometry": { "type": "Point", "coordinates": [ 7.900167060166614, 51.555367324012579 ] } },
{ "type": "Feature", "properties": { "strassenschluessel": "05974000005204216", "bezeichnung": "Von-Lilien-Anger" }, "geometry": { "type": "Point", "coordinates": [ 7.896130246733019, 51.550728513326035 ] } },
{ "type": "Feature", "properties": { "strassenschluessel": "05974000005204217", "bezeichnung": "Wiesenstraße" }, "geometry": { "type": "Point", "coordinates": [ 7.904976747434259, 51.556895333086104 ] } },
{ "type": "Feature", "properties": { "strassenschluessel": "05974000005204218", "bezeichnung": "Zum Salzbach" }, "geometry": { "type": "Point", "coordinates": [ 7.901252450666054, 51.55716826126833 ] } },
{ "type": "Feature", "properties": { "strassenschluessel": "05974000005204219", "bezeichnung": "Eschenweg" }, "geometry": { "type": "Point", "coordinates": [ 7.898288156519694, 51.550905939610487 ] } },
{ "type": "Feature", "properties": { "strassenschluessel": "05974000005204220", "bezeichnung": "Dahlienstraße" }, "geometry": { "type": "Point", "coordinates": [ 7.895717103069134, 51.550442231158051 ] } },
{ "type": "Feature", "properties": { "strassenschluessel": "05974000005204221", "bezeichnung": "Lotzestraße" }, "geometry": { "type": "Point", "coordinates": [ 7.899447508959129, 51.553476614531 ] } },
{ "type": "Feature", "properties": { "strassenschluessel": "05974000005204222", "bezeichnung": "Kaiserin-Gisela-Straße" }, "geometry": { "type": "Point", "coordinates": [ 7.894961356755375, 51.550031086221033 ] } },
{ "type": "Feature", "properties": { "strassenschluessel": "05974000005204223", "bezeichnung": "Rudolf-Preising-Straße" }, "geometry": { "type": "Point", "coordinates": [ 7.896280365818883, 51.555380330003658 ] } },
{ "type": "Feature", "properties": { "strassenschluessel": "05974000005204240", "bezeichnung": "Alter Markt" }, "geometry": { "type": "Point", "coordinates": [ 7.913939443508988, 51.553388868764451 ] } },
{ "type": "Feature", "properties": { "strassenschluessel": "05974000005204241", "bezeichnung": "Am Rykenberg" }, "geometry": { "type": "Point", "coordinates": [ 7.914105436262039, 51.550678162379356 ] } },
{ "type": "Feature", "properties": { "strassenschluessel": "05974000005204242", "bezeichnung": "Auf dem Engern" }, "geometry": null },
{ "type": "Feature", "properties": { "strassenschluessel": "05974000005204243", "bezeichnung": "Bachstraße" }, "geometry": { "type": "Point", "coordinates": [ 7.912722588775747, 51.554245517185656 ] } },
{ "type": "Feature", "properties": { "strassenschluessel": "05974000005204244", "bezeichnung": "Bäckerstraße" }, "geometry": { "type": "Point", "coordinates": [ 7.909237518025503, 51.553338680677108 ] } },
{ "type": "Feature", "properties": { "strassenschluessel": "05974000005204245", "bezeichnung": "Bahnhofstraße" }, "geometry": { "type": "Point", "coordinates": [ 7.913662004290742, 51.557878644355036 ] } },
{ "type": "Feature", "properties": { "strassenschluessel": "05974000005204246", "bezeichnung": "Bocksgasse" }, "geometry": null },
{ "type": "Feature", "properties": { "strassenschluessel": "05974000005204247", "bezeichnung": "Bollergasse" }, "geometry": { "type": "Point", "coordinates": [ 7.912353026871016, 51.556036609379738 ] } },
{ "type": "Feature", "properties": { "strassenschluessel": "05974000005204248", "bezeichnung": "Brunnengasse" }, "geometry": null },
{ "type": "Feature", "properties": { "strassenschluessel": "05974000005204249", "bezeichnung": "Buntekuhstraße" }, "geometry": { "type": "Point", "coordinates": [ 7.911249225478821, 51.552956644240318 ] } },
{ "type": "Feature", "properties": { "strassenschluessel": "05974000005204250", "bezeichnung": "Dörgang" }, "geometry": { "type": "Point", "coordinates": [ 7.91709059892827, 51.551535183385965 ] } },
{ "type": "Feature", "properties": { "strassenschluessel": "05974000005204251", "bezeichnung": "Engelhardstraße" }, "geometry": { "type": "Point", "coordinates": [ 7.915616218358108, 51.552925579352994 ] } },
{ "type": "Feature", "properties": { "strassenschluessel": "05974000005204252", "bezeichnung": "Erbsälzerstraße" }, "geometry": { "type": "Point", "coordinates": [ 7.909863871017939, 51.554492709632378 ] } },
{ "type": "Feature", "properties": { "strassenschluessel": "05974000005204253", "bezeichnung": "Gesellengasse" }, "geometry": { "type": "Point", "coordinates": [ 7.915465467281098, 51.552022817916836 ] } },
{ "type": "Feature", "properties": { "strassenschluessel": "05974000005204254", "bezeichnung": "Glockengasse" }, "geometry": null },
{ "type": "Feature", "properties": { "strassenschluessel": "05974000005204255", "bezeichnung": "Güldenpoth" }, "geometry": null },
{ "type": "Feature", "properties": { "strassenschluessel": "05974000005204256", "bezeichnung": "Jägerstraße" }, "geometry": { "type": "Point", "coordinates": [ 7.909914414743928, 51.551830500149933 ] } },
{ "type": "Feature", "properties": { "strassenschluessel": "05974000005204257", "bezeichnung": "Kälbermarkt" }, "geometry": { "type": "Point", "coordinates": [ 7.912406541094089, 51.553473096869276 ] } },
{ "type": "Feature", "properties": { "strassenschluessel": "05974000005204258", "bezeichnung": "Kämperstraße" }, "geometry": { "type": "Point", "coordinates": [ 7.913129006235949, 51.550994524757733 ] } },
{ "type": "Feature", "properties": { "strassenschluessel": "05974000005204259", "bezeichnung": "Kettenstraße" }, "geometry": null },
{ "type": "Feature", "properties": { "strassenschluessel": "05974000005204260", "bezeichnung": "Kirchplatz" }, "geometry": { "type": "Point", "coordinates": [ 7.913623397097415, 51.552484386000586 ] } },
{ "type": "Feature", "properties": { "strassenschluessel": "05974000005204261", "bezeichnung": "Kisastraße" }, "geometry": { "type": "Point", "coordinates": [ 7.914623782029522, 51.549889449063585 ] } },
{ "type": "Feature", "properties": { "strassenschluessel": "05974000005204262", "bezeichnung": "Kletterpoth" }, "geometry": { "type": "Point", "coordinates": [ 7.916534255123306, 51.552742215431493 ] } },
{ "type": "Feature", "properties": { "strassenschluessel": "05974000005204263", "bezeichnung": "Klosterstraße" }, "geometry": { "type": "Point", "coordinates": [ 7.915130904889563, 51.554827237266778 ] } },
{ "type": "Feature", "properties": { "strassenschluessel": "05974000005204264", "bezeichnung": "Krämergasse" }, "geometry": { "type": "Point", "coordinates": [ 7.912974516365053, 51.552439009388685 ] } },
{ "type": "Feature", "properties": { "strassenschluessel": "05974000005204265", "bezeichnung": "Krumme Straße" }, "geometry": { "type": "Point", "coordinates": [ 7.91161776764131, 51.55178190274448 ] } },
{ "type": "Feature", "properties": { "strassenschluessel": "05974000005204266", "bezeichnung": "Kurze Straße" }, "geometry": { "type": "Point", "coordinates": [ 7.916119465416855, 51.551205210738942 ] } },
{ "type": "Feature", "properties": { "strassenschluessel": "05974000005204267", "bezeichnung": "Liebfrauenstraße" }, "geometry": { "type": "Point", "coordinates": [ 7.909686657899203, 51.551794690903385 ] } },
{ "type": "Feature", "properties": { "strassenschluessel": "05974000005204268", "bezeichnung": "Marienstraße" }, "geometry": { "type": "Point", "coordinates": [ 7.910406753930493, 51.551406450726645 ] } },
{ "type": "Feature", "properties": { "strassenschluessel": "05974000005204269", "bezeichnung": "Marktstraße" }, "geometry": { "type": "Point", "coordinates": [ 7.91225735308388, 51.553145960346455 ] } },
{ "type": "Feature", "properties": { "strassenschluessel": "05974000005204270", "bezeichnung": "Mehlerstraße" }, "geometry": { "type": "Point", "coordinates": [ 7.914046379672313, 51.54992136038198 ] } },
{ "type": "Feature", "properties": { "strassenschluessel": "05974000005204271", "bezeichnung": "Melstergraben" }, "geometry": { "type": "Point", "coordinates": [ 7.91461396952042, 51.556098224667423 ] } },
{ "type": "Feature", "properties": { "strassenschluessel": "05974000005204272", "bezeichnung": "Melsterstraße" }, "geometry": { "type": "Point", "coordinates": [ 7.914689048509885, 51.554994143196772 ] } },
{ "type": "Feature", "properties": { "strassenschluessel": "05974000005204273", "bezeichnung": "Neuergraben" }, "geometry": { "type": "Point", "coordinates": [ 7.913419375386765, 51.549555569229497 ] } },
{ "type": "Feature", "properties": { "strassenschluessel": "05974000005204274", "bezeichnung": "Neuer Markt" }, "geometry": { "type": "Point", "coordinates": [ 7.913424360684331, 51.553753932462378 ] } },
{ "type": "Feature", "properties": { "strassenschluessel": "05974000005204275", "bezeichnung": "Neuerstraße" }, "geometry": { "type": "Point", "coordinates": [ 7.911983148552388, 51.550832560447049 ] } },
{ "type": "Feature", "properties": { "strassenschluessel": "05974000005204276", "bezeichnung": "Peterstraße" }, "geometry": { "type": "Point", "coordinates": [ 7.913024876898231, 51.549919508883889 ] } },
{ "type": "Feature", "properties": { "strassenschluessel": "05974000005204277", "bezeichnung": "Salzstraße" }, "geometry": { "type": "Point", "coordinates": [ 7.913684314103334, 51.555549103166861 ] } },
{ "type": "Feature", "properties": { "strassenschluessel": "05974000005204278", "bezeichnung": "Sandgasse" }, "geometry": { "type": "Point", "coordinates": [ 7.914913328738118, 51.554207627339487 ] } },
{ "type": "Feature", "properties": { "strassenschluessel": "05974000005204279", "bezeichnung": "Schloßstraße" }, "geometry": { "type": "Point", "coordinates": [ 7.910746005337312, 51.550420982359512 ] } },
{ "type": "Feature", "properties": { "strassenschluessel": "05974000005204280", "bezeichnung": "Schulgasse" }, "geometry": null },
{ "type": "Feature", "properties": { "strassenschluessel": "05974000005204281", "bezeichnung": "Siederstraße" }, "geometry": { "type": "Point", "coordinates": [ 7.912111111430958, 51.553472336405335 ] } },
{ "type": "Feature", "properties": { "strassenschluessel": "05974000005204282", "bezeichnung": "Spitalgasse" }, "geometry": { "type": "Point", "coordinates": [ 7.911104014629543, 51.554035713989435 ] } },
{ "type": "Feature", "properties": { "strassenschluessel": "05974000005204283", "bezeichnung": "Steinergraben" }, "geometry": { "type": "Point", "coordinates": [ 7.916913657500285, 51.553418203531869 ] } },
{ "type": "Feature", "properties": { "strassenschluessel": "05974000005204284", "bezeichnung": "Steinerstraße" }, "geometry": { "type": "Point", "coordinates": [ 7.914944401070049, 51.550860099067251 ] } },
{ "type": "Feature", "properties": { "strassenschluessel": "05974000005204285", "bezeichnung": "Tütelstraße" }, "geometry": { "type": "Point", "coordinates": [ 7.913608228720276, 51.550202171406305 ] } },
{ "type": "Feature", "properties": { "strassenschluessel": "05974000005204286", "bezeichnung": "Walburgisstraße" }, "geometry": { "type": "Point", "coordinates": [ 7.911643580528131, 51.556136442620875 ] } },
{ "type": "Feature", "properties": { "strassenschluessel": "05974000005204287", "bezeichnung": "Sponnierstraße" }, "geometry": { "type": "Point", "coordinates": [ 7.915058500213544, 51.551581081675756 ] } },
{ "type": "Feature", "properties": { "strassenschluessel": "05974000005204288", "bezeichnung": "Spinnebahn" }, "geometry": null },
{ "type": "Feature", "properties": { "strassenschluessel": "05974000005204289", "bezeichnung": "Max-Halle-Weg" }, "geometry": null },
{ "type": "Feature", "properties": { "strassenschluessel": "05974000005204290", "bezeichnung": "Synagogenplatz" }, "geometry": null },
{ "type": "Feature", "properties": { "strassenschluessel": "05974000005204291", "bezeichnung": "Steinertorplatz" }, "geometry": { "type": "Point", "coordinates": [ 7.916094897249967, 51.549600287062916 ] } },
{ "type": "Feature", "properties": { "strassenschluessel": "05974000005204315", "bezeichnung": "A 445" }, "geometry": null },
{ "type": "Feature", "properties": { "strassenschluessel": "05974000005204316", "bezeichnung": "Umgehungsstraße B 1" }, "geometry": null },
{ "type": "Feature", "properties": { "strassenschluessel": "05974000005204320", "bezeichnung": "Blumenthal" }, "geometry": { "type": "Point", "coordinates": [ 7.929243155660133, 51.532775616248635 ] } },
{ "type": "Feature", "properties": { "strassenschluessel": "05974000005204321", "bezeichnung": "Haarweg" }, "geometry": null },
{ "type": "Feature", "properties": { "strassenschluessel": "05974000005204350", "bezeichnung": "Am Budberger Bach" }, "geometry": { "type": "Point", "coordinates": [ 7.877382105815272, 51.563648891707345 ] } },
{ "type": "Feature", "properties": { "strassenschluessel": "05974000005204351", "bezeichnung": "Hammer Landstraße" }, "geometry": { "type": "Point", "coordinates": [ 7.89004367111334, 51.56658142750608 ] } },
{ "type": "Feature", "properties": { "strassenschluessel": "05974000005204352", "bezeichnung": "Haus Borg" }, "geometry": { "type": "Point", "coordinates": [ 7.862277418781511, 51.569669842345071 ] } },
{ "type": "Feature", "properties": { "strassenschluessel": "05974000005204353", "bezeichnung": "Iwering" }, "geometry": { "type": "Point", "coordinates": [ 7.873088855389962, 51.566436648492186 ] } },
{ "type": "Feature", "properties": { "strassenschluessel": "05974000005204354", "bezeichnung": "Michaelstraße" }, "geometry": { "type": "Point", "coordinates": [ 7.879903746742895, 51.564905056779892 ] } },
{ "type": "Feature", "properties": { "strassenschluessel": "05974000005204355", "bezeichnung": "Ölkamp" }, "geometry": { "type": "Point", "coordinates": [ 7.871749926045794, 51.565099815752326 ] } },
{ "type": "Feature", "properties": { "strassenschluessel": "05974000005204356", "bezeichnung": "Tiggestraße" }, "geometry": { "type": "Point", "coordinates": [ 7.876390619352232, 51.564783726676318 ] } },
{ "type": "Feature", "properties": { "strassenschluessel": "05974000005204357", "bezeichnung": "Wiesengrund" }, "geometry": { "type": "Point", "coordinates": [ 7.87868636687933, 51.563404172265159 ] } },
{ "type": "Feature", "properties": { "strassenschluessel": "05974000005204358", "bezeichnung": "Am Maifeld" }, "geometry": { "type": "Point", "coordinates": [ 7.889846813775791, 51.569328754027623 ] } },
{ "type": "Feature", "properties": { "strassenschluessel": "05974000005204359", "bezeichnung": "An Krollmanns Hof" }, "geometry": { "type": "Point", "coordinates": [ 7.875016131234, 51.564533240336331 ] } },
{ "type": "Feature", "properties": { "strassenschluessel": "05974000005204360", "bezeichnung": "Runtestraße" }, "geometry": { "type": "Point", "coordinates": [ 7.894280467805132, 51.558525954443297 ] } },
{ "type": "Feature", "properties": { "strassenschluessel": "05974000005204361", "bezeichnung": "Ostvöhde" }, "geometry": { "type": "Point", "coordinates": [ 7.881039527432663, 51.564286640190666 ] } },
{ "type": "Feature", "properties": { "strassenschluessel": "05974000005204362", "bezeichnung": "Kolters Hof" }, "geometry": { "type": "Point", "coordinates": [ 7.873220578454937, 51.566262982633127 ] } },
{ "type": "Feature", "properties": { "strassenschluessel": "05974000005204363", "bezeichnung": "Maibaums Kamp" }, "geometry": { "type": "Point", "coordinates": [ 7.871158541476222, 51.564236613023212 ] } },
{ "type": "Feature", "properties": { "strassenschluessel": "05974000005204380", "bezeichnung": "Am Feldrain" }, "geometry": { "type": "Point", "coordinates": [ 7.882085615457052, 51.548786999736407 ] } },
{ "type": "Feature", "properties": { "strassenschluessel": "05974000005204381", "bezeichnung": "Weidenweg" }, "geometry": { "type": "Point", "coordinates": [ 7.881944512083774, 51.546586885488423 ] } },
{ "type": "Feature", "properties": { "strassenschluessel": "05974000005204382", "bezeichnung": "An der Kirche" }, "geometry": { "type": "Point", "coordinates": [ 7.876265360361049, 51.546896223564488 ] } },
{ "type": "Feature", "properties": { "strassenschluessel": "05974000005204383", "bezeichnung": "An der Schlamme" }, "geometry": { "type": "Point", "coordinates": [ 7.884219681243255, 51.547139353111326 ] } },
{ "type": "Feature", "properties": { "strassenschluessel": "05974000005204384", "bezeichnung": "Auf dem Deitelhof" }, "geometry": { "type": "Point", "coordinates": [ 7.875806647344126, 51.544999452899724 ] } },
{ "type": "Feature", "properties": { "strassenschluessel": "05974000005204385", "bezeichnung": "Auf dem Hüttenbrink" }, "geometry": { "type": "Point", "coordinates": [ 7.874784643630084, 51.544848103108933 ] } },
{ "type": "Feature", "properties": { "strassenschluessel": "05974000005204386", "bezeichnung": "Budberger Straße" }, "geometry": { "type": "Point", "coordinates": [ 7.874797412372501, 51.546836160641874 ] } },
{ "type": "Feature", "properties": { "strassenschluessel": "05974000005204387", "bezeichnung": "Büdericher Bundesstraße" }, "geometry": { "type": "Point", "coordinates": [ 7.856160949734481, 51.542088903021792 ] } },
{ "type": "Feature", "properties": { "strassenschluessel": "05974000005204388", "bezeichnung": "Büdericher Hellweg" }, "geometry": { "type": "Point", "coordinates": [ 7.879641373710457, 51.544848469244293 ] } },
{ "type": "Feature", "properties": { "strassenschluessel": "05974000005204389", "bezeichnung": "Büdericher Kirchstraße" }, "geometry": { "type": "Point", "coordinates": [ 7.874399910753569, 51.54743820501308 ] } },
{ "type": "Feature", "properties": { "strassenschluessel": "05974000005204390", "bezeichnung": "Büdericher Salzweg" }, "geometry": { "type": "Point", "coordinates": [ 7.871815233911656, 51.541987162649448 ] } },
{ "type": "Feature", "properties": { "strassenschluessel": "05974000005204391", "bezeichnung": "Elisabethstraße" }, "geometry": { "type": "Point", "coordinates": [ 7.874103547261711, 51.5443978024636 ] } },
{ "type": "Feature", "properties": { "strassenschluessel": "05974000005204392", "bezeichnung": "Friedrich-Hüttemann-Straße" }, "geometry": { "type": "Point", "coordinates": [ 7.88116486307989, 51.547325370345398 ] } },
{ "type": "Feature", "properties": { "strassenschluessel": "05974000005204393", "bezeichnung": "Gartenstraße" }, "geometry": { "type": "Point", "coordinates": [ 7.871634501323084, 51.543497771380885 ] } },
{ "type": "Feature", "properties": { "strassenschluessel": "05974000005204394", "bezeichnung": "Hochstraße" }, "geometry": { "type": "Point", "coordinates": [ 7.871652658260748, 51.545384910261781 ] } },
{ "type": "Feature", "properties": { "strassenschluessel": "05974000005204395", "bezeichnung": "Im Drahn" }, "geometry": { "type": "Point", "coordinates": [ 7.871405034873339, 51.542172886932406 ] } },
{ "type": "Feature", "properties": { "strassenschluessel": "05974000005204396", "bezeichnung": "Im Felde" }, "geometry": { "type": "Point", "coordinates": [ 7.8846252308836, 51.558320915506343 ] } },
{ "type": "Feature", "properties": { "strassenschluessel": "05974000005204397", "bezeichnung": "In der Linde" }, "geometry": { "type": "Point", "coordinates": [ 7.869990936695898, 51.546392581795956 ] } },
{ "type": "Feature", "properties": { "strassenschluessel": "05974000005204398", "bezeichnung": "In der Merge" }, "geometry": { "type": "Point", "coordinates": [ 7.878797915465508, 51.54566208726856 ] } },
{ "type": "Feature", "properties": { "strassenschluessel": "05974000005204399", "bezeichnung": "Kampgärten" }, "geometry": { "type": "Point", "coordinates": [ 7.875906513001358, 51.548169539625832 ] } },
{ "type": "Feature", "properties": { "strassenschluessel": "05974000005204400", "bezeichnung": "Kirchpfad" }, "geometry": { "type": "Point", "coordinates": [ 7.875285971934385, 51.548014648626577 ] } },
{ "type": "Feature", "properties": { "strassenschluessel": "05974000005204401", "bezeichnung": "Kletterstraße" }, "geometry": { "type": "Point", "coordinates": [ 7.878684708170489, 51.549890430707826 ] } },
{ "type": "Feature", "properties": { "strassenschluessel": "05974000005204402", "bezeichnung": "Krusestraße" }, "geometry": { "type": "Point", "coordinates": [ 7.877680463243609, 51.548336248147386 ] } },
{ "type": "Feature", "properties": { "strassenschluessel": "05974000005204403", "bezeichnung": "Kunibertstraße" }, "geometry": { "type": "Point", "coordinates": [ 7.879332077981274, 51.546068856231521 ] } },
{ "type": "Feature", "properties": { "strassenschluessel": "05974000005204404", "bezeichnung": "Mühlenstraße" }, "geometry": { "type": "Point", "coordinates": [ 7.876275449945668, 51.552906897354099 ] } },
{ "type": "Feature", "properties": { "strassenschluessel": "05974000005204405", "bezeichnung": "Oberer Hellweg" }, "geometry": { "type": "Point", "coordinates": [ 7.884769024600938, 51.545298770725729 ] } },
{ "type": "Feature", "properties": { "strassenschluessel": "05974000005204406", "bezeichnung": "Prozessionsweg" }, "geometry": { "type": "Point", "coordinates": [ 7.869666633471288, 51.554561068826857 ] } },
{ "type": "Feature", "properties": { "strassenschluessel": "05974000005204407", "bezeichnung": "Rottweg" }, "geometry": { "type": "Point", "coordinates": [ 7.882857057057981, 51.544543647466512 ] } },
{ "type": "Feature", "properties": { "strassenschluessel": "05974000005204408", "bezeichnung": "Schlesienstraße" }, "geometry": { "type": "Point", "coordinates": [ 7.880799356966114, 51.546414011787036 ] } },
{ "type": "Feature", "properties": { "strassenschluessel": "05974000005204409", "bezeichnung": "Schlückinger Weg" }, "geometry": { "type": "Point", "coordinates": [ 7.863574374209139, 51.533192157170078 ] } },
{ "type": "Feature", "properties": { "strassenschluessel": "05974000005204410", "bezeichnung": "Schützenweg" }, "geometry": { "type": "Point", "coordinates": [ 7.875512405680373, 51.545634825876114 ] } },
{ "type": "Feature", "properties": { "strassenschluessel": "05974000005204411", "bezeichnung": "Sömerweg" }, "geometry": { "type": "Point", "coordinates": [ 7.871184196999359, 51.547522094610493 ] } },
{ "type": "Feature", "properties": { "strassenschluessel": "05974000005204412", "bezeichnung": "St.-Annenweg" }, "geometry": { "type": "Point", "coordinates": [ 7.878430662709617, 51.546970849279404 ] } },
{ "type": "Feature", "properties": { "strassenschluessel": "05974000005204413", "bezeichnung": "Vitusgasse" }, "geometry": null },
{ "type": "Feature", "properties": { "strassenschluessel": "05974000005204414", "bezeichnung": "Wandweg" }, "geometry": { "type": "Point", "coordinates": [ 7.882595925549903, 51.547745816836127 ] } },
{ "type": "Feature", "properties": { "strassenschluessel": "05974000005204415", "bezeichnung": "Westenwandweg" }, "geometry": { "type": "Point", "coordinates": [ 7.875122792813528, 51.542281498208155 ] } },
{ "type": "Feature", "properties": { "strassenschluessel": "05974000005204416", "bezeichnung": "Fritz-Tönnies-Weg" }, "geometry": { "type": "Point", "coordinates": [ 7.867146150842279, 51.549801685651637 ] } },
{ "type": "Feature", "properties": { "strassenschluessel": "05974000005204417", "bezeichnung": "Friedrichstraße" }, "geometry": { "type": "Point", "coordinates": [ 7.87647950424188, 51.545938706111876 ] } },
{ "type": "Feature", "properties": { "strassenschluessel": "05974000005204418", "bezeichnung": "Am Obsthof" }, "geometry": { "type": "Point", "coordinates": [ 7.881264805361769, 51.547872913552844 ] } },
{ "type": "Feature", "properties": { "strassenschluessel": "05974000005204419", "bezeichnung": "Am Teigelbrannt" }, "geometry": { "type": "Point", "coordinates": [ 7.875347279438055, 51.549548874296256 ] } },
{ "type": "Feature", "properties": { "strassenschluessel": "05974000005204420", "bezeichnung": "Anwende" }, "geometry": { "type": "Point", "coordinates": [ 7.882578488749786, 51.546000969933594 ] } },
{ "type": "Feature", "properties": { "strassenschluessel": "05974000005204421", "bezeichnung": "An der Ziegelei" }, "geometry": { "type": "Point", "coordinates": [ 7.873025564248551, 51.545737861139322 ] } },
{ "type": "Feature", "properties": { "strassenschluessel": "05974000005204422", "bezeichnung": "A 44, E 331" }, "geometry": null },
{ "type": "Feature", "properties": { "strassenschluessel": "05974000005204423", "bezeichnung": "Franz-Mawick-Weg" }, "geometry": { "type": "Point", "coordinates": [ 7.878212034815752, 51.545491545961127 ] } },
{ "type": "Feature", "properties": { "strassenschluessel": "05974000005204424", "bezeichnung": "An der Vituskapelle" }, "geometry": { "type": "Point", "coordinates": [ 7.877375513105068, 51.548594126988483 ] } },
{ "type": "Feature", "properties": { "strassenschluessel": "05974000005204425", "bezeichnung": "Kuhweg" }, "geometry": { "type": "Point", "coordinates": [ 7.877711187789888, 51.540095347339431 ] } },
{ "type": "Feature", "properties": { "strassenschluessel": "05974000005204426", "bezeichnung": "Kirchnerstraße" }, "geometry": { "type": "Point", "coordinates": [ 7.880946024124178, 51.550281943155454 ] } },
{ "type": "Feature", "properties": { "strassenschluessel": "05974000005204427", "bezeichnung": "Am Schellhorn" }, "geometry": { "type": "Point", "coordinates": [ 7.857695085478484, 51.540830168553718 ] } },
{ "type": "Feature", "properties": { "strassenschluessel": "05974000005204428", "bezeichnung": "Auf dem Tempel" }, "geometry": null },
{ "type": "Feature", "properties": { "strassenschluessel": "05974000005204429", "bezeichnung": "Minneweg" }, "geometry": { "type": "Point", "coordinates": [ 7.881140439665129, 51.544110220893273 ] } },
{ "type": "Feature", "properties": { "strassenschluessel": "05974000005204430", "bezeichnung": "Sternsgasse" }, "geometry": null },
{ "type": "Feature", "properties": { "strassenschluessel": "05974000005204431", "bezeichnung": "Bruktererstraße" }, "geometry": { "type": "Point", "coordinates": [ 7.868734703658571, 51.54327762398681 ] } },
{ "type": "Feature", "properties": { "strassenschluessel": "05974000005204432", "bezeichnung": "Am Bauerkamp" }, "geometry": { "type": "Point", "coordinates": [ 7.87257849002059, 51.548575934378391 ] } },
{ "type": "Feature", "properties": { "strassenschluessel": "05974000005204433", "bezeichnung": "Am Jüdischen Friedhof" }, "geometry": { "type": "Point", "coordinates": [ 7.861075716022143, 51.54294270153747 ] } },
{ "type": "Feature", "properties": { "strassenschluessel": "05974000005204434", "bezeichnung": "Vincenz-Frigger-Straße" }, "geometry": { "type": "Point", "coordinates": [ 7.884701375764363, 51.551692005923933 ] } },
{ "type": "Feature", "properties": { "strassenschluessel": "05974000005204435", "bezeichnung": "Mönigstraße" }, "geometry": { "type": "Point", "coordinates": [ 7.882923135530739, 51.552436607063711 ] } },
{ "type": "Feature", "properties": { "strassenschluessel": "05974000005204450", "bezeichnung": "Agathastraße" }, "geometry": { "type": "Point", "coordinates": [ 7.855582175769436, 51.549607015963304 ] } },
{ "type": "Feature", "properties": { "strassenschluessel": "05974000005204451", "bezeichnung": "Alter Hellweg" }, "geometry": { "type": "Point", "coordinates": [ 7.858531066408258, 51.546478963193003 ] } },
{ "type": "Feature", "properties": { "strassenschluessel": "05974000005204452", "bezeichnung": "Am Jahenbrink" }, "geometry": { "type": "Point", "coordinates": [ 7.862838345816531, 51.550716372701302 ] } },
{ "type": "Feature", "properties": { "strassenschluessel": "05974000005204453", "bezeichnung": "Tiggeplass" }, "geometry": { "type": "Point", "coordinates": [ 7.855863741425479, 51.550793548017616 ] } },
{ "type": "Feature", "properties": { "strassenschluessel": "05974000005204454", "bezeichnung": "Grotekittelstraße" }, "geometry": { "type": "Point", "coordinates": [ 7.845138576787253, 51.552749085882326 ] } },
{ "type": "Feature", "properties": { "strassenschluessel": "05974000005204455", "bezeichnung": "Hemmerder Weg" }, "geometry": { "type": "Point", "coordinates": [ 7.846827032308888, 51.548755943594649 ] } },
{ "type": "Feature", "properties": { "strassenschluessel": "05974000005204456", "bezeichnung": "Henkerstraße" }, "geometry": { "type": "Point", "coordinates": [ 7.845827609637487, 51.54675119079107 ] } },
{ "type": "Feature", "properties": { "strassenschluessel": "05974000005204457", "bezeichnung": "Holtumer Bundesstraße" }, "geometry": { "type": "Point", "coordinates": [ 7.853534025712388, 51.542219607822332 ] } },
{ "type": "Feature", "properties": { "strassenschluessel": "05974000005204458", "bezeichnung": "Holtumer Salzweg" }, "geometry": { "type": "Point", "coordinates": [ 7.847810030582868, 51.545110838616409 ] } },
{ "type": "Feature", "properties": { "strassenschluessel": "05974000005204459", "bezeichnung": "In der Boke" }, "geometry": { "type": "Point", "coordinates": [ 7.85730008748849, 51.546812761413193 ] } },
{ "type": "Feature", "properties": { "strassenschluessel": "05974000005204460", "bezeichnung": "In der Bredde" }, "geometry": { "type": "Point", "coordinates": [ 7.848583638802579, 51.542730822853088 ] } },
{ "type": "Feature", "properties": { "strassenschluessel": "05974000005204461", "bezeichnung": "Lindenstraße" }, "geometry": { "type": "Point", "coordinates": [ 7.860230553109161, 51.551321178580203 ] } },
{ "type": "Feature", "properties": { "strassenschluessel": "05974000005204462", "bezeichnung": "Lohbredde" }, "geometry": { "type": "Point", "coordinates": [ 7.85679596532847, 51.548356022227431 ] } },
{ "type": "Feature", "properties": { "strassenschluessel": "05974000005204463", "bezeichnung": "Tiggesloh" }, "geometry": { "type": "Point", "coordinates": [ 7.8548231755434, 51.554497617784676 ] } },
{ "type": "Feature", "properties": { "strassenschluessel": "05974000005204464", "bezeichnung": "Twittenstraße" }, "geometry": { "type": "Point", "coordinates": [ 7.852260375480677, 51.548483400611389 ] } },
{ "type": "Feature", "properties": { "strassenschluessel": "05974000005204465", "bezeichnung": "Vöhdestraße" }, "geometry": { "type": "Point", "coordinates": [ 7.853235694275877, 51.550576091360682 ] } },
{ "type": "Feature", "properties": { "strassenschluessel": "05974000005204466", "bezeichnung": "Zum Brauk" }, "geometry": { "type": "Point", "coordinates": [ 7.866519345107929, 51.552646317553368 ] } },
{ "type": "Feature", "properties": { "strassenschluessel": "05974000005204467", "bezeichnung": "Zum Winkel" }, "geometry": { "type": "Point", "coordinates": [ 7.862128895426589, 51.550146988024011 ] } },
{ "type": "Feature", "properties": { "strassenschluessel": "05974000005204468", "bezeichnung": "Futterweg" }, "geometry": { "type": "Point", "coordinates": [ 7.869647955589455, 51.558891840010126 ] } },
{ "type": "Feature", "properties": { "strassenschluessel": "05974000005204469", "bezeichnung": "Thingweg" }, "geometry": { "type": "Point", "coordinates": [ 7.856426113677403, 51.551425884512128 ] } },
{ "type": "Feature", "properties": { "strassenschluessel": "05974000005204470", "bezeichnung": "Singelers Garten" }, "geometry": { "type": "Point", "coordinates": [ 7.854708638452164, 51.548790331312063 ] } },
{ "type": "Feature", "properties": { "strassenschluessel": "05974000005204471", "bezeichnung": "Bürmanns Hof" }, "geometry": { "type": "Point", "coordinates": [ 7.854941389023215, 51.550100155999019 ] } },
{ "type": "Feature", "properties": { "strassenschluessel": "05974000005204490", "bezeichnung": "Hirtenstraße" }, "geometry": { "type": "Point", "coordinates": [ 7.983566824516247, 51.554133225472903 ] } },
{ "type": "Feature", "properties": { "strassenschluessel": "05974000005204491", "bezeichnung": "Hubertus-Schützen-Straße" }, "geometry": { "type": "Point", "coordinates": [ 7.980109696277492, 51.5527813275759 ] } },
{ "type": "Feature", "properties": { "strassenschluessel": "05974000005204492", "bezeichnung": "Im Brook" }, "geometry": null },
{ "type": "Feature", "properties": { "strassenschluessel": "05974000005204493", "bezeichnung": "Krähenbrink" }, "geometry": { "type": "Point", "coordinates": [ 7.984631661092298, 51.552612830546238 ] } },
{ "type": "Feature", "properties": { "strassenschluessel": "05974000005204494", "bezeichnung": "Kirchweg" }, "geometry": { "type": "Point", "coordinates": [ 7.977628729494481, 51.552021208482323 ] } },
{ "type": "Feature", "properties": { "strassenschluessel": "05974000005204495", "bezeichnung": "Lauraweg" }, "geometry": { "type": "Point", "coordinates": [ 7.980538275498243, 51.549687228307945 ] } },
{ "type": "Feature", "properties": { "strassenschluessel": "05974000005204496", "bezeichnung": "Mawicker Bundesstraße" }, "geometry": { "type": "Point", "coordinates": [ 7.983213376072644, 51.548010705871135 ] } },
{ "type": "Feature", "properties": { "strassenschluessel": "05974000005204497", "bezeichnung": "Mawicker Hellweg" }, "geometry": { "type": "Point", "coordinates": [ 7.978256159557778, 51.549750283984039 ] } },
{ "type": "Feature", "properties": { "strassenschluessel": "05974000005204498", "bezeichnung": "Ostlandstraße" }, "geometry": { "type": "Point", "coordinates": [ 7.985151041392353, 51.555015570365939 ] } },
{ "type": "Feature", "properties": { "strassenschluessel": "05974000005204499", "bezeichnung": "Zum Effelten" }, "geometry": { "type": "Point", "coordinates": [ 7.982049262088837, 51.551547657109758 ] } },
{ "type": "Feature", "properties": { "strassenschluessel": "05974000005204500", "bezeichnung": "Ostenfeldmark" }, "geometry": { "type": "Point", "coordinates": [ 7.98024528669937, 51.553843351364016 ] } },
{ "type": "Feature", "properties": { "strassenschluessel": "05974000005204513", "bezeichnung": "An Luigsmühle" }, "geometry": { "type": "Point", "coordinates": [ 7.973613120772401, 51.564279083670691 ] } },
{ "type": "Feature", "properties": { "strassenschluessel": "05974000005204514", "bezeichnung": "Auf der Hofestatt" }, "geometry": { "type": "Point", "coordinates": [ 7.977202444815947, 51.566571214971304 ] } },
{ "type": "Feature", "properties": { "strassenschluessel": "05974000005204515", "bezeichnung": "Auf der Vöhde" }, "geometry": { "type": "Point", "coordinates": [ 7.982160595564467, 51.570712096354207 ] } },
{ "type": "Feature", "properties": { "strassenschluessel": "05974000005204516", "bezeichnung": "Bahnhofsweg" }, "geometry": { "type": "Point", "coordinates": [ 7.968113150911239, 51.568356484599001 ] } },
{ "type": "Feature", "properties": { "strassenschluessel": "05974000005204517", "bezeichnung": "Eichstraße" }, "geometry": { "type": "Point", "coordinates": [ 7.978728433410768, 51.569183717171377 ] } },
{ "type": "Feature", "properties": { "strassenschluessel": "05974000005204518", "bezeichnung": "Kreisstraße" }, "geometry": { "type": "Point", "coordinates": [ 7.970410789299003, 51.571263332714892 ] } },
{ "type": "Feature", "properties": { "strassenschluessel": "05974000005204519", "bezeichnung": "Merklingser Weg" }, "geometry": { "type": "Point", "coordinates": [ 7.980025714408137, 51.568179089711698 ] } },
{ "type": "Feature", "properties": { "strassenschluessel": "05974000005204520", "bezeichnung": "Schmiedeweg" }, "geometry": { "type": "Point", "coordinates": [ 7.973611994001493, 51.568138266862334 ] } },
{ "type": "Feature", "properties": { "strassenschluessel": "05974000005204521", "bezeichnung": "Viehstraße" }, "geometry": { "type": "Point", "coordinates": [ 7.960687858337952, 51.568889553259105 ] } },
{ "type": "Feature", "properties": { "strassenschluessel": "05974000005204522", "bezeichnung": "Zwischen den Kämpen" }, "geometry": { "type": "Point", "coordinates": [ 7.975103584508529, 51.567330320189981 ] } },
{ "type": "Feature", "properties": { "strassenschluessel": "05974000005204540", "bezeichnung": "Am Scheidinger Weg" }, "geometry": { "type": "Point", "coordinates": [ 7.903070092734285, 51.580541254227342 ] } },
{ "type": "Feature", "properties": { "strassenschluessel": "05974000005204541", "bezeichnung": "Antoniusstraße" }, "geometry": { "type": "Point", "coordinates": [ 7.899127431744291, 51.583981859387649 ] } },
{ "type": "Feature", "properties": { "strassenschluessel": "05974000005204542", "bezeichnung": "Auf dem Hacken" }, "geometry": { "type": "Point", "coordinates": [ 7.896896299973883, 51.580257069311735 ] } },
{ "type": "Feature", "properties": { "strassenschluessel": "05974000005204543", "bezeichnung": "Brandsunner Weg" }, "geometry": { "type": "Point", "coordinates": [ 7.896440046863913, 51.578927703390534 ] } },
{ "type": "Feature", "properties": { "strassenschluessel": "05974000005204544", "bezeichnung": "Feldstraße" }, "geometry": { "type": "Point", "coordinates": [ 7.899632846461563, 51.57346856022243 ] } },
{ "type": "Feature", "properties": { "strassenschluessel": "05974000005204545", "bezeichnung": "Hilbecker Weg" }, "geometry": { "type": "Point", "coordinates": [ 7.896838482642693, 51.574671612199218 ] } },
{ "type": "Feature", "properties": { "strassenschluessel": "05974000005204546", "bezeichnung": "Lambertweg" }, "geometry": { "type": "Point", "coordinates": [ 7.900077514754737, 51.576442269748135 ] } },
{ "type": "Feature", "properties": { "strassenschluessel": "05974000005204547", "bezeichnung": "Niclasstraße" }, "geometry": { "type": "Point", "coordinates": [ 7.902274629427376, 51.57940238302367 ] } },
{ "type": "Feature", "properties": { "strassenschluessel": "05974000005204548", "bezeichnung": "Pröbstinger Weg" }, "geometry": { "type": "Point", "coordinates": [ 7.89763558910273, 51.58229226465761 ] } },
{ "type": "Feature", "properties": { "strassenschluessel": "05974000005204549", "bezeichnung": "Rosenstraße" }, "geometry": { "type": "Point", "coordinates": [ 7.897405621528506, 51.583137967026708 ] } },
{ "type": "Feature", "properties": { "strassenschluessel": "05974000005204550", "bezeichnung": "Westenstraße" }, "geometry": { "type": "Point", "coordinates": [ 7.897833995838947, 51.577474731448902 ] } },
{ "type": "Feature", "properties": { "strassenschluessel": "05974000005204551", "bezeichnung": "Zum Türkenplatz" }, "geometry": { "type": "Point", "coordinates": [ 7.901545307942739, 51.582269557186073 ] } },
{ "type": "Feature", "properties": { "strassenschluessel": "05974000005204552", "bezeichnung": "Tannenweg" }, "geometry": { "type": "Point", "coordinates": [ 7.898548408459506, 51.579583692378726 ] } },
{ "type": "Feature", "properties": { "strassenschluessel": "05974000005204553", "bezeichnung": "Sintsacker" }, "geometry": { "type": "Point", "coordinates": [ 7.899603402437715, 51.580223423157456 ] } },
{ "type": "Feature", "properties": { "strassenschluessel": "05974000005204554", "bezeichnung": "Reitnecken" }, "geometry": { "type": "Point", "coordinates": [ 7.899174968811746, 51.573727857322304 ] } },
{ "type": "Feature", "properties": { "strassenschluessel": "05974000005204555", "bezeichnung": "Im Siedken" }, "geometry": { "type": "Point", "coordinates": [ 7.900269035287725, 51.584019645699989 ] } },
{ "type": "Feature", "properties": { "strassenschluessel": "05974000005204570", "bezeichnung": "Adenauerstraße" }, "geometry": { "type": "Point", "coordinates": [ 7.967503471160081, 51.55465479755258 ] } },
{ "type": "Feature", "properties": { "strassenschluessel": "05974000005204571", "bezeichnung": "Am Börn" }, "geometry": { "type": "Point", "coordinates": [ 7.970374639695593, 51.557264372519768 ] } },
{ "type": "Feature", "properties": { "strassenschluessel": "05974000005204572", "bezeichnung": "Am Humpertspfad" }, "geometry": { "type": "Point", "coordinates": [ 7.951511483679215, 51.550644286781498 ] } },
{ "type": "Feature", "properties": { "strassenschluessel": "05974000005204573", "bezeichnung": "Am Kleegarten" }, "geometry": { "type": "Point", "coordinates": [ 7.957937320600103, 51.553871888513996 ] } },
{ "type": "Feature", "properties": { "strassenschluessel": "05974000005204574", "bezeichnung": "Am Krummen Rücken" }, "geometry": { "type": "Point", "coordinates": [ 7.950234224337379, 51.553818817745828 ] } },
{ "type": "Feature", "properties": { "strassenschluessel": "05974000005204575", "bezeichnung": "Am Notgraben" }, "geometry": { "type": "Point", "coordinates": [ 7.963261578229506, 51.555040701690999 ] } },
{ "type": "Feature", "properties": { "strassenschluessel": "05974000005204576", "bezeichnung": "Am Scheidedorn" }, "geometry": { "type": "Point", "coordinates": [ 7.968102906729249, 51.550919363708445 ] } },
{ "type": "Feature", "properties": { "strassenschluessel": "05974000005204577", "bezeichnung": "Am Siepenbach" }, "geometry": { "type": "Point", "coordinates": [ 7.968851141875803, 51.559256176283931 ] } },
{ "type": "Feature", "properties": { "strassenschluessel": "05974000005204578", "bezeichnung": "An Luigs Weiden" }, "geometry": { "type": "Point", "coordinates": [ 7.951844038209552, 51.555495116282266 ] } },
{ "type": "Feature", "properties": { "strassenschluessel": "05974000005204579", "bezeichnung": "Auf'm Buchenfeld" }, "geometry": { "type": "Point", "coordinates": [ 7.958608516285034, 51.540955710480461 ] } },
{ "type": "Feature", "properties": { "strassenschluessel": "05974000005204580", "bezeichnung": "Auf'm Hackenfeld" }, "geometry": { "type": "Point", "coordinates": [ 7.965393677074047, 51.555267639428983 ] } },
{ "type": "Feature", "properties": { "strassenschluessel": "05974000005204581", "bezeichnung": "Blumenweg" }, "geometry": { "type": "Point", "coordinates": [ 7.953734915318626, 51.550196307774272 ] } },
{ "type": "Feature", "properties": { "strassenschluessel": "05974000005204582", "bezeichnung": "Breite Straße" }, "geometry": { "type": "Point", "coordinates": [ 7.962291159602866, 51.550201659116539 ] } },
{ "type": "Feature", "properties": { "strassenschluessel": "05974000005204583", "bezeichnung": "Bruchstraße" }, "geometry": { "type": "Point", "coordinates": [ 7.963571707733016, 51.556110536990872 ] } },
{ "type": "Feature", "properties": { "strassenschluessel": "05974000005204584", "bezeichnung": "Haus Lohe" }, "geometry": { "type": "Point", "coordinates": [ 7.955197561696285, 51.566598115909564 ] } },
{ "type": "Feature", "properties": { "strassenschluessel": "05974000005204585", "bezeichnung": "Heideweg" }, "geometry": { "type": "Point", "coordinates": [ 7.963861907423938, 51.54801963484941 ] } },
{ "type": "Feature", "properties": { "strassenschluessel": "05974000005204586", "bezeichnung": "Hohle Straße" }, "geometry": { "type": "Point", "coordinates": [ 7.95774041134105, 51.550077968346727 ] } },
{ "type": "Feature", "properties": { "strassenschluessel": "05974000005204587", "bezeichnung": "Im Winkel" }, "geometry": { "type": "Point", "coordinates": [ 7.961637709867032, 51.553035303223545 ] } },
{ "type": "Feature", "properties": { "strassenschluessel": "05974000005204588", "bezeichnung": "In den Birken" }, "geometry": { "type": "Point", "coordinates": [ 7.957155832083147, 51.556209487388415 ] } },
{ "type": "Feature", "properties": { "strassenschluessel": "05974000005204589", "bezeichnung": "In der Olpke" }, "geometry": { "type": "Point", "coordinates": [ 7.957789224738126, 51.556708189901876 ] } },
{ "type": "Feature", "properties": { "strassenschluessel": "05974000005204590", "bezeichnung": "Kolpingstraße" }, "geometry": { "type": "Point", "coordinates": [ 7.95550211456384, 51.550050367520853 ] } },
{ "type": "Feature", "properties": { "strassenschluessel": "05974000005204591", "bezeichnung": "Loher Weg" }, "geometry": { "type": "Point", "coordinates": [ 7.955626539021781, 51.560232941494021 ] } },
{ "type": "Feature", "properties": { "strassenschluessel": "05974000005204592", "bezeichnung": "Mawicker Weg" }, "geometry": { "type": "Point", "coordinates": [ 7.963347605110347, 51.55212521951529 ] } },
{ "type": "Feature", "properties": { "strassenschluessel": "05974000005204593", "bezeichnung": "Menzestraße" }, "geometry": { "type": "Point", "coordinates": [ 7.960979241737975, 51.549294042854058 ] } },
{ "type": "Feature", "properties": { "strassenschluessel": "05974000005204594", "bezeichnung": "Mummelstraße" }, "geometry": { "type": "Point", "coordinates": [ 7.960074363303578, 51.553545825521446 ] } },
{ "type": "Feature", "properties": { "strassenschluessel": "05974000005204595", "bezeichnung": "Oststraße" }, "geometry": { "type": "Point", "coordinates": [ 7.964980596015272, 51.554166552930688 ] } },
{ "type": "Feature", "properties": { "strassenschluessel": "05974000005204596", "bezeichnung": "Elwieden" }, "geometry": { "type": "Point", "coordinates": [ 7.967491332507479, 51.553219886335079 ] } },
{ "type": "Feature", "properties": { "strassenschluessel": "05974000005204597", "bezeichnung": "Walbkestraße" }, "geometry": { "type": "Point", "coordinates": [ 7.962051710522874, 51.552054002623812 ] } },
{ "type": "Feature", "properties": { "strassenschluessel": "05974000005204598", "bezeichnung": "Westdahler Weg" }, "geometry": { "type": "Point", "coordinates": [ 7.953366232380708, 51.548185288006678 ] } },
{ "type": "Feature", "properties": { "strassenschluessel": "05974000005204599", "bezeichnung": "Werler Weg" }, "geometry": { "type": "Point", "coordinates": [ 7.951897616410823, 51.551634742207284 ] } },
{ "type": "Feature", "properties": { "strassenschluessel": "05974000005204600", "bezeichnung": "Westönner Bachstraße" }, "geometry": { "type": "Point", "coordinates": [ 7.960790938124079, 51.553908328387948 ] } },
{ "type": "Feature", "properties": { "strassenschluessel": "05974000005204601", "bezeichnung": "Westönner Bundesstraße" }, "geometry": { "type": "Point", "coordinates": [ 7.964574636969976, 51.548624639945693 ] } },
{ "type": "Feature", "properties": { "strassenschluessel": "05974000005204602", "bezeichnung": "Westönner Hellweg" }, "geometry": { "type": "Point", "coordinates": [ 7.958606869222279, 51.549508834781477 ] } },
{ "type": "Feature", "properties": { "strassenschluessel": "05974000005204603", "bezeichnung": "Westönner Kirchstraße" }, "geometry": { "type": "Point", "coordinates": [ 7.959039393567195, 51.550895199587842 ] } },
{ "type": "Feature", "properties": { "strassenschluessel": "05974000005204604", "bezeichnung": "Westönner Schützenstraße" }, "geometry": { "type": "Point", "coordinates": [ 7.966930400919603, 51.54898251448386 ] } },
{ "type": "Feature", "properties": { "strassenschluessel": "05974000005204605", "bezeichnung": "Weststraße" }, "geometry": { "type": "Point", "coordinates": [ 7.953847502614709, 51.549688194216934 ] } },
{ "type": "Feature", "properties": { "strassenschluessel": "05974000005204606", "bezeichnung": "Wippe" }, "geometry": { "type": "Point", "coordinates": [ 7.955549459815007, 51.55035163390572 ] } },
{ "type": "Feature", "properties": { "strassenschluessel": "05974000005204607", "bezeichnung": "Wiesenweg" }, "geometry": { "type": "Point", "coordinates": [ 7.958311627803615, 51.558900980723713 ] } },
{ "type": "Feature", "properties": { "strassenschluessel": "05974000005204608", "bezeichnung": "Bockum-Dolffs-Straße" }, "geometry": { "type": "Point", "coordinates": [ 7.965405221587604, 51.552785434399084 ] } },
{ "type": "Feature", "properties": { "strassenschluessel": "05974000005204609", "bezeichnung": "Ringweg" }, "geometry": { "type": "Point", "coordinates": [ 7.952589054042376, 51.551157138488733 ] } },
{ "type": "Feature", "properties": { "strassenschluessel": "05974000005204610", "bezeichnung": "Vinckestraße" }, "geometry": { "type": "Point", "coordinates": [ 7.967163493325914, 51.554050880879956 ] } },
{ "type": "Feature", "properties": { "strassenschluessel": "05974000005204611", "bezeichnung": "Rundeilsweg" }, "geometry": null },
{ "type": "Feature", "properties": { "strassenschluessel": "05974000005204612", "bezeichnung": "Am Teekamp" }, "geometry": { "type": "Point", "coordinates": [ 7.965008324948808, 51.55073764366059 ] } },
{ "type": "Feature", "properties": { "strassenschluessel": "05974000005204613", "bezeichnung": "Grünsandsteinweg" }, "geometry": { "type": "Point", "coordinates": [ 7.966469236349092, 51.54911756819844 ] } },
{ "type": "Feature", "properties": { "strassenschluessel": "05974000005204614", "bezeichnung": "Zum Wietborn" }, "geometry": null },
{ "type": "Feature", "properties": { "strassenschluessel": "05974000005204650", "bezeichnung": "Allener Straße" }, "geometry": { "type": "Point", "coordinates": [ 7.867389039842027, 51.582745750265168 ] } },
{ "type": "Feature", "properties": { "strassenschluessel": "05974000005204651", "bezeichnung": "Hilbecker Hellweg" }, "geometry": { "type": "Point", "coordinates": [ 7.857307733686271, 51.584597234199542 ] } },
{ "type": "Feature", "properties": { "strassenschluessel": "05974000005204652", "bezeichnung": "Am Gänseteich" }, "geometry": { "type": "Point", "coordinates": [ 7.858536719790329, 51.580524709827841 ] } },
{ "type": "Feature", "properties": { "strassenschluessel": "05974000005204653", "bezeichnung": "Am Kickert" }, "geometry": { "type": "Point", "coordinates": [ 7.86095000140383, 51.575553643430354 ] } },
{ "type": "Feature", "properties": { "strassenschluessel": "05974000005204654", "bezeichnung": "Am Windhügel" }, "geometry": { "type": "Point", "coordinates": [ 7.857338918826693, 51.588496127479154 ] } },
{ "type": "Feature", "properties": { "strassenschluessel": "05974000005204655", "bezeichnung": "An der Hilbecker Kirche" }, "geometry": { "type": "Point", "coordinates": [ 7.864737790461465, 51.576889179026551 ] } },
{ "type": "Feature", "properties": { "strassenschluessel": "05974000005204656", "bezeichnung": "Auf dem Tigge" }, "geometry": { "type": "Point", "coordinates": [ 7.8648951324051, 51.577019709321178 ] } },
{ "type": "Feature", "properties": { "strassenschluessel": "05974000005204657", "bezeichnung": "Brandweg" }, "geometry": { "type": "Point", "coordinates": [ 7.886397020191788, 51.579288857583009 ] } },
{ "type": "Feature", "properties": { "strassenschluessel": "05974000005204658", "bezeichnung": "Friedensweg" }, "geometry": { "type": "Point", "coordinates": [ 7.857233648954714, 51.58308450732715 ] } },
{ "type": "Feature", "properties": { "strassenschluessel": "05974000005204659", "bezeichnung": "Grachtweg" }, "geometry": { "type": "Point", "coordinates": [ 7.863473798349808, 51.57671014322198 ] } },
{ "type": "Feature", "properties": { "strassenschluessel": "05974000005204660", "bezeichnung": "Hilbecker Heideweg" }, "geometry": { "type": "Point", "coordinates": [ 7.856584344499091, 51.583984946104607 ] } },
{ "type": "Feature", "properties": { "strassenschluessel": "05974000005204661", "bezeichnung": "Höhenweg" }, "geometry": { "type": "Point", "coordinates": [ 7.865778681542844, 51.575596247299409 ] } },
{ "type": "Feature", "properties": { "strassenschluessel": "05974000005204662", "bezeichnung": "Im Oberdorf" }, "geometry": { "type": "Point", "coordinates": [ 7.868140636379336, 51.582007132752118 ] } },
{ "type": "Feature", "properties": { "strassenschluessel": "05974000005204663", "bezeichnung": "In Westhilbeck" }, "geometry": { "type": "Point", "coordinates": [ 7.852239628734274, 51.577726791112482 ] } },
{ "type": "Feature", "properties": { "strassenschluessel": "05974000005204664", "bezeichnung": "Kulkweg" }, "geometry": null },
{ "type": "Feature", "properties": { "strassenschluessel": "05974000005204665", "bezeichnung": "Windmühlenweg" }, "geometry": { "type": "Point", "coordinates": [ 7.860727291543204, 51.585463137032491 ] } },
{ "type": "Feature", "properties": { "strassenschluessel": "05974000005204666", "bezeichnung": "Norkampweg" }, "geometry": null },
{ "type": "Feature", "properties": { "strassenschluessel": "05974000005204667", "bezeichnung": "Lindfeldweg" }, "geometry": { "type": "Point", "coordinates": [ 7.884618766054457, 51.584256283870531 ] } },
{ "type": "Feature", "properties": { "strassenschluessel": "05974000005204668", "bezeichnung": "Rosengasse" }, "geometry": { "type": "Point", "coordinates": [ 7.863475983143853, 51.579941019895116 ] } },
{ "type": "Feature", "properties": { "strassenschluessel": "05974000005204669", "bezeichnung": "Schinkenfeldweg" }, "geometry": { "type": "Point", "coordinates": [ 7.857319546000203, 51.582179875625243 ] } },
{ "type": "Feature", "properties": { "strassenschluessel": "05974000005204670", "bezeichnung": "Schluchtweg" }, "geometry": { "type": "Point", "coordinates": [ 7.861907248698917, 51.578664643737945 ] } },
{ "type": "Feature", "properties": { "strassenschluessel": "05974000005204671", "bezeichnung": "Schöntalweg" }, "geometry": { "type": "Point", "coordinates": [ 7.859365037335911, 51.576438961380902 ] } },
{ "type": "Feature", "properties": { "strassenschluessel": "05974000005204672", "bezeichnung": "Siepenstraße" }, "geometry": { "type": "Point", "coordinates": [ 7.855089702782044, 51.580194630789755 ] } },
{ "type": "Feature", "properties": { "strassenschluessel": "05974000005204673", "bezeichnung": "Sundernweg" }, "geometry": { "type": "Point", "coordinates": [ 7.886860336668708, 51.593309717580439 ] } },
{ "type": "Feature", "properties": { "strassenschluessel": "05974000005204674", "bezeichnung": "Werler Straße" }, "geometry": { "type": "Point", "coordinates": [ 7.858756010926895, 51.588741989602859 ] } },
{ "type": "Feature", "properties": { "strassenschluessel": "05974000005204675", "bezeichnung": "Dilleweg" }, "geometry": { "type": "Point", "coordinates": [ 7.866217242923462, 51.580450287889434 ] } },
{ "type": "Feature", "properties": { "strassenschluessel": "05974000005204676", "bezeichnung": "Sachsenweg" }, "geometry": { "type": "Point", "coordinates": [ 7.867194966865201, 51.581669764858667 ] } },
{ "type": "Feature", "properties": { "strassenschluessel": "05974000005204677", "bezeichnung": "Märkischer Weg" }, "geometry": { "type": "Point", "coordinates": [ 7.856441581783446, 51.583392699494759 ] } },
{ "type": "Feature", "properties": { "strassenschluessel": "05974000005204678", "bezeichnung": "Albert-Schweitzer-Straße" }, "geometry": { "type": "Point", "coordinates": [ 7.859063151583916, 51.581279627287273 ] } },
{ "type": "Feature", "properties": { "strassenschluessel": "05974000005204700", "bezeichnung": "Am Eichkamp" }, "geometry": { "type": "Point", "coordinates": [ 7.973214646218737, 51.57518229925455 ] } },
{ "type": "Feature", "properties": { "strassenschluessel": "05974000005204701", "bezeichnung": "Am Holte" }, "geometry": { "type": "Point", "coordinates": [ 7.967013933569428, 51.581675643539889 ] } },
{ "type": "Feature", "properties": { "strassenschluessel": "05974000005204702", "bezeichnung": "Linnenstraße" }, "geometry": { "type": "Point", "coordinates": [ 7.974822352602194, 51.582612252724786 ] } },
{ "type": "Feature", "properties": { "strassenschluessel": "05974000005204703", "bezeichnung": "Domherrnkamp" }, "geometry": { "type": "Point", "coordinates": [ 7.961458593725075, 51.579750026425948 ] } },
{ "type": "Feature", "properties": { "strassenschluessel": "05974000005204704", "bezeichnung": "Haue" }, "geometry": { "type": "Point", "coordinates": [ 7.965692465567559, 51.582694822543822 ] } },
{ "type": "Feature", "properties": { "strassenschluessel": "05974000005204705", "bezeichnung": "Heidebauerweg" }, "geometry": { "type": "Point", "coordinates": [ 7.954358077987202, 51.572010902348225 ] } },
{ "type": "Feature", "properties": { "strassenschluessel": "05974000005204706", "bezeichnung": "Helle" }, "geometry": { "type": "Point", "coordinates": [ 7.973605001242635, 51.582011239008665 ] } },
{ "type": "Feature", "properties": { "strassenschluessel": "05974000005204707", "bezeichnung": "Kapellenstraße" }, "geometry": { "type": "Point", "coordinates": [ 7.972978134231593, 51.580611016941383 ] } },
{ "type": "Feature", "properties": { "strassenschluessel": "05974000005204708", "bezeichnung": "Koeninger Weg" }, "geometry": { "type": "Point", "coordinates": [ 7.958526380930859, 51.581495572007803 ] } },
{ "type": "Feature", "properties": { "strassenschluessel": "05974000005204709", "bezeichnung": "Oertrief" }, "geometry": { "type": "Point", "coordinates": [ 7.963875320704844, 51.581333637144255 ] } },
{ "type": "Feature", "properties": { "strassenschluessel": "05974000005204710", "bezeichnung": "Plassweg" }, "geometry": { "type": "Point", "coordinates": [ 7.967985557805205, 51.58364743554462 ] } },
{ "type": "Feature", "properties": { "strassenschluessel": "05974000005204711", "bezeichnung": "Sichelbruch" }, "geometry": { "type": "Point", "coordinates": [ 7.962604426646103, 51.586582457460182 ] } },
{ "type": "Feature", "properties": { "strassenschluessel": "05974000005204712", "bezeichnung": "Zur Hege" }, "geometry": { "type": "Point", "coordinates": [ 7.975561896755282, 51.580598205972635 ] } },
{ "type": "Feature", "properties": { "strassenschluessel": "05974000005204721", "bezeichnung": "Wismarer Weg" }, "geometry": { "type": "Point", "coordinates": [ 7.909094985682182, 51.567785840911704 ] } },
{ "type": "Feature", "properties": { "strassenschluessel": "05974000005204722", "bezeichnung": "Kölner Weg" }, "geometry": { "type": "Point", "coordinates": [ 7.909894777217411, 51.567603623044043 ] } },
{ "type": "Feature", "properties": { "strassenschluessel": "05974000005204741", "bezeichnung": "Wulf-Hefe-Straße" }, "geometry": { "type": "Point", "coordinates": [ 7.917556572409675, 51.547482700063483 ] } },
{ "type": "Feature", "properties": { "strassenschluessel": "05974000005204794", "bezeichnung": "An Wortmanns Mühle" }, "geometry": { "type": "Point", "coordinates": [ 7.881258944644795, 51.552787302753941 ] } },
{ "type": "Feature", "properties": { "strassenschluessel": "05974000005290000", "bezeichnung": "Büderich" }, "geometry": null },
{ "type": "Feature", "properties": { "strassenschluessel": "05974000005291381", "bezeichnung": "Hilbeck" }, "geometry": null },
{ "type": "Feature", "properties": { "strassenschluessel": "05974000005291389", "bezeichnung": "Sönnern" }, "geometry": null },
{ "type": "Feature", "properties": { "strassenschluessel": "05974000005291713", "bezeichnung": "Blumenthal" }, "geometry": null },
{ "type": "Feature", "properties": { "strassenschluessel": "05974000005291786", "bezeichnung": "Budberg" }, "geometry": null },
{ "type": "Feature", "properties": { "strassenschluessel": "05974000005291787", "bezeichnung": "Ostbüderich" }, "geometry": null },
{ "type": "Feature", "properties": { "strassenschluessel": "05974000005291788", "bezeichnung": "Holtum" }, "geometry": null },
{ "type": "Feature", "properties": { "strassenschluessel": "05974000005291789", "bezeichnung": "Mawicke" }, "geometry": { "type": "Point", "coordinates": [ 7.982438293052348, 51.557118127493474 ] } },
{ "type": "Feature", "properties": { "strassenschluessel": "05974000005291790", "bezeichnung": "Niederbergstraße" }, "geometry": null },
{ "type": "Feature", "properties": { "strassenschluessel": "05974000005291791", "bezeichnung": "Oberbergstraße" }, "geometry": null },
{ "type": "Feature", "properties": { "strassenschluessel": "05974000005291794", "bezeichnung": "Westönnen" }, "geometry": { "type": "Point", "coordinates": [ 7.964450624501898, 51.546599260668749 ] } },
{ "type": "Feature", "properties": { "strassenschluessel": "05974000005291797", "bezeichnung": "Werl" }, "geometry": { "type": "Point", "coordinates": [ 7.902463287109894, 51.538786574338197 ] } },
{ "type": "Feature", "properties": { "strassenschluessel": "05974000005291930", "bezeichnung": "Westbüderich" }, "geometry": null }
]
}
