{
"type": "FeatureCollection",
"features": [
{ "type": "Feature", "properties": { "strassenschluessel": "05978000004002500", "bezeichnung": "Ackerstraße" }, "geometry": { "type": "Point", "coordinates": [ 7.634904375602707, 51.671265806930336 ] } },
{ "type": "Feature", "properties": { "strassenschluessel": "05978000004002501", "bezeichnung": "Am Bellingholz" }, "geometry": { "type": "Point", "coordinates": [ 7.615569106562275, 51.656695327497346 ] } },
{ "type": "Feature", "properties": { "strassenschluessel": "05978000004002502", "bezeichnung": "Ambrosiusweg" }, "geometry": { "type": "Point", "coordinates": [ 7.628575030378745, 51.667205887867986 ] } },
{ "type": "Feature", "properties": { "strassenschluessel": "05978000004002503", "bezeichnung": "Am Deipeturm" }, "geometry": { "type": "Point", "coordinates": [ 7.6360585290256, 51.661724697611703 ] } },
{ "type": "Feature", "properties": { "strassenschluessel": "05978000004002504", "bezeichnung": "Am Freien Stuhl" }, "geometry": { "type": "Point", "coordinates": [ 7.624050807709398, 51.655965056284451 ] } },
{ "type": "Feature", "properties": { "strassenschluessel": "05978000004002505", "bezeichnung": "Am Friedstein" }, "geometry": { "type": "Point", "coordinates": [ 7.639229968116973, 51.663165752477205 ] } },
{ "type": "Feature", "properties": { "strassenschluessel": "05978000004002506", "bezeichnung": "Am Griesetorn" }, "geometry": { "type": "Point", "coordinates": [ 7.634393363745239, 51.661676912816723 ] } },
{ "type": "Feature", "properties": { "strassenschluessel": "05978000004002507", "bezeichnung": "Am Hagen" }, "geometry": { "type": "Point", "coordinates": [ 7.633086016144568, 51.660569112684598 ] } },
{ "type": "Feature", "properties": { "strassenschluessel": "05978000004002509", "bezeichnung": "Am Neutor" }, "geometry": { "type": "Point", "coordinates": [ 7.637011707545009, 51.662728811808527 ] } },
{ "type": "Feature", "properties": { "strassenschluessel": "05978000004002510", "bezeichnung": "Amselweg" }, "geometry": { "type": "Point", "coordinates": [ 7.617846007788998, 51.656223070232166 ] } },
{ "type": "Feature", "properties": { "strassenschluessel": "05978000004002511", "bezeichnung": "Am Solebad" }, "geometry": { "type": "Point", "coordinates": [ 7.630644756545085, 51.657618751288062 ] } },
{ "type": "Feature", "properties": { "strassenschluessel": "05978000004002512", "bezeichnung": "Am Stadtgraben" }, "geometry": null },
{ "type": "Feature", "properties": { "strassenschluessel": "05978000004002513", "bezeichnung": "Am Stadtwald" }, "geometry": { "type": "Point", "coordinates": [ 7.609105021673303, 51.669744255564687 ] } },
{ "type": "Feature", "properties": { "strassenschluessel": "05978000004002514", "bezeichnung": "Am Steinhaus" }, "geometry": { "type": "Point", "coordinates": [ 7.637196777315296, 51.663419077081372 ] } },
{ "type": "Feature", "properties": { "strassenschluessel": "05978000004002515", "bezeichnung": "Amtsdrostenstraße" }, "geometry": { "type": "Point", "coordinates": [ 7.631325446827502, 51.66809779492506 ] } },
{ "type": "Feature", "properties": { "strassenschluessel": "05978000004002516", "bezeichnung": "Am Weihbach" }, "geometry": { "type": "Point", "coordinates": [ 7.651639830201932, 51.664763726143974 ] } },
{ "type": "Feature", "properties": { "strassenschluessel": "05978000004002517", "bezeichnung": "An den 12 Bäumen" }, "geometry": { "type": "Point", "coordinates": [ 7.629470883577005, 51.655397151285101 ] } },
{ "type": "Feature", "properties": { "strassenschluessel": "05978000004002518", "bezeichnung": "An der Femlinde" }, "geometry": { "type": "Point", "coordinates": [ 7.628123382171587, 51.656446654169486 ] } },
{ "type": "Feature", "properties": { "strassenschluessel": "05978000004002519", "bezeichnung": "Arenbergstraße" }, "geometry": { "type": "Point", "coordinates": [ 7.639550799315941, 51.666132118411596 ] } },
{ "type": "Feature", "properties": { "strassenschluessel": "05978000004002520", "bezeichnung": "Auf dem Berg" }, "geometry": { "type": "Point", "coordinates": [ 7.633660304523572, 51.661365020673607 ] } },
{ "type": "Feature", "properties": { "strassenschluessel": "05978000004002521", "bezeichnung": "Auf der Wenge" }, "geometry": { "type": "Point", "coordinates": [ 7.628163890494664, 51.658786299185799 ] } },
{ "type": "Feature", "properties": { "strassenschluessel": "05978000004002522", "bezeichnung": "Auf der Woort" }, "geometry": { "type": "Point", "coordinates": [ 7.623942736222033, 51.666133629002644 ] } },
{ "type": "Feature", "properties": { "strassenschluessel": "05978000004002523", "bezeichnung": "v.-Droste-Hülshoff-Straße" }, "geometry": { "type": "Point", "coordinates": [ 7.623593068111528, 51.660082551473465 ] } },
{ "type": "Feature", "properties": { "strassenschluessel": "05978000004002524", "bezeichnung": "Agnesweg" }, "geometry": { "type": "Point", "coordinates": [ 7.624714620921178, 51.675056338612926 ] } },
{ "type": "Feature", "properties": { "strassenschluessel": "05978000004002525", "bezeichnung": "Abdinghof" }, "geometry": { "type": "Point", "coordinates": [ 7.645980336175802, 51.664765106532528 ] } },
{ "type": "Feature", "properties": { "strassenschluessel": "05978000004002526", "bezeichnung": "Am Bahnhof" }, "geometry": { "type": "Point", "coordinates": [ 7.623935180577644, 51.66859198028358 ] } },
{ "type": "Feature", "properties": { "strassenschluessel": "05978000004002527", "bezeichnung": "Am Gerlingbach" }, "geometry": { "type": "Point", "coordinates": [ 7.569977283189282, 51.64781939693102 ] } },
{ "type": "Feature", "properties": { "strassenschluessel": "05978000004002528", "bezeichnung": "Am Sunderbach" }, "geometry": { "type": "Point", "coordinates": [ 7.561498332442454, 51.641185913007398 ] } },
{ "type": "Feature", "properties": { "strassenschluessel": "05978000004002529", "bezeichnung": "An der Hustebecke" }, "geometry": { "type": "Point", "coordinates": [ 7.652236654051134, 51.676484062890594 ] } },
{ "type": "Feature", "properties": { "strassenschluessel": "05978000004002530", "bezeichnung": "Baaken" }, "geometry": { "type": "Point", "coordinates": [ 7.613495870754927, 51.664797894760781 ] } },
{ "type": "Feature", "properties": { "strassenschluessel": "05978000004002531", "bezeichnung": "Bahnhofstraße" }, "geometry": { "type": "Point", "coordinates": [ 7.632893885384891, 51.665901903777304 ] } },
{ "type": "Feature", "properties": { "strassenschluessel": "05978000004002532", "bezeichnung": "Barbarastraße" }, "geometry": { "type": "Point", "coordinates": [ 7.656980360418185, 51.662965646193882 ] } },
{ "type": "Feature", "properties": { "strassenschluessel": "05978000004002533", "bezeichnung": "Beckingsbusch" }, "geometry": { "type": "Point", "coordinates": [ 7.654263452723297, 51.660484516358622 ] } },
{ "type": "Feature", "properties": { "strassenschluessel": "05978000004002534", "bezeichnung": "Beckingshof" }, "geometry": { "type": "Point", "coordinates": [ 7.645874730726534, 51.667280763401173 ] } },
{ "type": "Feature", "properties": { "strassenschluessel": "05978000004002535", "bezeichnung": "Becklohhof" }, "geometry": { "type": "Point", "coordinates": [ 7.627504526677703, 51.664057363186856 ] } },
{ "type": "Feature", "properties": { "strassenschluessel": "05978000004002536", "bezeichnung": "Beethovenstraße" }, "geometry": { "type": "Point", "coordinates": [ 7.634783450864398, 51.659427847690125 ] } },
{ "type": "Feature", "properties": { "strassenschluessel": "05978000004002537", "bezeichnung": "Bellingheide" }, "geometry": { "type": "Point", "coordinates": [ 7.620094600575354, 51.662052608600796 ] } },
{ "type": "Feature", "properties": { "strassenschluessel": "05978000004002538", "bezeichnung": "Bergstraße" }, "geometry": { "type": "Point", "coordinates": [ 7.643587847597079, 51.67376962129282 ] } },
{ "type": "Feature", "properties": { "strassenschluessel": "05978000004002539", "bezeichnung": "Berliner Straße" }, "geometry": { "type": "Point", "coordinates": [ 7.618618159337618, 51.657554712035079 ] } },
{ "type": "Feature", "properties": { "strassenschluessel": "05978000004002540", "bezeichnung": "Bernradstraße" }, "geometry": { "type": "Point", "coordinates": [ 7.630617105976568, 51.670624209742115 ] } },
{ "type": "Feature", "properties": { "strassenschluessel": "05978000004002541", "bezeichnung": "Bonenkamp" }, "geometry": { "type": "Point", "coordinates": [ 7.642843828363928, 51.672933803301753 ] } },
{ "type": "Feature", "properties": { "strassenschluessel": "05978000004002542", "bezeichnung": "Bonenstraße" }, "geometry": { "type": "Point", "coordinates": [ 7.636307307439862, 51.664658369325117 ] } },
{ "type": "Feature", "properties": { "strassenschluessel": "05978000004002543", "bezeichnung": "Borg" }, "geometry": null },
{ "type": "Feature", "properties": { "strassenschluessel": "05978000004002544", "bezeichnung": "Brachtstraße" }, "geometry": { "type": "Point", "coordinates": [ 7.668961280357228, 51.668119711196752 ] } },
{ "type": "Feature", "properties": { "strassenschluessel": "05978000004002545", "bezeichnung": "Breielstraße" }, "geometry": { "type": "Point", "coordinates": [ 7.64879978669819, 51.666200860982244 ] } },
{ "type": "Feature", "properties": { "strassenschluessel": "05978000004002546", "bezeichnung": "Breslauer Straße" }, "geometry": { "type": "Point", "coordinates": [ 7.654975876628314, 51.66362682027539 ] } },
{ "type": "Feature", "properties": { "strassenschluessel": "05978000004002547", "bezeichnung": "Brevingstraße" }, "geometry": { "type": "Point", "coordinates": [ 7.659676888917739, 51.66588707916916 ] } },
{ "type": "Feature", "properties": { "strassenschluessel": "05978000004002548", "bezeichnung": "Brink" }, "geometry": { "type": "Point", "coordinates": [ 7.641488650874107, 51.674171671152969 ] } },
{ "type": "Feature", "properties": { "strassenschluessel": "05978000004002549", "bezeichnung": "Brinkhof" }, "geometry": { "type": "Point", "coordinates": [ 7.627223355746615, 51.666154245795767 ] } },
{ "type": "Feature", "properties": { "strassenschluessel": "05978000004002550", "bezeichnung": "Brunebrink" }, "geometry": { "type": "Point", "coordinates": [ 7.645930833951108, 51.67354149047204 ] } },
{ "type": "Feature", "properties": { "strassenschluessel": "05978000004002551", "bezeichnung": "Bült" }, "geometry": { "type": "Point", "coordinates": [ 7.636636457062026, 51.664600919093083 ] } },
{ "type": "Feature", "properties": { "strassenschluessel": "05978000004002552", "bezeichnung": "Burbankstraße" }, "geometry": { "type": "Point", "coordinates": [ 7.666942245978126, 51.668629453635944 ] } },
{ "type": "Feature", "properties": { "strassenschluessel": "05978000004002553", "bezeichnung": "Burenkamp" }, "geometry": { "type": "Point", "coordinates": [ 7.626053888968744, 51.655200641851977 ] } },
{ "type": "Feature", "properties": { "strassenschluessel": "05978000004002554", "bezeichnung": "Burgstraße" }, "geometry": { "type": "Point", "coordinates": [ 7.632458538152616, 51.663281835365609 ] } },
{ "type": "Feature", "properties": { "strassenschluessel": "05978000004002555", "bezeichnung": "Butenlandwehr" }, "geometry": { "type": "Point", "coordinates": [ 7.63105904392197, 51.678771239734203 ] } },
{ "type": "Feature", "properties": { "strassenschluessel": "05978000004002556", "bezeichnung": "Brede" }, "geometry": { "type": "Point", "coordinates": [ 7.665955495631006, 51.662931957611775 ] } },
{ "type": "Feature", "properties": { "strassenschluessel": "05978000004002557", "bezeichnung": "Barlachstraße" }, "geometry": { "type": "Point", "coordinates": [ 7.654557923057302, 51.670137017660636 ] } },
{ "type": "Feature", "properties": { "strassenschluessel": "05978000004002558", "bezeichnung": "Beckwinkelweg" }, "geometry": null },
{ "type": "Feature", "properties": { "strassenschluessel": "05978000004002559", "bezeichnung": "Kyritzer Straße" }, "geometry": { "type": "Point", "coordinates": [ 7.612577846268631, 51.655881542413404 ] } },
{ "type": "Feature", "properties": { "strassenschluessel": "05978000004002560", "bezeichnung": "Lytham-St.-Annes-Straße" }, "geometry": { "type": "Point", "coordinates": [ 7.615188592090166, 51.655233681586132 ] } },
{ "type": "Feature", "properties": { "strassenschluessel": "05978000004002561", "bezeichnung": "Walczer Straße" }, "geometry": { "type": "Point", "coordinates": [ 7.617285873727652, 51.655268233294109 ] } },
{ "type": "Feature", "properties": { "strassenschluessel": "05978000004002562", "bezeichnung": "Bailleuler Straße" }, "geometry": { "type": "Point", "coordinates": [ 7.61316864571716, 51.654892602066219 ] } },
{ "type": "Feature", "properties": { "strassenschluessel": "05978000004002564", "bezeichnung": "Capeller Straße" }, "geometry": { "type": "Point", "coordinates": [ 7.614849407901739, 51.687988691792796 ] } },
{ "type": "Feature", "properties": { "strassenschluessel": "05978000004002565", "bezeichnung": "Cappenberger Straße" }, "geometry": { "type": "Point", "coordinates": [ 7.626254608957187, 51.660024839172443 ] } },
{ "type": "Feature", "properties": { "strassenschluessel": "05978000004002566", "bezeichnung": "Carl-Von-Ossietzky-Straße" }, "geometry": { "type": "Point", "coordinates": [ 7.642860329823705, 51.670761867061451 ] } },
{ "type": "Feature", "properties": { "strassenschluessel": "05978000004002567", "bezeichnung": "Cappenberger Damm" }, "geometry": { "type": "Point", "coordinates": [ 7.54466643747711, 51.680188721392234 ] } },
{ "type": "Feature", "properties": { "strassenschluessel": "05978000004002568", "bezeichnung": "Eichenbusch" }, "geometry": { "type": "Point", "coordinates": [ 7.629390235987588, 51.679545918566454 ] } },
{ "type": "Feature", "properties": { "strassenschluessel": "05978000004002569", "bezeichnung": "Damianweg" }, "geometry": { "type": "Point", "coordinates": [ 7.627725088832765, 51.667292866872735 ] } },
{ "type": "Feature", "properties": { "strassenschluessel": "05978000004002570", "bezeichnung": "Danziger Straße" }, "geometry": { "type": "Point", "coordinates": [ 7.656344586031424, 51.663979555108405 ] } },
{ "type": "Feature", "properties": { "strassenschluessel": "05978000004002571", "bezeichnung": "Domhof" }, "geometry": { "type": "Point", "coordinates": [ 7.634716482086745, 51.661914715276801 ] } },
{ "type": "Feature", "properties": { "strassenschluessel": "05978000004002572", "bezeichnung": "Dornberg" }, "geometry": { "type": "Point", "coordinates": [ 7.650547544832689, 51.671026519512452 ] } },
{ "type": "Feature", "properties": { "strassenschluessel": "05978000004002573", "bezeichnung": "Drosselweg" }, "geometry": { "type": "Point", "coordinates": [ 7.618050421759081, 51.65551759192693 ] } },
{ "type": "Feature", "properties": { "strassenschluessel": "05978000004002574", "bezeichnung": "Dietrich-Bonhoeffer-Straße" }, "geometry": { "type": "Point", "coordinates": [ 7.639834733131838, 51.669898508767361 ] } },
{ "type": "Feature", "properties": { "strassenschluessel": "05978000004002575", "bezeichnung": "Dürerstraße" }, "geometry": { "type": "Point", "coordinates": [ 7.649182934026594, 51.670214424995905 ] } },
{ "type": "Feature", "properties": { "strassenschluessel": "05978000004002576", "bezeichnung": "Dahlkamp" }, "geometry": { "type": "Point", "coordinates": [ 7.66725848881007, 51.671059091244118 ] } },
{ "type": "Feature", "properties": { "strassenschluessel": "05978000004002577", "bezeichnung": "Grafenweg" }, "geometry": { "type": "Point", "coordinates": [ 7.634210400589938, 51.668229079996763 ] } },
{ "type": "Feature", "properties": { "strassenschluessel": "05978000004002578", "bezeichnung": "Eick" }, "geometry": { "type": "Point", "coordinates": [ 7.647455033404095, 51.671010799674512 ] } },
{ "type": "Feature", "properties": { "strassenschluessel": "05978000004002579", "bezeichnung": "Elisabethstraße" }, "geometry": { "type": "Point", "coordinates": [ 7.630742812324493, 51.673787595963603 ] } },
{ "type": "Feature", "properties": { "strassenschluessel": "05978000004002580", "bezeichnung": "Elsa-Brandstroem-Straße" }, "geometry": null },
{ "type": "Feature", "properties": { "strassenschluessel": "05978000004002581", "bezeichnung": "Erlenbrock" }, "geometry": { "type": "Point", "coordinates": [ 7.652841850118425, 51.665435936436914 ] } },
{ "type": "Feature", "properties": { "strassenschluessel": "05978000004002582", "bezeichnung": "Eschenweg" }, "geometry": { "type": "Point", "coordinates": [ 7.647775550474636, 51.664084743904404 ] } },
{ "type": "Feature", "properties": { "strassenschluessel": "05978000004002583", "bezeichnung": "Bürgermeister-Grube-Straße" }, "geometry": { "type": "Point", "coordinates": [ 7.639432135155345, 51.667265522877365 ] } },
{ "type": "Feature", "properties": { "strassenschluessel": "05978000004002584", "bezeichnung": "Emil-Nolde-Weg" }, "geometry": { "type": "Point", "coordinates": [ 7.656389286611109, 51.670479089205038 ] } },
{ "type": "Feature", "properties": { "strassenschluessel": "05978000004002585", "bezeichnung": "Ehringhauser Weg" }, "geometry": { "type": "Point", "coordinates": [ 7.586626292432235, 51.683675633056083 ] } },
{ "type": "Feature", "properties": { "strassenschluessel": "05978000004002586", "bezeichnung": "Lange Hege" }, "geometry": { "type": "Point", "coordinates": [ 7.600108409219308, 51.673371259614598 ] } },
{ "type": "Feature", "properties": { "strassenschluessel": "05978000004002587", "bezeichnung": "Raiffeisenstraße" }, "geometry": { "type": "Point", "coordinates": [ 7.599848552320619, 51.658136749608296 ] } },
{ "type": "Feature", "properties": { "strassenschluessel": "05978000004002588", "bezeichnung": "Carl-Zeiss-Straße" }, "geometry": { "type": "Point", "coordinates": [ 7.596027195453319, 51.656674777675214 ] } },
{ "type": "Feature", "properties": { "strassenschluessel": "05978000004002589", "bezeichnung": "Feldmark" }, "geometry": { "type": "Point", "coordinates": [ 7.611533292349177, 51.658404534438979 ] } },
{ "type": "Feature", "properties": { "strassenschluessel": "05978000004002590", "bezeichnung": "Fasanenweg" }, "geometry": { "type": "Point", "coordinates": [ 7.616340241040989, 51.65734360084663 ] } },
{ "type": "Feature", "properties": { "strassenschluessel": "05978000004002591", "bezeichnung": "Freigrafenstraße" }, "geometry": { "type": "Point", "coordinates": [ 7.622249066105147, 51.657277987235311 ] } },
{ "type": "Feature", "properties": { "strassenschluessel": "05978000004002592", "bezeichnung": "Freiherr-vom-Stein-Straße" }, "geometry": { "type": "Point", "coordinates": [ 7.636772413081944, 51.658813056483147 ] } },
{ "type": "Feature", "properties": { "strassenschluessel": "05978000004002593", "bezeichnung": "Friedensstraße" }, "geometry": { "type": "Point", "coordinates": [ 7.630595267493279, 51.65642554626217 ] } },
{ "type": "Feature", "properties": { "strassenschluessel": "05978000004002594", "bezeichnung": "Fürstenhof" }, "geometry": { "type": "Point", "coordinates": [ 7.633017309245184, 51.669380092615533 ] } },
{ "type": "Feature", "properties": { "strassenschluessel": "05978000004002595", "bezeichnung": "Flandernstraße" }, "geometry": { "type": "Point", "coordinates": [ 7.620819641236425, 51.659039346938343 ] } },
{ "type": "Feature", "properties": { "strassenschluessel": "05978000004002596", "bezeichnung": "Froningholz" }, "geometry": { "type": "Point", "coordinates": [ 7.626644941531909, 51.687290319371421 ] } },
{ "type": "Feature", "properties": { "strassenschluessel": "05978000004002597", "bezeichnung": "Friedrich-Hebbel-Straße" }, "geometry": { "type": "Point", "coordinates": [ 7.613597095663442, 51.672076149979489 ] } },
{ "type": "Feature", "properties": { "strassenschluessel": "05978000004002598", "bezeichnung": "Franz-Marc-Straße" }, "geometry": { "type": "Point", "coordinates": [ 7.658191026563766, 51.671238257642322 ] } },
{ "type": "Feature", "properties": { "strassenschluessel": "05978000004002599", "bezeichnung": "Fährenkampweg" }, "geometry": { "type": "Point", "coordinates": [ 7.672609814573898, 51.675374591295515 ] } },
{ "type": "Feature", "properties": { "strassenschluessel": "05978000004002601", "bezeichnung": "Geisthof" }, "geometry": { "type": "Point", "coordinates": [ 7.641403204952249, 51.665086017099839 ] } },
{ "type": "Feature", "properties": { "strassenschluessel": "05978000004002602", "bezeichnung": "Georgsmarienstraße" }, "geometry": { "type": "Point", "coordinates": [ 7.659497524917959, 51.660288538068095 ] } },
{ "type": "Feature", "properties": { "strassenschluessel": "05978000004002603", "bezeichnung": "Gerhart-Hauptmann-Straße" }, "geometry": { "type": "Point", "coordinates": [ 7.619339054253052, 51.662218543126137 ] } },
{ "type": "Feature", "properties": { "strassenschluessel": "05978000004002604", "bezeichnung": "Gleisstraße" }, "geometry": { "type": "Point", "coordinates": [ 7.66330657304172, 51.660836131274756 ] } },
{ "type": "Feature", "properties": { "strassenschluessel": "05978000004002605", "bezeichnung": "Glückauf-Straße" }, "geometry": { "type": "Point", "coordinates": [ 7.651588243345666, 51.662752628930036 ] } },
{ "type": "Feature", "properties": { "strassenschluessel": "05978000004002606", "bezeichnung": "Goetheweg" }, "geometry": { "type": "Point", "coordinates": [ 7.617034706877187, 51.670337240037881 ] } },
{ "type": "Feature", "properties": { "strassenschluessel": "05978000004002607", "bezeichnung": "Gottfriedweg" }, "geometry": { "type": "Point", "coordinates": [ 7.630255194126947, 51.666152671459145 ] } },
{ "type": "Feature", "properties": { "strassenschluessel": "05978000004002608", "bezeichnung": "Grevinghof" }, "geometry": { "type": "Point", "coordinates": [ 7.628060519560113, 51.675618754239572 ] } },
{ "type": "Feature", "properties": { "strassenschluessel": "05978000004002609", "bezeichnung": "Geschwister-Scholl-Straße" }, "geometry": { "type": "Point", "coordinates": [ 7.639371106794072, 51.671315284669909 ] } },
{ "type": "Feature", "properties": { "strassenschluessel": "05978000004002610", "bezeichnung": "Goerdelerstraße" }, "geometry": { "type": "Point", "coordinates": [ 7.645953097629053, 51.673087397441229 ] } },
{ "type": "Feature", "properties": { "strassenschluessel": "05978000004002611", "bezeichnung": "Gewerbehof" }, "geometry": { "type": "Point", "coordinates": [ 7.60902029477205, 51.662994605861094 ] } },
{ "type": "Feature", "properties": { "strassenschluessel": "05978000004002612", "bezeichnung": "Georg-Büchner-Straße" }, "geometry": { "type": "Point", "coordinates": [ 7.615129400253111, 51.671550649115908 ] } },
{ "type": "Feature", "properties": { "strassenschluessel": "05978000004002613", "bezeichnung": "Gutenbergstraße" }, "geometry": { "type": "Point", "coordinates": [ 7.626341359633852, 51.669166812471644 ] } },
{ "type": "Feature", "properties": { "strassenschluessel": "05978000004002614", "bezeichnung": "Geestweg" }, "geometry": { "type": "Point", "coordinates": [ 7.631121932323918, 51.691299818397404 ] } },
{ "type": "Feature", "properties": { "strassenschluessel": "05978000004002615", "bezeichnung": "Haferfeld" }, "geometry": { "type": "Point", "coordinates": [ 7.61837599951608, 51.667586752088006 ] } },
{ "type": "Feature", "properties": { "strassenschluessel": "05978000004002616", "bezeichnung": "Hansaring" }, "geometry": { "type": "Point", "coordinates": [ 7.63858981042204, 51.667535162407283 ] } },
{ "type": "Feature", "properties": { "strassenschluessel": "05978000004002617", "bezeichnung": "Hartenkerl" }, "geometry": { "type": "Point", "coordinates": [ 7.635923408932203, 51.660331974831728 ] } },
{ "type": "Feature", "properties": { "strassenschluessel": "05978000004002618", "bezeichnung": "Heckgeist" }, "geometry": { "type": "Point", "coordinates": [ 7.636887623277143, 51.665900642289877 ] } },
{ "type": "Feature", "properties": { "strassenschluessel": "05978000004002619", "bezeichnung": "Heckhof" }, "geometry": { "type": "Point", "coordinates": [ 7.635582975548311, 51.666585100993636 ] } },
{ "type": "Feature", "properties": { "strassenschluessel": "05978000004002621", "bezeichnung": "Heinrich-von-Kleist-Straße" }, "geometry": { "type": "Point", "coordinates": [ 7.617937691462169, 51.66361327575418 ] } },
{ "type": "Feature", "properties": { "strassenschluessel": "05978000004002622", "bezeichnung": "Heitkamp" }, "geometry": { "type": "Point", "coordinates": [ 7.614601577844758, 51.661760893408548 ] } },
{ "type": "Feature", "properties": { "strassenschluessel": "05978000004002623", "bezeichnung": "Hermann-Löns-Straße" }, "geometry": { "type": "Point", "coordinates": [ 7.615606142730377, 51.665984216048734 ] } },
{ "type": "Feature", "properties": { "strassenschluessel": "05978000004002624", "bezeichnung": "Herzogstraße" }, "geometry": { "type": "Point", "coordinates": [ 7.63980482697601, 51.665712847957849 ] } },
{ "type": "Feature", "properties": { "strassenschluessel": "05978000004002625", "bezeichnung": "Hindenburger Straße" }, "geometry": { "type": "Point", "coordinates": [ 7.654018186793932, 51.665792767677068 ] } },
{ "type": "Feature", "properties": { "strassenschluessel": "05978000004002626", "bezeichnung": "Lehmbach" }, "geometry": { "type": "Point", "coordinates": [ 7.627514190299641, 51.679949469538535 ] } },
{ "type": "Feature", "properties": { "strassenschluessel": "05978000004002627", "bezeichnung": "Holtkamp" }, "geometry": { "type": "Point", "coordinates": [ 7.64591349434478, 51.668853145880739 ] } },
{ "type": "Feature", "properties": { "strassenschluessel": "05978000004002628", "bezeichnung": "Horneburg" }, "geometry": { "type": "Point", "coordinates": [ 7.630647454628658, 51.659714816921898 ] } },
{ "type": "Feature", "properties": { "strassenschluessel": "05978000004002629", "bezeichnung": "Hornsberg" }, "geometry": { "type": "Point", "coordinates": [ 7.626181730587088, 51.676837704595258 ] } },
{ "type": "Feature", "properties": { "strassenschluessel": "05978000004002630", "bezeichnung": "Horster Straße" }, "geometry": { "type": "Point", "coordinates": [ 7.649494874675941, 51.671291634971531 ] } },
{ "type": "Feature", "properties": { "strassenschluessel": "05978000004002631", "bezeichnung": "Humboldtstraße" }, "geometry": { "type": "Point", "coordinates": [ 7.618746537737769, 51.655620073150033 ] } },
{ "type": "Feature", "properties": { "strassenschluessel": "05978000004002632", "bezeichnung": "Hüsingstraße" }, "geometry": { "type": "Point", "coordinates": [ 7.657160115790606, 51.663335377438656 ] } },
{ "type": "Feature", "properties": { "strassenschluessel": "05978000004002633", "bezeichnung": "Helmuth-Von-Moltke-Straße" }, "geometry": { "type": "Point", "coordinates": [ 7.641268925503468, 51.672542873569732 ] } },
{ "type": "Feature", "properties": { "strassenschluessel": "05978000004002634", "bezeichnung": "Hagenbuschweg" }, "geometry": { "type": "Point", "coordinates": [ 7.644117001754402, 51.706336790870566 ] } },
{ "type": "Feature", "properties": { "strassenschluessel": "05978000004002635", "bezeichnung": "Heimannsweg" }, "geometry": { "type": "Point", "coordinates": [ 7.610864626241113, 51.696214257509261 ] } },
{ "type": "Feature", "properties": { "strassenschluessel": "05978000004002636", "bezeichnung": "Höltingweg" }, "geometry": { "type": "Point", "coordinates": [ 7.615269959908162, 51.705472530858785 ] } },
{ "type": "Feature", "properties": { "strassenschluessel": "05978000004002637", "bezeichnung": "Im Hoerm" }, "geometry": { "type": "Point", "coordinates": [ 7.564362490582974, 51.636779426733618 ] } },
{ "type": "Feature", "properties": { "strassenschluessel": "05978000004002638", "bezeichnung": "Im Grünen Winkel" }, "geometry": { "type": "Point", "coordinates": [ 7.651317165988126, 51.683832184550283 ] } },
{ "type": "Feature", "properties": { "strassenschluessel": "05978000004002639", "bezeichnung": "Im Nierfeld" }, "geometry": { "type": "Point", "coordinates": [ 7.586425280583107, 51.658216524858126 ] } },
{ "type": "Feature", "properties": { "strassenschluessel": "05978000004002640", "bezeichnung": "Jahnstraße" }, "geometry": { "type": "Point", "coordinates": [ 7.619723127346251, 51.657529012173647 ] } },
{ "type": "Feature", "properties": { "strassenschluessel": "05978000004002641", "bezeichnung": "Juffernkamp" }, "geometry": { "type": "Point", "coordinates": [ 7.629458113182364, 51.665855859764896 ] } },
{ "type": "Feature", "properties": { "strassenschluessel": "05978000004002642", "bezeichnung": "Jüngststraße" }, "geometry": { "type": "Point", "coordinates": [ 7.627290244863016, 51.662020528860644 ] } },
{ "type": "Feature", "properties": { "strassenschluessel": "05978000004002643", "bezeichnung": "Julius-Leber-Straße" }, "geometry": { "type": "Point", "coordinates": [ 7.640569868579481, 51.670417516990916 ] } },
{ "type": "Feature", "properties": { "strassenschluessel": "05978000004002644", "bezeichnung": "Jütlandstraße" }, "geometry": { "type": "Point", "coordinates": [ 7.619453529866539, 51.659194350946926 ] } },
{ "type": "Feature", "properties": { "strassenschluessel": "05978000004002645", "bezeichnung": "Johann-Gottfried-Herder-Straße" }, "geometry": { "type": "Point", "coordinates": [ 7.616084286313816, 51.672295244040221 ] } },
{ "type": "Feature", "properties": { "strassenschluessel": "05978000004002646", "bezeichnung": "Joseph-Haydn-Straße" }, "geometry": { "type": "Point", "coordinates": [ 7.635315062280583, 51.659851186770403 ] } },
{ "type": "Feature", "properties": { "strassenschluessel": "05978000004002647", "bezeichnung": "Kamener Straße" }, "geometry": { "type": "Point", "coordinates": [ 7.63887519874989, 51.658011212286162 ] } },
{ "type": "Feature", "properties": { "strassenschluessel": "05978000004002648", "bezeichnung": "Kantstraße" }, "geometry": { "type": "Point", "coordinates": [ 7.624296389897507, 51.655081763844485 ] } },
{ "type": "Feature", "properties": { "strassenschluessel": "05978000004002649", "bezeichnung": "Kardinal-von-Galen-Straße" }, "geometry": { "type": "Point", "coordinates": [ 7.619055324728142, 51.672043890742913 ] } },
{ "type": "Feature", "properties": { "strassenschluessel": "05978000004002650", "bezeichnung": "Kettelerstraße" }, "geometry": { "type": "Point", "coordinates": [ 7.625196003061315, 51.666129190061888 ] } },
{ "type": "Feature", "properties": { "strassenschluessel": "05978000004002651", "bezeichnung": "Kirchhof" }, "geometry": { "type": "Point", "coordinates": [ 7.634960942201183, 51.662897431258074 ] } },
{ "type": "Feature", "properties": { "strassenschluessel": "05978000004002652", "bezeichnung": "Kirchhof-Mottenheim" }, "geometry": { "type": "Point", "coordinates": [ 7.624914008087808, 51.655311938543569 ] } },
{ "type": "Feature", "properties": { "strassenschluessel": "05978000004002653", "bezeichnung": "Kleine Burgstraße" }, "geometry": { "type": "Point", "coordinates": [ 7.634139147656594, 51.662696318119202 ] } },
{ "type": "Feature", "properties": { "strassenschluessel": "05978000004002654", "bezeichnung": "Klöcknerstraße" }, "geometry": { "type": "Point", "coordinates": [ 7.647596162202221, 51.662286740689609 ] } },
{ "type": "Feature", "properties": { "strassenschluessel": "05978000004002655", "bezeichnung": "Klosterstraße" }, "geometry": { "type": "Point", "coordinates": [ 7.63568224265996, 51.66212895297766 ] } },
{ "type": "Feature", "properties": { "strassenschluessel": "05978000004002656", "bezeichnung": "Knappenstraße" }, "geometry": { "type": "Point", "coordinates": [ 7.660777679527015, 51.661815875516325 ] } },
{ "type": "Feature", "properties": { "strassenschluessel": "05978000004002657", "bezeichnung": "Kolpingstraße" }, "geometry": { "type": "Point", "coordinates": [ 7.616738828754464, 51.66728561458477 ] } },
{ "type": "Feature", "properties": { "strassenschluessel": "05978000004002658", "bezeichnung": "Königsberger Straße" }, "geometry": { "type": "Point", "coordinates": [ 7.657377117969312, 51.664234940697199 ] } },
{ "type": "Feature", "properties": { "strassenschluessel": "05978000004002659", "bezeichnung": "Konrad-Adenauer-Platz" }, "geometry": { "type": "Point", "coordinates": [ 7.634765542947787, 51.665492957303833 ] } },
{ "type": "Feature", "properties": { "strassenschluessel": "05978000004002660", "bezeichnung": "Körnerstraße" }, "geometry": { "type": "Point", "coordinates": [ 7.612496381810129, 51.666949970766815 ] } },
{ "type": "Feature", "properties": { "strassenschluessel": "05978000004002662", "bezeichnung": "Köttersberg" }, "geometry": { "type": "Point", "coordinates": [ 7.658751500058898, 51.664831612224724 ] } },
{ "type": "Feature", "properties": { "strassenschluessel": "05978000004002664", "bezeichnung": "Konrad-Adenauer-Straße" }, "geometry": { "type": "Point", "coordinates": [ 7.634810444513634, 51.66411132768684 ] } },
{ "type": "Feature", "properties": { "strassenschluessel": "05978000004002665", "bezeichnung": "Claus-von-Stauffenberg-Straße" }, "geometry": { "type": "Point", "coordinates": [ 7.641012295837679, 51.669972288661455 ] } },
{ "type": "Feature", "properties": { "strassenschluessel": "05978000004002666", "bezeichnung": "Kurt-Schumacher-Platz" }, "geometry": { "type": "Point", "coordinates": [ 7.637043402461351, 51.659956279104023 ] } },
{ "type": "Feature", "properties": { "strassenschluessel": "05978000004002667", "bezeichnung": "Kasemannweg" }, "geometry": { "type": "Point", "coordinates": [ 7.62643854570393, 51.693832035696211 ] } },
{ "type": "Feature", "properties": { "strassenschluessel": "05978000004002668", "bezeichnung": "Kerstingweg" }, "geometry": { "type": "Point", "coordinates": [ 7.597456160655353, 51.690617955371643 ] } },
{ "type": "Feature", "properties": { "strassenschluessel": "05978000004002669", "bezeichnung": "Knappweg" }, "geometry": { "type": "Point", "coordinates": [ 7.637604944324141, 51.703145885093029 ] } },
{ "type": "Feature", "properties": { "strassenschluessel": "05978000004002670", "bezeichnung": "Kiwitzheidweg" }, "geometry": { "type": "Point", "coordinates": [ 7.673935774277088, 51.677853695028986 ] } },
{ "type": "Feature", "properties": { "strassenschluessel": "05978000004002671", "bezeichnung": "Käthe-Kollwitz-Straße" }, "geometry": { "type": "Point", "coordinates": [ 7.657885035792418, 51.670639713586858 ] } },
{ "type": "Feature", "properties": { "strassenschluessel": "05978000004002672", "bezeichnung": "Kirchnerstraße" }, "geometry": { "type": "Point", "coordinates": [ 7.655271402712088, 51.670447177690399 ] } },
{ "type": "Feature", "properties": { "strassenschluessel": "05978000004002673", "bezeichnung": "Kortenbroker Weg" }, "geometry": null },
{ "type": "Feature", "properties": { "strassenschluessel": "05978000004002674", "bezeichnung": "Weberstraße" }, "geometry": { "type": "Point", "coordinates": [ 7.625120642897604, 51.66096992569927 ] } },
{ "type": "Feature", "properties": { "strassenschluessel": "05978000004002675", "bezeichnung": "Laar" }, "geometry": { "type": "Point", "coordinates": [ 7.625417140734278, 51.658996345012639 ] } },
{ "type": "Feature", "properties": { "strassenschluessel": "05978000004002676", "bezeichnung": "Landwehrstraße" }, "geometry": { "type": "Point", "coordinates": [ 7.609444906604955, 51.666052815233499 ] } },
{ "type": "Feature", "properties": { "strassenschluessel": "05978000004002677", "bezeichnung": "Grabbestraße" }, "geometry": { "type": "Point", "coordinates": [ 7.622253475832522, 51.660602842418974 ] } },
{ "type": "Feature", "properties": { "strassenschluessel": "05978000004002678", "bezeichnung": "Niggenkamp" }, "geometry": { "type": "Point", "coordinates": [ 7.629494171029876, 51.680369156975289 ] } },
{ "type": "Feature", "properties": { "strassenschluessel": "05978000004002679", "bezeichnung": "Lerchenweg" }, "geometry": { "type": "Point", "coordinates": [ 7.623251300524695, 51.656231580532697 ] } },
{ "type": "Feature", "properties": { "strassenschluessel": "05978000004002680", "bezeichnung": "Lessingstraße" }, "geometry": { "type": "Point", "coordinates": [ 7.610838706961575, 51.666225359197277 ] } },
{ "type": "Feature", "properties": { "strassenschluessel": "05978000004002681", "bezeichnung": "Lindert" }, "geometry": { "type": "Point", "coordinates": [ 7.621891702276997, 51.668902217956038 ] } },
{ "type": "Feature", "properties": { "strassenschluessel": "05978000004002682", "bezeichnung": "Lippestraße" }, "geometry": { "type": "Point", "coordinates": [ 7.654359726297468, 51.659577377509422 ] } },
{ "type": "Feature", "properties": { "strassenschluessel": "05978000004002683", "bezeichnung": "Lohstraße" }, "geometry": { "type": "Point", "coordinates": [ 7.630343566506775, 51.674605641313349 ] } },
{ "type": "Feature", "properties": { "strassenschluessel": "05978000004002684", "bezeichnung": "Ludgeristraße" }, "geometry": { "type": "Point", "coordinates": [ 7.631423419594976, 51.670637385244483 ] } },
{ "type": "Feature", "properties": { "strassenschluessel": "05978000004002685", "bezeichnung": "Lünener Straße" }, "geometry": { "type": "Point", "coordinates": [ 7.631170684851125, 51.660896810018976 ] } },
{ "type": "Feature", "properties": { "strassenschluessel": "05978000004002686", "bezeichnung": "Lütkeheide" }, "geometry": { "type": "Point", "coordinates": [ 7.626980332329506, 51.676402206546385 ] } },
{ "type": "Feature", "properties": { "strassenschluessel": "05978000004002687", "bezeichnung": "Letterhausstraße" }, "geometry": { "type": "Point", "coordinates": [ 7.638387162885628, 51.671619322231521 ] } },
{ "type": "Feature", "properties": { "strassenschluessel": "05978000004002688", "bezeichnung": "Langernstraße" }, "geometry": { "type": "Point", "coordinates": [ 7.560409238681231, 51.64598923126718 ] } },
{ "type": "Feature", "properties": { "strassenschluessel": "05978000004002689", "bezeichnung": "Händelweg" }, "geometry": { "type": "Point", "coordinates": [ 7.635858251338112, 51.65927551336847 ] } },
{ "type": "Feature", "properties": { "strassenschluessel": "05978000004002690", "bezeichnung": "Am alten Kurbad" }, "geometry": { "type": "Point", "coordinates": [ 7.632126767591451, 51.675601565935139 ] } },
{ "type": "Feature", "properties": { "strassenschluessel": "05978000004002691", "bezeichnung": "Am Schwanenplatz" }, "geometry": { "type": "Point", "coordinates": [ 7.632267385406888, 51.662491562620616 ] } },
{ "type": "Feature", "properties": { "strassenschluessel": "05978000004002692", "bezeichnung": "Dr.-Hövener-Straße" }, "geometry": { "type": "Point", "coordinates": [ 7.630808629612917, 51.676107268835885 ] } },
{ "type": "Feature", "properties": { "strassenschluessel": "05978000004002693", "bezeichnung": "Schumannweg" }, "geometry": { "type": "Point", "coordinates": [ 7.636765238225879, 51.659494868591757 ] } },
{ "type": "Feature", "properties": { "strassenschluessel": "05978000004002694", "bezeichnung": "Erlbach" }, "geometry": { "type": "Point", "coordinates": [ 7.627043208252346, 51.67907343600487 ] } },
{ "type": "Feature", "properties": { "strassenschluessel": "05978000004002695", "bezeichnung": "Magdalenenstraße" }, "geometry": { "type": "Point", "coordinates": [ 7.634370013552407, 51.662508353301519 ] } },
{ "type": "Feature", "properties": { "strassenschluessel": "05978000004002696", "bezeichnung": "Markt" }, "geometry": { "type": "Point", "coordinates": [ 7.636441179341362, 51.662657131138609 ] } },
{ "type": "Feature", "properties": { "strassenschluessel": "05978000004002698", "bezeichnung": "Maybachstraße" }, "geometry": { "type": "Point", "coordinates": [ 7.64076296504902, 51.662579086681092 ] } },
{ "type": "Feature", "properties": { "strassenschluessel": "05978000004002699", "bezeichnung": "Meisenweg" }, "geometry": { "type": "Point", "coordinates": [ 7.618813524652253, 51.654989256819121 ] } },
{ "type": "Feature", "properties": { "strassenschluessel": "05978000004002700", "bezeichnung": "Melchersstraße" }, "geometry": { "type": "Point", "coordinates": [ 7.624617027218411, 51.658762822105402 ] } },
{ "type": "Feature", "properties": { "strassenschluessel": "05978000004002701", "bezeichnung": "Memellandstraße" }, "geometry": { "type": "Point", "coordinates": [ 7.655714509052133, 51.665864953485915 ] } },
{ "type": "Feature", "properties": { "strassenschluessel": "05978000004002702", "bezeichnung": "Merianstraße" }, "geometry": { "type": "Point", "coordinates": [ 7.621890678175981, 51.665819644206131 ] } },
{ "type": "Feature", "properties": { "strassenschluessel": "05978000004002703", "bezeichnung": "Merschweg" }, "geometry": { "type": "Point", "coordinates": [ 7.630402641016634, 51.657165964299729 ] } },
{ "type": "Feature", "properties": { "strassenschluessel": "05978000004002704", "bezeichnung": "Michaelstraße" }, "geometry": { "type": "Point", "coordinates": [ 7.62987074935825, 51.671247520478317 ] } },
{ "type": "Feature", "properties": { "strassenschluessel": "05978000004002705", "bezeichnung": "Mozartstraße" }, "geometry": { "type": "Point", "coordinates": [ 7.63445169522916, 51.660439320689768 ] } },
{ "type": "Feature", "properties": { "strassenschluessel": "05978000004002706", "bezeichnung": "Mühlenfeld" }, "geometry": { "type": "Point", "coordinates": [ 7.640199349980661, 51.661079601145481 ] } },
{ "type": "Feature", "properties": { "strassenschluessel": "05978000004002707", "bezeichnung": "Mühlenknapp" }, "geometry": { "type": "Point", "coordinates": [ 7.620683612696614, 51.665275354757235 ] } },
{ "type": "Feature", "properties": { "strassenschluessel": "05978000004002708", "bezeichnung": "Münsterfort" }, "geometry": { "type": "Point", "coordinates": [ 7.611139666094915, 51.66855163526504 ] } },
{ "type": "Feature", "properties": { "strassenschluessel": "05978000004002709", "bezeichnung": "Münsterstraße" }, "geometry": { "type": "Point", "coordinates": [ 7.639525293133318, 51.712250575557583 ] } },
{ "type": "Feature", "properties": { "strassenschluessel": "05978000004002710", "bezeichnung": "Moormannplatz" }, "geometry": { "type": "Point", "coordinates": [ 7.636552453377695, 51.663414385700776 ] } },
{ "type": "Feature", "properties": { "strassenschluessel": "05978000004002711", "bezeichnung": "Moorbecke" }, "geometry": { "type": "Point", "coordinates": [ 7.605741627385449, 51.672249428025481 ] } },
{ "type": "Feature", "properties": { "strassenschluessel": "05978000004002712", "bezeichnung": "Marie-Juchacz-Straße" }, "geometry": { "type": "Point", "coordinates": [ 7.656541760016346, 51.661162759850441 ] } },
{ "type": "Feature", "properties": { "strassenschluessel": "05978000004002713", "bezeichnung": "Martinsweg" }, "geometry": { "type": "Point", "coordinates": [ 7.599109911269464, 51.651398194234197 ] } },
{ "type": "Feature", "properties": { "strassenschluessel": "05978000004002714", "bezeichnung": "Alte Münsterstraße" }, "geometry": { "type": "Point", "coordinates": [ 7.63649498708921, 51.66499381221211 ] } },
{ "type": "Feature", "properties": { "strassenschluessel": "05978000004002715", "bezeichnung": "Am Fischerhof" }, "geometry": { "type": "Point", "coordinates": [ 7.655813398140896, 51.659004165343262 ] } },
{ "type": "Feature", "properties": { "strassenschluessel": "05978000004002716", "bezeichnung": "Schulzenstraße" }, "geometry": { "type": "Point", "coordinates": [ 7.60310120084782, 51.66206303919602 ] } },
{ "type": "Feature", "properties": { "strassenschluessel": "05978000004002717", "bezeichnung": "Hermann-Hesse-Straße" }, "geometry": { "type": "Point", "coordinates": [ 7.620014986074743, 51.662296869017723 ] } },
{ "type": "Feature", "properties": { "strassenschluessel": "05978000004002718", "bezeichnung": "Bertolt-Brecht-Straße" }, "geometry": { "type": "Point", "coordinates": [ 7.620082998631299, 51.662805216972941 ] } },
{ "type": "Feature", "properties": { "strassenschluessel": "05978000004002719", "bezeichnung": "Flöz-Zollverein-Straße" }, "geometry": { "type": "Point", "coordinates": [ 7.640363901494181, 51.657972788333105 ] } },
{ "type": "Feature", "properties": { "strassenschluessel": "05978000004002720", "bezeichnung": "Nachtigallenweg" }, "geometry": { "type": "Point", "coordinates": [ 7.628152205104593, 51.662136995468359 ] } },
{ "type": "Feature", "properties": { "strassenschluessel": "05978000004002721", "bezeichnung": "Nathstraße" }, "geometry": { "type": "Point", "coordinates": [ 7.643336188488616, 51.670055230993007 ] } },
{ "type": "Feature", "properties": { "strassenschluessel": "05978000004002722", "bezeichnung": "Nibelungenring" }, "geometry": { "type": "Point", "coordinates": [ 7.656588137737226, 51.672109002749252 ] } },
{ "type": "Feature", "properties": { "strassenschluessel": "05978000004002723", "bezeichnung": "Nordlippering" }, "geometry": null },
{ "type": "Feature", "properties": { "strassenschluessel": "05978000004002724", "bezeichnung": "Flöz-Wilhelm-Straße" }, "geometry": { "type": "Point", "coordinates": [ 7.643600130242023, 51.659471054728328 ] } },
{ "type": "Feature", "properties": { "strassenschluessel": "05978000004002725", "bezeichnung": "Ludwig-Beck-Straße" }, "geometry": { "type": "Point", "coordinates": [ 7.638448034786376, 51.669459148703588 ] } },
{ "type": "Feature", "properties": { "strassenschluessel": "05978000004002727", "bezeichnung": "Ostkamp" }, "geometry": { "type": "Point", "coordinates": [ 7.645617503371395, 51.671226024106289 ] } },
{ "type": "Feature", "properties": { "strassenschluessel": "05978000004002728", "bezeichnung": "Ostmauer" }, "geometry": { "type": "Point", "coordinates": [ 7.637345355833575, 51.663015385154551 ] } },
{ "type": "Feature", "properties": { "strassenschluessel": "05978000004002729", "bezeichnung": "Ostring" }, "geometry": { "type": "Point", "coordinates": [ 7.652795382401337, 51.6638198116297 ] } },
{ "type": "Feature", "properties": { "strassenschluessel": "05978000004002730", "bezeichnung": "Ottostraße" }, "geometry": { "type": "Point", "coordinates": [ 7.633687315298775, 51.670779436611546 ] } },
{ "type": "Feature", "properties": { "strassenschluessel": "05978000004002731", "bezeichnung": "Ovelgönne" }, "geometry": { "type": "Point", "coordinates": [ 7.620643687747862, 51.666860736398405 ] } },
{ "type": "Feature", "properties": { "strassenschluessel": "05978000004002732", "bezeichnung": "Overbergstraße" }, "geometry": { "type": "Point", "coordinates": [ 7.622528587696402, 51.66628290921328 ] } },
{ "type": "Feature", "properties": { "strassenschluessel": "05978000004002733", "bezeichnung": "Osticker Berg" }, "geometry": { "type": "Point", "coordinates": [ 7.557927939530009, 51.644540054405589 ] } },
{ "type": "Feature", "properties": { "strassenschluessel": "05978000004002734", "bezeichnung": "Osterkamp" }, "geometry": { "type": "Point", "coordinates": [ 7.603762879264336, 51.661202433934086 ] } },
{ "type": "Feature", "properties": { "strassenschluessel": "05978000004002737", "bezeichnung": "Pagensstraße" }, "geometry": { "type": "Point", "coordinates": [ 7.61199049916248, 51.680484634123303 ] } },
{ "type": "Feature", "properties": { "strassenschluessel": "05978000004002738", "bezeichnung": "Penningrode" }, "geometry": { "type": "Point", "coordinates": [ 7.624957298734628, 51.667685925322012 ] } },
{ "type": "Feature", "properties": { "strassenschluessel": "05978000004002739", "bezeichnung": "Pater-Delp-Straße" }, "geometry": { "type": "Point", "coordinates": [ 7.641469477799515, 51.670898858163405 ] } },
{ "type": "Feature", "properties": { "strassenschluessel": "05978000004002740", "bezeichnung": "Paul-Gerhardt-Straße" }, "geometry": { "type": "Point", "coordinates": [ 7.615542146226503, 51.667130517604491 ] } },
{ "type": "Feature", "properties": { "strassenschluessel": "05978000004002747", "bezeichnung": "Repkestraße" }, "geometry": { "type": "Point", "coordinates": [ 7.639199753587622, 51.668016912955835 ] } },
{ "type": "Feature", "properties": { "strassenschluessel": "05978000004002748", "bezeichnung": "Rikbertshof" }, "geometry": { "type": "Point", "coordinates": [ 7.627310065687024, 51.657530982027701 ] } },
{ "type": "Feature", "properties": { "strassenschluessel": "05978000004002749", "bezeichnung": "Robert-Koch-Straße" }, "geometry": { "type": "Point", "coordinates": [ 7.623912565490973, 51.653924355441902 ] } },
{ "type": "Feature", "properties": { "strassenschluessel": "05978000004002750", "bezeichnung": "Roggenmarkt" }, "geometry": { "type": "Point", "coordinates": [ 7.633208614286478, 51.663168833060695 ] } },
{ "type": "Feature", "properties": { "strassenschluessel": "05978000004002751", "bezeichnung": "Rembrandtstraße" }, "geometry": { "type": "Point", "coordinates": [ 7.648662457442848, 51.667369604570787 ] } },
{ "type": "Feature", "properties": { "strassenschluessel": "05978000004002752", "bezeichnung": "Rubensstraße" }, "geometry": { "type": "Point", "coordinates": [ 7.651712255755488, 51.668417179576004 ] } },
{ "type": "Feature", "properties": { "strassenschluessel": "05978000004002753", "bezeichnung": "Rosendahler Weg" }, "geometry": { "type": "Point", "coordinates": [ 7.645930057548399, 51.681350081475316 ] } },
{ "type": "Feature", "properties": { "strassenschluessel": "05978000004002754", "bezeichnung": "Rohlfsweg" }, "geometry": { "type": "Point", "coordinates": [ 7.657111433482626, 51.669676276255309 ] } },
{ "type": "Feature", "properties": { "strassenschluessel": "05978000004002755", "bezeichnung": "St. Johannes" }, "geometry": { "type": "Point", "coordinates": [ 7.642640609388587, 51.668095478927931 ] } },
{ "type": "Feature", "properties": { "strassenschluessel": "05978000004002756", "bezeichnung": "Schemmelweg" }, "geometry": { "type": "Point", "coordinates": [ 7.649724811867728, 51.66255052274299 ] } },
{ "type": "Feature", "properties": { "strassenschluessel": "05978000004002757", "bezeichnung": "Schillerstraße" }, "geometry": { "type": "Point", "coordinates": [ 7.617007353831455, 51.666026146193694 ] } },
{ "type": "Feature", "properties": { "strassenschluessel": "05978000004002758", "bezeichnung": "Schlägelstraße" }, "geometry": { "type": "Point", "coordinates": [ 7.659977787020827, 51.665420571040393 ] } },
{ "type": "Feature", "properties": { "strassenschluessel": "05978000004002759", "bezeichnung": "Schlaunstraße" }, "geometry": { "type": "Point", "coordinates": [ 7.619686881848816, 51.654235908949552 ] } },
{ "type": "Feature", "properties": { "strassenschluessel": "05978000004002761", "bezeichnung": "Schlot" }, "geometry": { "type": "Point", "coordinates": [ 7.635464559021485, 51.66442382367778 ] } },
{ "type": "Feature", "properties": { "strassenschluessel": "05978000004002762", "bezeichnung": "Schlotkamp" }, "geometry": { "type": "Point", "coordinates": [ 7.628569047390751, 51.655981268446055 ] } },
{ "type": "Feature", "properties": { "strassenschluessel": "05978000004002763", "bezeichnung": "Schombergerweg" }, "geometry": { "type": "Point", "coordinates": [ 7.628740653951596, 51.675450578818626 ] } },
{ "type": "Feature", "properties": { "strassenschluessel": "05978000004002764", "bezeichnung": "Schulstraße" }, "geometry": { "type": "Point", "coordinates": [ 7.638026529470694, 51.663526878432869 ] } },
{ "type": "Feature", "properties": { "strassenschluessel": "05978000004002765", "bezeichnung": "Schürenkamp" }, "geometry": { "type": "Point", "coordinates": [ 7.627388362381364, 51.665561906899043 ] } },
{ "type": "Feature", "properties": { "strassenschluessel": "05978000004002766", "bezeichnung": "Kurt-Schumacher-Straße" }, "geometry": { "type": "Point", "coordinates": [ 7.637349459654389, 51.661495423644126 ] } },
{ "type": "Feature", "properties": { "strassenschluessel": "05978000004002767", "bezeichnung": "Schwalbenweg" }, "geometry": { "type": "Point", "coordinates": [ 7.622595276967736, 51.654731740909902 ] } },
{ "type": "Feature", "properties": { "strassenschluessel": "05978000004002768", "bezeichnung": "Schwietersstraße" }, "geometry": { "type": "Point", "coordinates": [ 7.642108066724377, 51.661862532293235 ] } },
{ "type": "Feature", "properties": { "strassenschluessel": "05978000004002769", "bezeichnung": "Am See" }, "geometry": { "type": "Point", "coordinates": [ 7.614416365144496, 51.674011757121214 ] } },
{ "type": "Feature", "properties": { "strassenschluessel": "05978000004002770", "bezeichnung": "Selmer Straße" }, "geometry": { "type": "Point", "coordinates": [ 7.625562055681296, 51.663907200569902 ] } },
{ "type": "Feature", "properties": { "strassenschluessel": "05978000004002771", "bezeichnung": "Sim-Jü" }, "geometry": { "type": "Point", "coordinates": [ 7.64052959010367, 51.661346019773163 ] } },
{ "type": "Feature", "properties": { "strassenschluessel": "05978000004002772", "bezeichnung": "Steinäcker" }, "geometry": { "type": "Point", "coordinates": [ 7.615453268271805, 51.664927544383019 ] } },
{ "type": "Feature", "properties": { "strassenschluessel": "05978000004002773", "bezeichnung": "Steinstraße" }, "geometry": { "type": "Point", "coordinates": [ 7.632863496551697, 51.661756271763075 ] } },
{ "type": "Feature", "properties": { "strassenschluessel": "05978000004002774", "bezeichnung": "Stemmenkamp" }, "geometry": { "type": "Point", "coordinates": [ 7.624851046877092, 51.672188678883408 ] } },
{ "type": "Feature", "properties": { "strassenschluessel": "05978000004002775", "bezeichnung": "Stettiner Straße" }, "geometry": { "type": "Point", "coordinates": [ 7.649935612963998, 51.663753349015451 ] } },
{ "type": "Feature", "properties": { "strassenschluessel": "05978000004002776", "bezeichnung": "Stockumer Straße" }, "geometry": { "type": "Point", "coordinates": [ 7.639456610631298, 51.662921213724061 ] } },
{ "type": "Feature", "properties": { "strassenschluessel": "05978000004002777", "bezeichnung": "Stollenweg" }, "geometry": { "type": "Point", "coordinates": [ 7.653431448757865, 51.662123194709309 ] } },
{ "type": "Feature", "properties": { "strassenschluessel": "05978000004002778", "bezeichnung": "Südmauer" }, "geometry": { "type": "Point", "coordinates": [ 7.633458980282987, 51.661474665293142 ] } },
{ "type": "Feature", "properties": { "strassenschluessel": "05978000004002779", "bezeichnung": "Südring" }, "geometry": { "type": "Point", "coordinates": [ 7.625371061103684, 51.653856453922231 ] } },
{ "type": "Feature", "properties": { "strassenschluessel": "05978000004002780", "bezeichnung": "Schottlandstraße" }, "geometry": { "type": "Point", "coordinates": [ 7.622632651982419, 51.658546216106615 ] } },
{ "type": "Feature", "properties": { "strassenschluessel": "05978000004002781", "bezeichnung": "Schieferkamp" }, "geometry": { "type": "Point", "coordinates": [ 7.572825579011775, 51.635021374225744 ] } },
{ "type": "Feature", "properties": { "strassenschluessel": "05978000004002782", "bezeichnung": "Schwannenweg" }, "geometry": { "type": "Point", "coordinates": [ 7.592831128100154, 51.697836321029868 ] } },
{ "type": "Feature", "properties": { "strassenschluessel": "05978000004002783", "bezeichnung": "Schwarte Riet" }, "geometry": { "type": "Point", "coordinates": [ 7.659299814519882, 51.693770474277628 ] } },
{ "type": "Feature", "properties": { "strassenschluessel": "05978000004002784", "bezeichnung": "Stiegenkamp" }, "geometry": { "type": "Point", "coordinates": [ 7.63442527964122, 51.682237678627104 ] } },
{ "type": "Feature", "properties": { "strassenschluessel": "05978000004002785", "bezeichnung": "Schwartekamp" }, "geometry": { "type": "Point", "coordinates": [ 7.672905784250276, 51.671960682470903 ] } },
{ "type": "Feature", "properties": { "strassenschluessel": "05978000004002786", "bezeichnung": "Südkirchener Straße" }, "geometry": { "type": "Point", "coordinates": [ 7.61033935514453, 51.67604553834849 ] } },
{ "type": "Feature", "properties": { "strassenschluessel": "05978000004002787", "bezeichnung": "Steinbahn" }, "geometry": { "type": "Point", "coordinates": [ 7.579579086164653, 51.68266468703716 ] } },
{ "type": "Feature", "properties": { "strassenschluessel": "05978000004002788", "bezeichnung": "Selmer Landstraße" }, "geometry": { "type": "Point", "coordinates": [ 7.601664487245528, 51.670705967388756 ] } },
{ "type": "Feature", "properties": { "strassenschluessel": "05978000004002789", "bezeichnung": "Am Stadtpark" }, "geometry": { "type": "Point", "coordinates": [ 7.636497034513936, 51.658369940436437 ] } },
{ "type": "Feature", "properties": { "strassenschluessel": "05978000004002795", "bezeichnung": "Taubenweg" }, "geometry": { "type": "Point", "coordinates": [ 7.6219959069143, 51.654820456569233 ] } },
{ "type": "Feature", "properties": { "strassenschluessel": "05978000004002796", "bezeichnung": "Tenhagenstraße" }, "geometry": { "type": "Point", "coordinates": [ 7.628517620839952, 51.665149433861224 ] } },
{ "type": "Feature", "properties": { "strassenschluessel": "05978000004002797", "bezeichnung": "Thünen" }, "geometry": { "type": "Point", "coordinates": [ 7.643202153324427, 51.667250807437696 ] } },
{ "type": "Feature", "properties": { "strassenschluessel": "05978000004002798", "bezeichnung": "Tigge" }, "geometry": { "type": "Point", "coordinates": [ 7.630318449657661, 51.655634153278363 ] } },
{ "type": "Feature", "properties": { "strassenschluessel": "05978000004002799", "bezeichnung": "Theodor-Fontane-Straße" }, "geometry": { "type": "Point", "coordinates": [ 7.613503306105488, 51.670766768654531 ] } },
{ "type": "Feature", "properties": { "strassenschluessel": "05978000004002800", "bezeichnung": "Maria Frieden" }, "geometry": { "type": "Point", "coordinates": [ 7.620884451131485, 51.66645512620876 ] } },
{ "type": "Feature", "properties": { "strassenschluessel": "05978000004002801", "bezeichnung": "An der Wallhecke" }, "geometry": { "type": "Point", "coordinates": [ 7.688366419925067, 51.670467102465267 ] } },
{ "type": "Feature", "properties": { "strassenschluessel": "05978000004002802", "bezeichnung": "Amazonstraße" }, "geometry": { "type": "Point", "coordinates": [ 7.595504226028664, 51.652927968384063 ] } },
{ "type": "Feature", "properties": { "strassenschluessel": "05978000004002803", "bezeichnung": "Konrad-Zuse-Straße" }, "geometry": null },
{ "type": "Feature", "properties": { "strassenschluessel": "05978000004002804", "bezeichnung": "Am Eikawäldchen" }, "geometry": { "type": "Point", "coordinates": [ 7.693750790560968, 51.669431220815326 ] } },
{ "type": "Feature", "properties": { "strassenschluessel": "05978000004002805", "bezeichnung": "Uhlandstraße" }, "geometry": { "type": "Point", "coordinates": [ 7.625601888778745, 51.660793325653358 ] } },
{ "type": "Feature", "properties": { "strassenschluessel": "05978000004002806", "bezeichnung": "Bernhard-Sickmann-Weg" }, "geometry": { "type": "Point", "coordinates": [ 7.638837463385595, 51.673404670307406 ] } },
{ "type": "Feature", "properties": { "strassenschluessel": "05978000004002807", "bezeichnung": "Nikolaus-Groß-Straße" }, "geometry": { "type": "Point", "coordinates": [ 7.639044300383138, 51.673886343235843 ] } },
{ "type": "Feature", "properties": { "strassenschluessel": "05978000004002808", "bezeichnung": "Pater-Venantius-Weg" }, "geometry": { "type": "Point", "coordinates": [ 7.639736441941232, 51.672844990171377 ] } },
{ "type": "Feature", "properties": { "strassenschluessel": "05978000004002809", "bezeichnung": "Bürgermeister-Ohm-Straße" }, "geometry": { "type": "Point", "coordinates": [ 7.642713547498726, 51.673836186706183 ] } },
{ "type": "Feature", "properties": { "strassenschluessel": "05978000004002810", "bezeichnung": "Vinckestraße" }, "geometry": { "type": "Point", "coordinates": [ 7.6206831556194, 51.654423123195805 ] } },
{ "type": "Feature", "properties": { "strassenschluessel": "05978000004002811", "bezeichnung": "Vinzenzstraße" }, "geometry": { "type": "Point", "coordinates": [ 7.63886286552802, 51.671343610153428 ] } },
{ "type": "Feature", "properties": { "strassenschluessel": "05978000004002812", "bezeichnung": "Varnhöveler Straße" }, "geometry": { "type": "Point", "coordinates": [ 7.552253451689904, 51.653780810135714 ] } },
{ "type": "Feature", "properties": { "strassenschluessel": "05978000004002815", "bezeichnung": "Wagenfeldstraße" }, "geometry": { "type": "Point", "coordinates": [ 7.623493490119809, 51.663655634901723 ] } },
{ "type": "Feature", "properties": { "strassenschluessel": "05978000004002816", "bezeichnung": "Waldstraße" }, "geometry": { "type": "Point", "coordinates": [ 7.652683034761172, 51.662800551079755 ] } },
{ "type": "Feature", "properties": { "strassenschluessel": "05978000004002817", "bezeichnung": "Westmauer" }, "geometry": { "type": "Point", "coordinates": [ 7.63277182348514, 51.662534555835023 ] } },
{ "type": "Feature", "properties": { "strassenschluessel": "05978000004002818", "bezeichnung": "Wibbeltstraße" }, "geometry": { "type": "Point", "coordinates": [ 7.622292588567685, 51.661878827303745 ] } },
{ "type": "Feature", "properties": { "strassenschluessel": "05978000004002819", "bezeichnung": "Wichernstraße" }, "geometry": { "type": "Point", "coordinates": [ 7.637317559892782, 51.659700318403814 ] } },
{ "type": "Feature", "properties": { "strassenschluessel": "05978000004002820", "bezeichnung": "Wiehagen" }, "geometry": { "type": "Point", "coordinates": [ 7.648997681730707, 51.667522702340712 ] } },
{ "type": "Feature", "properties": { "strassenschluessel": "05978000004002821", "bezeichnung": "Wienbrede" }, "geometry": { "type": "Point", "coordinates": [ 7.638894037449711, 51.664762274917976 ] } },
{ "type": "Feature", "properties": { "strassenschluessel": "05978000004002822", "bezeichnung": "Windmühlenberg" }, "geometry": { "type": "Point", "coordinates": [ 7.619578430443701, 51.665867544501822 ] } },
{ "type": "Feature", "properties": { "strassenschluessel": "05978000004002823", "bezeichnung": "Wahrbrink" }, "geometry": { "type": "Point", "coordinates": [ 7.61100209483015, 51.661013736242246 ] } },
{ "type": "Feature", "properties": { "strassenschluessel": "05978000004002824", "bezeichnung": "Werenboldweg" }, "geometry": { "type": "Point", "coordinates": [ 7.635607688272689, 51.698379826112564 ] } },
{ "type": "Feature", "properties": { "strassenschluessel": "05978000004002825", "bezeichnung": "Wesseler Straße" }, "geometry": { "type": "Point", "coordinates": [ 7.659111707663023, 51.697666581609859 ] } },
{ "type": "Feature", "properties": { "strassenschluessel": "05978000004002828", "bezeichnung": "Zumlohstraße" }, "geometry": { "type": "Point", "coordinates": [ 7.621947564521387, 51.655936643278451 ] } },
{ "type": "Feature", "properties": { "strassenschluessel": "05978000004002829", "bezeichnung": "Zollstraße" }, "geometry": { "type": "Point", "coordinates": [ 7.617427347469427, 51.690641628393777 ] } },
{ "type": "Feature", "properties": { "strassenschluessel": "05978000004002830", "bezeichnung": "Hohefeldweg" }, "geometry": { "type": "Point", "coordinates": [ 7.628060735755307, 51.708903182334737 ] } },
{ "type": "Feature", "properties": { "strassenschluessel": "05978000004002831", "bezeichnung": "Hagenrain" }, "geometry": { "type": "Point", "coordinates": [ 7.666211776972888, 51.673468589523324 ] } },
{ "type": "Feature", "properties": { "strassenschluessel": "05978000004002832", "bezeichnung": "Husemanns Weg" }, "geometry": { "type": "Point", "coordinates": [ 7.673181356218818, 51.681740134263691 ] } },
{ "type": "Feature", "properties": { "strassenschluessel": "05978000004002833", "bezeichnung": "An der Wiebecke" }, "geometry": { "type": "Point", "coordinates": [ 7.660143441360459, 51.668051435651677 ] } },
{ "type": "Feature", "properties": { "strassenschluessel": "05978000004002834", "bezeichnung": "Grote Dahlweg" }, "geometry": { "type": "Point", "coordinates": [ 7.655648729221079, 51.668846122414898 ] } },
{ "type": "Feature", "properties": { "strassenschluessel": "05978000004002835", "bezeichnung": "August-Macke-Straße" }, "geometry": { "type": "Point", "coordinates": [ 7.652513761117286, 51.670048308517472 ] } },
{ "type": "Feature", "properties": { "strassenschluessel": "05978000004002836", "bezeichnung": "Am Funnhof" }, "geometry": { "type": "Point", "coordinates": [ 7.569483915369185, 51.686504971551422 ] } },
{ "type": "Feature", "properties": { "strassenschluessel": "05978000004002837", "bezeichnung": "Ronnenheideweg" }, "geometry": { "type": "Point", "coordinates": [ 7.607616254435305, 51.682106209652062 ] } },
{ "type": "Feature", "properties": { "strassenschluessel": "05978000004002838", "bezeichnung": "Halohweg" }, "geometry": { "type": "Point", "coordinates": [ 7.646189085936557, 51.673469869697762 ] } },
{ "type": "Feature", "properties": { "strassenschluessel": "05978000004002839", "bezeichnung": "Am Wellbusch" }, "geometry": null },
{ "type": "Feature", "properties": { "strassenschluessel": "05978000004002840", "bezeichnung": "An der Nordbecke" }, "geometry": null },
{ "type": "Feature", "properties": { "strassenschluessel": "05978000004002841", "bezeichnung": "Am Funnenkamp" }, "geometry": { "type": "Point", "coordinates": [ 7.57735430796285, 51.662673699462381 ] } },
{ "type": "Feature", "properties": { "strassenschluessel": "05978000004002842", "bezeichnung": "Am Gutshof" }, "geometry": { "type": "Point", "coordinates": [ 7.603181355574205, 51.678349782361337 ] } },
{ "type": "Feature", "properties": { "strassenschluessel": "05978000004002843", "bezeichnung": "Am Kohuesholz" }, "geometry": { "type": "Point", "coordinates": [ 7.570349133402386, 51.67289431574487 ] } },
{ "type": "Feature", "properties": { "strassenschluessel": "05978000004002844", "bezeichnung": "Am Nierstenholz" }, "geometry": { "type": "Point", "coordinates": [ 7.578511073119991, 51.671180949865771 ] } },
{ "type": "Feature", "properties": { "strassenschluessel": "05978000004002845", "bezeichnung": "Am Reiterhof" }, "geometry": { "type": "Point", "coordinates": [ 7.582855637919896, 51.675596589654759 ] } },
{ "type": "Feature", "properties": { "strassenschluessel": "05978000004002846", "bezeichnung": "Am Romberg" }, "geometry": { "type": "Point", "coordinates": [ 7.589524274942809, 51.652796412162949 ] } },
{ "type": "Feature", "properties": { "strassenschluessel": "05978000004002847", "bezeichnung": "Funnenstraße" }, "geometry": { "type": "Point", "coordinates": [ 7.576021475948963, 51.669976205383392 ] } },
{ "type": "Feature", "properties": { "strassenschluessel": "05978000004002848", "bezeichnung": "Heinrich-Brauns-Straße" }, "geometry": { "type": "Point", "coordinates": [ 7.655711127158087, 51.662976319882205 ] } },
{ "type": "Feature", "properties": { "strassenschluessel": "05978000004002850", "bezeichnung": "Ahlener Weg" }, "geometry": { "type": "Point", "coordinates": [ 7.695644793235782, 51.698731276262599 ] } },
{ "type": "Feature", "properties": { "strassenschluessel": "05978000004002851", "bezeichnung": "Ahornweg" }, "geometry": { "type": "Point", "coordinates": [ 7.685124061589954, 51.672909538588257 ] } },
{ "type": "Feature", "properties": { "strassenschluessel": "05978000004002852", "bezeichnung": "Akazienweg" }, "geometry": { "type": "Point", "coordinates": [ 7.683165111711392, 51.673643881570818 ] } },
{ "type": "Feature", "properties": { "strassenschluessel": "05978000004002853", "bezeichnung": "Alte Herberner Straße" }, "geometry": { "type": "Point", "coordinates": [ 7.694533251401684, 51.699149374162403 ] } },
{ "type": "Feature", "properties": { "strassenschluessel": "05978000004002854", "bezeichnung": "Am Mühlengraben" }, "geometry": { "type": "Point", "coordinates": [ 7.703034818815691, 51.672440937740646 ] } },
{ "type": "Feature", "properties": { "strassenschluessel": "05978000004002855", "bezeichnung": "Amtshof" }, "geometry": { "type": "Point", "coordinates": [ 7.689283457367124, 51.669770973377148 ] } },
{ "type": "Feature", "properties": { "strassenschluessel": "05978000004002856", "bezeichnung": "Anbiet" }, "geometry": { "type": "Point", "coordinates": [ 7.696589421945906, 51.698222241688796 ] } },
{ "type": "Feature", "properties": { "strassenschluessel": "05978000004002857", "bezeichnung": "Auf der Heide" }, "geometry": { "type": "Point", "coordinates": [ 7.680737738735095, 51.715760988597445 ] } },
{ "type": "Feature", "properties": { "strassenschluessel": "05978000004002858", "bezeichnung": "Am Mergelkamp" }, "geometry": { "type": "Point", "coordinates": [ 7.689620197556501, 51.695977877747971 ] } },
{ "type": "Feature", "properties": { "strassenschluessel": "05978000004002859", "bezeichnung": "Alte Bockumer Straße" }, "geometry": { "type": "Point", "coordinates": [ 7.718178448876701, 51.682820669157479 ] } },
{ "type": "Feature", "properties": { "strassenschluessel": "05978000004002859", "bezeichnung": "Alte Bockumer Straße" }, "geometry": { "type": "Point", "coordinates": [ 7.718178448876701, 51.682820669157479 ] } },
{ "type": "Feature", "properties": { "strassenschluessel": "05978000004002860", "bezeichnung": "Birkenstraße" }, "geometry": { "type": "Point", "coordinates": [ 7.682323148097843, 51.673521345886776 ] } },
{ "type": "Feature", "properties": { "strassenschluessel": "05978000004002861", "bezeichnung": "Blasum" }, "geometry": { "type": "Point", "coordinates": [ 7.709378252121673, 51.683637311139051 ] } },
{ "type": "Feature", "properties": { "strassenschluessel": "05978000004002862", "bezeichnung": "Blekamp" }, "geometry": { "type": "Point", "coordinates": [ 7.701969150977989, 51.672002899317889 ] } },
{ "type": "Feature", "properties": { "strassenschluessel": "05978000004002863", "bezeichnung": "Bockumer Straße" }, "geometry": { "type": "Point", "coordinates": [ 7.697653799312485, 51.697603305666121 ] } },
{ "type": "Feature", "properties": { "strassenschluessel": "05978000004002864", "bezeichnung": "Bodelschwinghstraße" }, "geometry": { "type": "Point", "coordinates": [ 7.691590302063209, 51.669588189309415 ] } },
{ "type": "Feature", "properties": { "strassenschluessel": "05978000004002865", "bezeichnung": "Boymerstraße" }, "geometry": { "type": "Point", "coordinates": [ 7.699865384056682, 51.670145936533473 ] } },
{ "type": "Feature", "properties": { "strassenschluessel": "05978000004002866", "bezeichnung": "Buchenstraße" }, "geometry": { "type": "Point", "coordinates": [ 7.684955673540203, 51.673258206628262 ] } },
{ "type": "Feature", "properties": { "strassenschluessel": "05978000004002867", "bezeichnung": "Buschkämpken" }, "geometry": { "type": "Point", "coordinates": [ 7.696988644524642, 51.709134177187394 ] } },
{ "type": "Feature", "properties": { "strassenschluessel": "05978000004002868", "bezeichnung": "Brahmsweg" }, "geometry": { "type": "Point", "coordinates": [ 7.693412477618495, 51.672138375318013 ] } },
{ "type": "Feature", "properties": { "strassenschluessel": "05978000004002869", "bezeichnung": "Brucknerstraße" }, "geometry": { "type": "Point", "coordinates": [ 7.690328543339528, 51.671613512360324 ] } },
{ "type": "Feature", "properties": { "strassenschluessel": "05978000004002870", "bezeichnung": "Claudiusstraße" }, "geometry": { "type": "Point", "coordinates": [ 7.686932784517444, 51.673551031755771 ] } },
{ "type": "Feature", "properties": { "strassenschluessel": "05978000004002871", "bezeichnung": "Dahlbuschweg" }, "geometry": { "type": "Point", "coordinates": [ 7.685668865249249, 51.684571153103406 ] } },
{ "type": "Feature", "properties": { "strassenschluessel": "05978000004002872", "bezeichnung": "Dornheideweg" }, "geometry": { "type": "Point", "coordinates": [ 7.714694747126279, 51.687433414238114 ] } },
{ "type": "Feature", "properties": { "strassenschluessel": "05978000004002875", "bezeichnung": "Eibenweg" }, "geometry": { "type": "Point", "coordinates": [ 7.682064463280432, 51.672064867154525 ] } },
{ "type": "Feature", "properties": { "strassenschluessel": "05978000004002876", "bezeichnung": "Eichenweg" }, "geometry": { "type": "Point", "coordinates": [ 7.68439199639763, 51.672791781865129 ] } },
{ "type": "Feature", "properties": { "strassenschluessel": "05978000004002877", "bezeichnung": "Espenweg" }, "geometry": { "type": "Point", "coordinates": [ 7.682693015882266, 51.670742207370239 ] } },
{ "type": "Feature", "properties": { "strassenschluessel": "05978000004002878", "bezeichnung": "Eckern" }, "geometry": { "type": "Point", "coordinates": [ 7.69743986013169, 51.698377299396498 ] } },
{ "type": "Feature", "properties": { "strassenschluessel": "05978000004002881", "bezeichnung": "Feldstraße" }, "geometry": { "type": "Point", "coordinates": [ 7.695787728766497, 51.674679342722143 ] } },
{ "type": "Feature", "properties": { "strassenschluessel": "05978000004002882", "bezeichnung": "Fichtenweg" }, "geometry": { "type": "Point", "coordinates": [ 7.683210928204144, 51.672920853417565 ] } },
{ "type": "Feature", "properties": { "strassenschluessel": "05978000004002883", "bezeichnung": "Forstbaum" }, "geometry": { "type": "Point", "coordinates": [ 7.683200463707871, 51.668267550270961 ] } },
{ "type": "Feature", "properties": { "strassenschluessel": "05978000004002884", "bezeichnung": "Forstbrede" }, "geometry": { "type": "Point", "coordinates": [ 7.684138101450368, 51.670761158694511 ] } },
{ "type": "Feature", "properties": { "strassenschluessel": "05978000004002885", "bezeichnung": "Forstweide" }, "geometry": { "type": "Point", "coordinates": [ 7.687073021947753, 51.66883240738705 ] } },
{ "type": "Feature", "properties": { "strassenschluessel": "05978000004002886", "bezeichnung": "Freiligrathstraße" }, "geometry": { "type": "Point", "coordinates": [ 7.689945212467367, 51.67297554496345 ] } },
{ "type": "Feature", "properties": { "strassenschluessel": "05978000004002887", "bezeichnung": "Frienweg" }, "geometry": { "type": "Point", "coordinates": [ 7.683277443190741, 51.716234733092016 ] } },
{ "type": "Feature", "properties": { "strassenschluessel": "05978000004002888", "bezeichnung": "Föspelweg" }, "geometry": { "type": "Point", "coordinates": [ 7.681888916613837, 51.698816981868134 ] } },
{ "type": "Feature", "properties": { "strassenschluessel": "05978000004002889", "bezeichnung": "Forstkamp" }, "geometry": { "type": "Point", "coordinates": [ 7.684567511492696, 51.669366812214058 ] } },
{ "type": "Feature", "properties": { "strassenschluessel": "05978000004002890", "bezeichnung": "Geiststraße" }, "geometry": { "type": "Point", "coordinates": [ 7.693115834572759, 51.671760495022447 ] } },
{ "type": "Feature", "properties": { "strassenschluessel": "05978000004002891", "bezeichnung": "Graf-Von-Westerholt-Straße" }, "geometry": { "type": "Point", "coordinates": [ 7.688461371488688, 51.669913940494034 ] } },
{ "type": "Feature", "properties": { "strassenschluessel": "05978000004002892", "bezeichnung": "Ginsterweg" }, "geometry": { "type": "Point", "coordinates": [ 7.682139262551234, 51.671779796554517 ] } },
{ "type": "Feature", "properties": { "strassenschluessel": "05978000004002893", "bezeichnung": "Gottesort" }, "geometry": { "type": "Point", "coordinates": [ 7.689275201497395, 51.722503498979115 ] } },
{ "type": "Feature", "properties": { "strassenschluessel": "05978000004002894", "bezeichnung": "Horster Höhe" }, "geometry": { "type": "Point", "coordinates": [ 7.69344876488455, 51.700931375138836 ] } },
{ "type": "Feature", "properties": { "strassenschluessel": "05978000004002896", "bezeichnung": "Im Hanloh" }, "geometry": { "type": "Point", "coordinates": [ 7.699887169630079, 51.712091519639372 ] } },
{ "type": "Feature", "properties": { "strassenschluessel": "05978000004002897", "bezeichnung": "Hammer Straße" }, "geometry": { "type": "Point", "coordinates": [ 7.707994690734797, 51.673583752068645 ] } },
{ "type": "Feature", "properties": { "strassenschluessel": "05978000004002898", "bezeichnung": "Hellstraße" }, "geometry": { "type": "Point", "coordinates": [ 7.692762756568596, 51.697808802185506 ] } },
{ "type": "Feature", "properties": { "strassenschluessel": "05978000004002899", "bezeichnung": "Herrenkampweg" }, "geometry": { "type": "Point", "coordinates": [ 7.694837536185386, 51.687755993384364 ] } },
{ "type": "Feature", "properties": { "strassenschluessel": "05978000004002900", "bezeichnung": "Homannshof" }, "geometry": { "type": "Point", "coordinates": [ 7.690235563778101, 51.669455859929627 ] } },
{ "type": "Feature", "properties": { "strassenschluessel": "05978000004002901", "bezeichnung": "Hugenpoth" }, "geometry": { "type": "Point", "coordinates": [ 7.690536849671989, 51.669180961919437 ] } },
{ "type": "Feature", "properties": { "strassenschluessel": "05978000004002902", "bezeichnung": "Heinrich-Heine-Straße" }, "geometry": { "type": "Point", "coordinates": [ 7.68654274222997, 51.67284530307515 ] } },
{ "type": "Feature", "properties": { "strassenschluessel": "05978000004002903", "bezeichnung": "Herberner Straße" }, "geometry": { "type": "Point", "coordinates": [ 7.701730374496336, 51.700889048940439 ] } },
{ "type": "Feature", "properties": { "strassenschluessel": "05978000004002903", "bezeichnung": "Herberner Straße" }, "geometry": { "type": "Point", "coordinates": [ 7.701730374496336, 51.700889048940439 ] } },
{ "type": "Feature", "properties": { "strassenschluessel": "05978000004002906", "bezeichnung": "Im Ostfeld" }, "geometry": { "type": "Point", "coordinates": [ 7.700826691745556, 51.674247311309152 ] } },
{ "type": "Feature", "properties": { "strassenschluessel": "05978000004002907", "bezeichnung": "In der Dille" }, "geometry": { "type": "Point", "coordinates": [ 7.682853074244224, 51.667431416730977 ] } },
{ "type": "Feature", "properties": { "strassenschluessel": "05978000004002908", "bezeichnung": "In der Eika" }, "geometry": { "type": "Point", "coordinates": [ 7.695319215011902, 51.670442864568074 ] } },
{ "type": "Feature", "properties": { "strassenschluessel": "05978000004002913", "bezeichnung": "Kampstraße" }, "geometry": { "type": "Point", "coordinates": [ 7.691903895231106, 51.673875517296473 ] } },
{ "type": "Feature", "properties": { "strassenschluessel": "05978000004002914", "bezeichnung": "Karl-Gerstein-Straße" }, "geometry": { "type": "Point", "coordinates": [ 7.702571526405207, 51.67335647474993 ] } },
{ "type": "Feature", "properties": { "strassenschluessel": "05978000004002915", "bezeichnung": "Kiefernweg" }, "geometry": { "type": "Point", "coordinates": [ 7.681729679179957, 51.6730895888969 ] } },
{ "type": "Feature", "properties": { "strassenschluessel": "05978000004002916", "bezeichnung": "Kirchstraße" }, "geometry": { "type": "Point", "coordinates": [ 7.698016296953564, 51.670879826971898 ] } },
{ "type": "Feature", "properties": { "strassenschluessel": "05978000004002917", "bezeichnung": "Kiwitzheidweg" }, "geometry": { "type": "Point", "coordinates": [ 7.692851321239833, 51.684720514624793 ] } },
{ "type": "Feature", "properties": { "strassenschluessel": "05978000004002918", "bezeichnung": "Knüvenstraße" }, "geometry": { "type": "Point", "coordinates": [ 7.680578329798872, 51.6804527920428 ] } },
{ "type": "Feature", "properties": { "strassenschluessel": "05978000004002919", "bezeichnung": "Kastanienstraße" }, "geometry": { "type": "Point", "coordinates": [ 7.683708671408139, 51.670409254928011 ] } },
{ "type": "Feature", "properties": { "strassenschluessel": "05978000004002920", "bezeichnung": "Katharinenweg" }, "geometry": null },
{ "type": "Feature", "properties": { "strassenschluessel": "05978000004002923", "bezeichnung": "Langenhövel" }, "geometry": { "type": "Point", "coordinates": [ 7.686233071203621, 51.669755144115449 ] } },
{ "type": "Feature", "properties": { "strassenschluessel": "05978000004002924", "bezeichnung": "Lindenstraße" }, "geometry": { "type": "Point", "coordinates": [ 7.696175958057276, 51.671645401437225 ] } },
{ "type": "Feature", "properties": { "strassenschluessel": "05978000004002925", "bezeichnung": "Lohwall" }, "geometry": { "type": "Point", "coordinates": [ 7.701019642768099, 51.675235866826235 ] } },
{ "type": "Feature", "properties": { "strassenschluessel": "05978000004002926", "bezeichnung": "Löckemannweg" }, "geometry": { "type": "Point", "coordinates": [ 7.686998281541648, 51.697783016633053 ] } },
{ "type": "Feature", "properties": { "strassenschluessel": "05978000004002930", "bezeichnung": "Marienstraße" }, "geometry": { "type": "Point", "coordinates": [ 7.695237666585555, 51.699531670276883 ] } },
{ "type": "Feature", "properties": { "strassenschluessel": "05978000004002931", "bezeichnung": "Mühlenstraße" }, "geometry": { "type": "Point", "coordinates": [ 7.696770793462435, 51.693118347536526 ] } },
{ "type": "Feature", "properties": { "strassenschluessel": "05978000004002938", "bezeichnung": "Nordbecker Damm" }, "geometry": { "type": "Point", "coordinates": [ 7.679568021325202, 51.714141976025019 ] } },
{ "type": "Feature", "properties": { "strassenschluessel": "05978000004002939", "bezeichnung": "Nordbecker Weg" }, "geometry": { "type": "Point", "coordinates": [ 7.687924591215065, 51.705168151092238 ] } },
{ "type": "Feature", "properties": { "strassenschluessel": "05978000004002940", "bezeichnung": "Nußweg" }, "geometry": { "type": "Point", "coordinates": [ 7.682757980106239, 51.671126948830853 ] } },
{ "type": "Feature", "properties": { "strassenschluessel": "05978000004002942", "bezeichnung": "Neue Kampstraße" }, "geometry": { "type": "Point", "coordinates": [ 7.687281529094966, 51.674649059084508 ] } },
{ "type": "Feature", "properties": { "strassenschluessel": "05978000004002943", "bezeichnung": "Nordlippestraße" }, "geometry": { "type": "Point", "coordinates": [ 7.671189334987344, 51.697517724790757 ] } },
{ "type": "Feature", "properties": { "strassenschluessel": "05978000004002945", "bezeichnung": "Ostbrenningen" }, "geometry": { "type": "Point", "coordinates": [ 7.686159640549254, 51.695895756930753 ] } },
{ "type": "Feature", "properties": { "strassenschluessel": "05978000004002946", "bezeichnung": "Ostholtweg" }, "geometry": null },
{ "type": "Feature", "properties": { "strassenschluessel": "05978000004002950", "bezeichnung": "Pferdekamp" }, "geometry": { "type": "Point", "coordinates": [ 7.687179976477408, 51.670002303460812 ] } },
{ "type": "Feature", "properties": { "strassenschluessel": "05978000004002951", "bezeichnung": "Plas" }, "geometry": { "type": "Point", "coordinates": [ 7.694614440994056, 51.700055640785322 ] } },
{ "type": "Feature", "properties": { "strassenschluessel": "05978000004002952", "bezeichnung": "Platanenweg" }, "geometry": { "type": "Point", "coordinates": [ 7.682191550989429, 51.673771591639543 ] } },
{ "type": "Feature", "properties": { "strassenschluessel": "05978000004002953", "bezeichnung": "Pappelweg" }, "geometry": { "type": "Point", "coordinates": [ 7.683194382858739, 51.670091466968877 ] } },
{ "type": "Feature", "properties": { "strassenschluessel": "05978000004002954", "bezeichnung": "Panhoffweg" }, "geometry": { "type": "Point", "coordinates": [ 7.698190820696746, 51.673690303668216 ] } },
{ "type": "Feature", "properties": { "strassenschluessel": "05978000004002957", "bezeichnung": "Roggenkamp" }, "geometry": { "type": "Point", "coordinates": [ 7.68497066542841, 51.668728398236276 ] } },
{ "type": "Feature", "properties": { "strassenschluessel": "05978000004002958", "bezeichnung": "Rietbergweg" }, "geometry": { "type": "Point", "coordinates": [ 7.671783192193138, 51.7056743356775 ] } },
{ "type": "Feature", "properties": { "strassenschluessel": "05978000004002961", "bezeichnung": "Sandbochumer Weg" }, "geometry": { "type": "Point", "coordinates": [ 7.704281699150681, 51.671540250826808 ] } },
{ "type": "Feature", "properties": { "strassenschluessel": "05978000004002962", "bezeichnung": "Sophienstraße" }, "geometry": { "type": "Point", "coordinates": [ 7.695300158532924, 51.67069388038572 ] } },
{ "type": "Feature", "properties": { "strassenschluessel": "05978000004002963", "bezeichnung": "Südbrenningen" }, "geometry": { "type": "Point", "coordinates": [ 7.679662780216257, 51.69364583804667 ] } },
{ "type": "Feature", "properties": { "strassenschluessel": "05978000004002964", "bezeichnung": "Sandweg" }, "geometry": { "type": "Point", "coordinates": [ 7.678337859095703, 51.724824060939525 ] } },
{ "type": "Feature", "properties": { "strassenschluessel": "05978000004002965", "bezeichnung": "Schubertstraße" }, "geometry": { "type": "Point", "coordinates": [ 7.689806020485466, 51.67087587010721 ] } },
{ "type": "Feature", "properties": { "strassenschluessel": "05978000004002968", "bezeichnung": "Tannenweg" }, "geometry": { "type": "Point", "coordinates": [ 7.685159611967395, 51.673655059113678 ] } },
{ "type": "Feature", "properties": { "strassenschluessel": "05978000004002969", "bezeichnung": "Temmenhof" }, "geometry": { "type": "Point", "coordinates": [ 7.68604164041539, 51.669224659005614 ] } },
{ "type": "Feature", "properties": { "strassenschluessel": "05978000004002974", "bezeichnung": "Ulmenweg" }, "geometry": { "type": "Point", "coordinates": [ 7.684331278545812, 51.673890446372539 ] } },
{ "type": "Feature", "properties": { "strassenschluessel": "05978000004002975", "bezeichnung": "Uhlenbusch" }, "geometry": { "type": "Point", "coordinates": [ 7.668321422394722, 51.719758721688031 ] } },
{ "type": "Feature", "properties": { "strassenschluessel": "05978000004002976", "bezeichnung": "Von-Eichendorff-Straße" }, "geometry": { "type": "Point", "coordinates": [ 7.688126027132903, 51.67415150794583 ] } },
{ "type": "Feature", "properties": { "strassenschluessel": "05978000004002979", "bezeichnung": "Wellingholt" }, "geometry": null },
{ "type": "Feature", "properties": { "strassenschluessel": "05978000004002980", "bezeichnung": "Werner Straße" }, "geometry": { "type": "Point", "coordinates": [ 7.69272027744839, 51.672844304691488 ] } },
{ "type": "Feature", "properties": { "strassenschluessel": "05978000004002982", "bezeichnung": "Westbrenningen" }, "geometry": { "type": "Point", "coordinates": [ 7.678095344254257, 51.694339897851378 ] } },
{ "type": "Feature", "properties": { "strassenschluessel": "05978000004002983", "bezeichnung": "Weckermannweg" }, "geometry": { "type": "Point", "coordinates": [ 7.698547314140996, 51.671628487506226 ] } },
{ "type": "Feature", "properties": { "strassenschluessel": "05978000004002984", "bezeichnung": "Wulbern" }, "geometry": { "type": "Point", "coordinates": [ 7.682878527070535, 51.668851748141265 ] } },
{ "type": "Feature", "properties": { "strassenschluessel": "05978000004002985", "bezeichnung": "Weidenweg" }, "geometry": { "type": "Point", "coordinates": [ 7.682451371015572, 51.671439677642887 ] } },
{ "type": "Feature", "properties": { "strassenschluessel": "05978000004002986", "bezeichnung": "Wesseler Riege" }, "geometry": { "type": "Point", "coordinates": [ 7.681962184249748, 51.723686919381393 ] } },
{ "type": "Feature", "properties": { "strassenschluessel": "05978000004002987", "bezeichnung": "Wesseler Straße" }, "geometry": { "type": "Point", "coordinates": [ 7.674356417459364, 51.714600199109917 ] } },
{ "type": "Feature", "properties": { "strassenschluessel": "05978000004002988", "bezeichnung": "Wehrenbrock" }, "geometry": { "type": "Point", "coordinates": [ 7.685319585373776, 51.72186536137913 ] } },
{ "type": "Feature", "properties": { "strassenschluessel": "05978000004002989", "bezeichnung": "Waterfohr" }, "geometry": null },
{ "type": "Feature", "properties": { "strassenschluessel": "05978000004002990", "bezeichnung": "Zedernweg" }, "geometry": { "type": "Point", "coordinates": [ 7.682545579834176, 51.670366413959115 ] } },
{ "type": "Feature", "properties": { "strassenschluessel": "05978000004002993", "bezeichnung": "Werthweg" }, "geometry": { "type": "Point", "coordinates": [ 7.701342868451379, 51.670260278050357 ] } },
{ "type": "Feature", "properties": { "strassenschluessel": "05978000004002994", "bezeichnung": "Wagnerweg" }, "geometry": { "type": "Point", "coordinates": [ 7.693228473574791, 51.672409361228446 ] } },
{ "type": "Feature", "properties": { "strassenschluessel": "05978000004002995", "bezeichnung": "Am Schacht" }, "geometry": { "type": "Point", "coordinates": [ 7.69933168802938, 51.678142972422478 ] } },
{ "type": "Feature", "properties": { "strassenschluessel": "05978000004002996", "bezeichnung": "Bürgermeister-Berger-Straße" }, "geometry": { "type": "Point", "coordinates": [ 7.684263719184049, 51.671828505786998 ] } },
{ "type": "Feature", "properties": { "strassenschluessel": "05978000004002998", "bezeichnung": "Anna-Beul-Straße" }, "geometry": { "type": "Point", "coordinates": [ 7.617285044073804, 51.663104914261837 ] } },
{ "type": "Feature", "properties": { "strassenschluessel": "059780000040=2000", "bezeichnung": "Lünen - Münster" }, "geometry": null }
]
}
