{
"type": "FeatureCollection",
"features": [
{ "type": "Feature", "properties": { "strassenschluessel": "05362000004000001", "bezeichnung": "Ahrstraße" }, "geometry": { "type": "Point", "coordinates": [ 6.989562356879117, 50.811408275991376 ] } },
{ "type": "Feature", "properties": { "strassenschluessel": "05362000004000004", "bezeichnung": "Am Kronenbusch" }, "geometry": null },
{ "type": "Feature", "properties": { "strassenschluessel": "05362000004000005", "bezeichnung": "Am Markt" }, "geometry": { "type": "Point", "coordinates": [ 6.98073631569028, 50.827213500628389 ] } },
{ "type": "Feature", "properties": { "strassenschluessel": "05362000004000006", "bezeichnung": "Am Neuen Garten" }, "geometry": { "type": "Point", "coordinates": [ 6.978887467946227, 50.824869787216514 ] } },
{ "type": "Feature", "properties": { "strassenschluessel": "05362000004000007", "bezeichnung": "Am Schulpfad" }, "geometry": null },
{ "type": "Feature", "properties": { "strassenschluessel": "05362000004000008", "bezeichnung": "Am Walde" }, "geometry": { "type": "Point", "coordinates": [ 6.982048818365305, 50.816638840094804 ] } },
{ "type": "Feature", "properties": { "strassenschluessel": "05362000004000009", "bezeichnung": "An St. Germanus" }, "geometry": { "type": "Point", "coordinates": [ 6.982939755323303, 50.825149851720845 ] } },
{ "type": "Feature", "properties": { "strassenschluessel": "05362000004000010", "bezeichnung": "Antoniusstraße" }, "geometry": { "type": "Point", "coordinates": [ 6.968510638869833, 50.824219764855272 ] } },
{ "type": "Feature", "properties": { "strassenschluessel": "05362000004000011", "bezeichnung": "Asbergweg" }, "geometry": { "type": "Point", "coordinates": [ 6.984116349440925, 50.814494516352468 ] } },
{ "type": "Feature", "properties": { "strassenschluessel": "05362000004000012", "bezeichnung": "Auf dem Mühlenberg" }, "geometry": { "type": "Point", "coordinates": [ 6.967013862002281, 50.826097507803404 ] } },
{ "type": "Feature", "properties": { "strassenschluessel": "05362000004000013", "bezeichnung": "Auf dem Rheinberg" }, "geometry": { "type": "Point", "coordinates": [ 6.980124403541357, 50.828965294798159 ] } },
{ "type": "Feature", "properties": { "strassenschluessel": "05362000004000014", "bezeichnung": "Auf dem Sonnenberg" }, "geometry": { "type": "Point", "coordinates": [ 6.986610232903366, 50.82354476633639 ] } },
{ "type": "Feature", "properties": { "strassenschluessel": "05362000004000016", "bezeichnung": "Balderichstraße" }, "geometry": { "type": "Point", "coordinates": [ 6.977752874697059, 50.826398052314822 ] } },
{ "type": "Feature", "properties": { "strassenschluessel": "05362000004000017", "bezeichnung": "Bahnhofstraße" }, "geometry": { "type": "Point", "coordinates": [ 6.979726927202603, 50.823880602335038 ] } },
{ "type": "Feature", "properties": { "strassenschluessel": "05362000004000018", "bezeichnung": "Berzdorfer Straße" }, "geometry": { "type": "Point", "coordinates": [ 6.973929322451116, 50.825174237889335 ] } },
{ "type": "Feature", "properties": { "strassenschluessel": "05362000004000019", "bezeichnung": "Birkenstraße" }, "geometry": { "type": "Point", "coordinates": [ 6.980662341412351, 50.819423603751751 ] } },
{ "type": "Feature", "properties": { "strassenschluessel": "05362000004000020", "bezeichnung": "Bogenstraße" }, "geometry": { "type": "Point", "coordinates": [ 6.973523753617157, 50.824236422218831 ] } },
{ "type": "Feature", "properties": { "strassenschluessel": "05362000004000021", "bezeichnung": "Bonner Straße" }, "geometry": { "type": "Point", "coordinates": [ 6.985336883508594, 50.823194088324833 ] } },
{ "type": "Feature", "properties": { "strassenschluessel": "05362000004000022", "bezeichnung": "Bunsenstraße" }, "geometry": { "type": "Point", "coordinates": [ 7.000237403441502, 50.812941039583023 ] } },
{ "type": "Feature", "properties": { "strassenschluessel": "05362000004000024", "bezeichnung": "Dieselstraße" }, "geometry": { "type": "Point", "coordinates": [ 6.997077145485163, 50.815696007422986 ] } },
{ "type": "Feature", "properties": { "strassenschluessel": "05362000004000026", "bezeichnung": "Drachenfelsweg" }, "geometry": { "type": "Point", "coordinates": [ 6.988303123222932, 50.81230971489942 ] } },
{ "type": "Feature", "properties": { "strassenschluessel": "05362000004000027", "bezeichnung": "Dreilindenstraße" }, "geometry": { "type": "Point", "coordinates": [ 6.98165244233437, 50.823184793734981 ] } },
{ "type": "Feature", "properties": { "strassenschluessel": "05362000004000028", "bezeichnung": "Eifelstraße" }, "geometry": { "type": "Point", "coordinates": [ 6.987282087501352, 50.813882526936581 ] } },
{ "type": "Feature", "properties": { "strassenschluessel": "05362000004000029", "bezeichnung": "Erftstraße" }, "geometry": { "type": "Point", "coordinates": [ 6.983283973321283, 50.814247966613927 ] } },
{ "type": "Feature", "properties": { "strassenschluessel": "05362000004000030", "bezeichnung": "Eschenweg" }, "geometry": { "type": "Point", "coordinates": [ 6.971858269390632, 50.827342704166753 ] } },
{ "type": "Feature", "properties": { "strassenschluessel": "05362000004000031", "bezeichnung": "Ferdinandstraße" }, "geometry": { "type": "Point", "coordinates": [ 6.972568183986365, 50.818954278379763 ] } },
{ "type": "Feature", "properties": { "strassenschluessel": "05362000004000032", "bezeichnung": "Flach-Fengler-Straße" }, "geometry": { "type": "Point", "coordinates": [ 6.974844794866186, 50.818843173132606 ] } },
{ "type": "Feature", "properties": { "strassenschluessel": "05362000004000033", "bezeichnung": "Franzstraße" }, "geometry": { "type": "Point", "coordinates": [ 6.972722649123332, 50.820495335849763 ] } },
{ "type": "Feature", "properties": { "strassenschluessel": "05362000004000034", "bezeichnung": "Friedensweg" }, "geometry": { "type": "Point", "coordinates": [ 6.974811994358031, 50.8216296268604 ] } },
{ "type": "Feature", "properties": { "strassenschluessel": "05362000004000035", "bezeichnung": "Friedrichstraße" }, "geometry": { "type": "Point", "coordinates": [ 6.972476434009699, 50.821508761897249 ] } },
{ "type": "Feature", "properties": { "strassenschluessel": "05362000004000036", "bezeichnung": "Gartenstraße" }, "geometry": { "type": "Point", "coordinates": [ 6.978082939739511, 50.824738527266945 ] } },
{ "type": "Feature", "properties": { "strassenschluessel": "05362000004000037", "bezeichnung": "Georgstraße" }, "geometry": { "type": "Point", "coordinates": [ 6.970432762397575, 50.823010862070831 ] } },
{ "type": "Feature", "properties": { "strassenschluessel": "05362000004000038", "bezeichnung": "Germanusstraße" }, "geometry": { "type": "Point", "coordinates": [ 6.983265349821751, 50.824569080007542 ] } },
{ "type": "Feature", "properties": { "strassenschluessel": "05362000004000040", "bezeichnung": "Grenzgasse" }, "geometry": { "type": "Point", "coordinates": [ 6.986194308084602, 50.823001720954309 ] } },
{ "type": "Feature", "properties": { "strassenschluessel": "05362000004000041", "bezeichnung": "Grofer Weg" }, "geometry": null },
{ "type": "Feature", "properties": { "strassenschluessel": "05362000004000042", "bezeichnung": "Grüner Weg" }, "geometry": { "type": "Point", "coordinates": [ 6.976813295618024, 50.829659215056836 ] } },
{ "type": "Feature", "properties": { "strassenschluessel": "05362000004000043", "bezeichnung": "Hardtstraße" }, "geometry": { "type": "Point", "coordinates": [ 6.988970188787991, 50.812588131037522 ] } },
{ "type": "Feature", "properties": { "strassenschluessel": "05362000004000044", "bezeichnung": "Helenenstraße" }, "geometry": { "type": "Point", "coordinates": [ 6.969488124077389, 50.823380106760986 ] } },
{ "type": "Feature", "properties": { "strassenschluessel": "05362000004000045", "bezeichnung": "Helmholtzstraße" }, "geometry": { "type": "Point", "coordinates": [ 6.991578142987298, 50.820226849653224 ] } },
{ "type": "Feature", "properties": { "strassenschluessel": "05362000004000046", "bezeichnung": "Hirschbergweg" }, "geometry": { "type": "Point", "coordinates": [ 6.986482758808811, 50.812782689043864 ] } },
{ "type": "Feature", "properties": { "strassenschluessel": "05362000004000047", "bezeichnung": "Hofgasse" }, "geometry": null },
{ "type": "Feature", "properties": { "strassenschluessel": "05362000004000048", "bezeichnung": "Hubert-Stupp-Straße" }, "geometry": { "type": "Point", "coordinates": [ 6.976650828036311, 50.818475826921222 ] } },
{ "type": "Feature", "properties": { "strassenschluessel": "05362000004000049", "bezeichnung": "Hubertusstraße" }, "geometry": { "type": "Point", "coordinates": [ 6.964895218709751, 50.830124791807783 ] } },
{ "type": "Feature", "properties": { "strassenschluessel": "05362000004000050", "bezeichnung": "Humboldtstraße" }, "geometry": { "type": "Point", "coordinates": [ 6.990541556838844, 50.820609628326871 ] } },
{ "type": "Feature", "properties": { "strassenschluessel": "05362000004000051", "bezeichnung": "Hunsrückstraße" }, "geometry": { "type": "Point", "coordinates": [ 6.988953417568425, 50.811727080329199 ] } },
{ "type": "Feature", "properties": { "strassenschluessel": "05362000004000052", "bezeichnung": "Im Grund" }, "geometry": { "type": "Point", "coordinates": [ 6.978872074929038, 50.821617029623383 ] } },
{ "type": "Feature", "properties": { "strassenschluessel": "05362000004000053", "bezeichnung": "Jahnstraße" }, "geometry": { "type": "Point", "coordinates": [ 6.976734058657936, 50.818520072775762 ] } },
{ "type": "Feature", "properties": { "strassenschluessel": "05362000004000054", "bezeichnung": "Johannesstraße" }, "geometry": { "type": "Point", "coordinates": [ 6.969670062045093, 50.8218189090775 ] } },
{ "type": "Feature", "properties": { "strassenschluessel": "05362000004000055", "bezeichnung": "Josefstraße" }, "geometry": { "type": "Point", "coordinates": [ 6.97069485185307, 50.820676106169351 ] } },
{ "type": "Feature", "properties": { "strassenschluessel": "05362000004000056", "bezeichnung": "Josef-Zimmermann-Straße" }, "geometry": { "type": "Point", "coordinates": [ 6.977173268505291, 50.830475637051258 ] } },
{ "type": "Feature", "properties": { "strassenschluessel": "05362000004000057", "bezeichnung": "Karlstraße" }, "geometry": { "type": "Point", "coordinates": [ 6.973230307732026, 50.819680280383423 ] } },
{ "type": "Feature", "properties": { "strassenschluessel": "05362000004000058", "bezeichnung": "Kastanienweg" }, "geometry": { "type": "Point", "coordinates": [ 6.968747301130637, 50.828113976130787 ] } },
{ "type": "Feature", "properties": { "strassenschluessel": "05362000004000059", "bezeichnung": "Kölner Straße" }, "geometry": { "type": "Point", "coordinates": [ 6.981850984656895, 50.827088323255772 ] } },
{ "type": "Feature", "properties": { "strassenschluessel": "05362000004000059", "bezeichnung": "Kölner Straße" }, "geometry": { "type": "Point", "coordinates": [ 6.981850984656895, 50.827088323255772 ] } },
{ "type": "Feature", "properties": { "strassenschluessel": "05362000004000060", "bezeichnung": "Kreuz-Knippchen" }, "geometry": { "type": "Point", "coordinates": [ 7.011658016466016, 50.805818445537987 ] } },
{ "type": "Feature", "properties": { "strassenschluessel": "05362000004000061", "bezeichnung": "Kreuzstraße" }, "geometry": { "type": "Point", "coordinates": [ 6.978901990312414, 50.824482266965028 ] } },
{ "type": "Feature", "properties": { "strassenschluessel": "05362000004000062", "bezeichnung": "Kronenweg" }, "geometry": { "type": "Point", "coordinates": [ 6.988074680226921, 50.816701939261783 ] } },
{ "type": "Feature", "properties": { "strassenschluessel": "05362000004000063", "bezeichnung": "Kyllstraße" }, "geometry": { "type": "Point", "coordinates": [ 6.983052148370562, 50.813469681271769 ] } },
{ "type": "Feature", "properties": { "strassenschluessel": "05362000004000065", "bezeichnung": "Lahnstraße" }, "geometry": null },
{ "type": "Feature", "properties": { "strassenschluessel": "05362000004000066", "bezeichnung": "Langgasse" }, "geometry": { "type": "Point", "coordinates": [ 6.978302688420936, 50.829102450814439 ] } },
{ "type": "Feature", "properties": { "strassenschluessel": "05362000004000067", "bezeichnung": "Leinpfad" }, "geometry": { "type": "Point", "coordinates": [ 6.984812556074687, 50.82572734280437 ] } },
{ "type": "Feature", "properties": { "strassenschluessel": "05362000004000068", "bezeichnung": "Leunaer Straße" }, "geometry": { "type": "Point", "coordinates": [ 6.996120543656589, 50.816418846611093 ] } },
{ "type": "Feature", "properties": { "strassenschluessel": "05362000004000069", "bezeichnung": "Leybergweg" }, "geometry": { "type": "Point", "coordinates": [ 6.984648411429794, 50.81434527483362 ] } },
{ "type": "Feature", "properties": { "strassenschluessel": "05362000004000070", "bezeichnung": "Liebigstraße" }, "geometry": { "type": "Point", "coordinates": [ 6.991672831396254, 50.819528350751895 ] } },
{ "type": "Feature", "properties": { "strassenschluessel": "05362000004000071", "bezeichnung": "Löwenburgweg" }, "geometry": { "type": "Point", "coordinates": [ 6.986868141019694, 50.81262210906339 ] } },
{ "type": "Feature", "properties": { "strassenschluessel": "05362000004000072", "bezeichnung": "Lohrbergweg" }, "geometry": { "type": "Point", "coordinates": [ 6.986343855205701, 50.81339515021962 ] } },
{ "type": "Feature", "properties": { "strassenschluessel": "05362000004000073", "bezeichnung": "Ludewigstraße" }, "geometry": { "type": "Point", "coordinates": [ 6.977307528638959, 50.816828821584394 ] } },
{ "type": "Feature", "properties": { "strassenschluessel": "05362000004000074", "bezeichnung": "Ludwigshafener Straße" }, "geometry": null },
{ "type": "Feature", "properties": { "strassenschluessel": "05362000004000075", "bezeichnung": "Luziastraße" }, "geometry": { "type": "Point", "coordinates": [ 6.989211687966712, 50.820887599846486 ] } },
{ "type": "Feature", "properties": { "strassenschluessel": "05362000004000076", "bezeichnung": "Maarweg" }, "geometry": { "type": "Point", "coordinates": [ 7.001848168435309, 50.810878017302684 ] } },
{ "type": "Feature", "properties": { "strassenschluessel": "05362000004000077", "bezeichnung": "Metzer Weg" }, "geometry": null },
{ "type": "Feature", "properties": { "strassenschluessel": "05362000004000078", "bezeichnung": "Mainstraße" }, "geometry": { "type": "Point", "coordinates": [ 6.990220206023422, 50.813862123874685 ] } },
{ "type": "Feature", "properties": { "strassenschluessel": "05362000004000079", "bezeichnung": "Martinstraße" }, "geometry": { "type": "Point", "coordinates": [ 6.966735366928035, 50.82457250269983 ] } },
{ "type": "Feature", "properties": { "strassenschluessel": "05362000004000080", "bezeichnung": "Max-Planck-Straße" }, "geometry": { "type": "Point", "coordinates": [ 6.99137366073461, 50.820749560844966 ] } },
{ "type": "Feature", "properties": { "strassenschluessel": "05362000004000081", "bezeichnung": "Moselstraße" }, "geometry": { "type": "Point", "coordinates": [ 6.990626284236247, 50.81434410650121 ] } },
{ "type": "Feature", "properties": { "strassenschluessel": "05362000004000082", "bezeichnung": "Mühlenweg" }, "geometry": { "type": "Point", "coordinates": [ 6.967295565559379, 50.825269752339388 ] } },
{ "type": "Feature", "properties": { "strassenschluessel": "05362000004000083", "bezeichnung": "Nonnenstrombergweg" }, "geometry": { "type": "Point", "coordinates": [ 6.985781828138278, 50.813253369775843 ] } },
{ "type": "Feature", "properties": { "strassenschluessel": "05362000004000084", "bezeichnung": "Nordstraße" }, "geometry": { "type": "Point", "coordinates": [ 6.979533792544712, 50.829245109828939 ] } },
{ "type": "Feature", "properties": { "strassenschluessel": "05362000004000085", "bezeichnung": "Oberwesselinger Straße" }, "geometry": { "type": "Point", "coordinates": [ 6.990663526945671, 50.822262971632711 ] } },
{ "type": "Feature", "properties": { "strassenschluessel": "05362000004000086", "bezeichnung": "Odenwaldstraße" }, "geometry": { "type": "Point", "coordinates": [ 6.989020768855796, 50.813974774564912 ] } },
{ "type": "Feature", "properties": { "strassenschluessel": "05362000004000087", "bezeichnung": "Öffgasse" }, "geometry": { "type": "Point", "coordinates": [ 6.977528642202793, 50.831004848069234 ] } },
{ "type": "Feature", "properties": { "strassenschluessel": "05362000004000088", "bezeichnung": "Ölbergweg" }, "geometry": { "type": "Point", "coordinates": [ 6.987421107146853, 50.812640052772295 ] } },
{ "type": "Feature", "properties": { "strassenschluessel": "05362000004000089", "bezeichnung": "Ottostraße" }, "geometry": { "type": "Point", "coordinates": [ 6.968107193756961, 50.823279205381588 ] } },
{ "type": "Feature", "properties": { "strassenschluessel": "05362000004000090", "bezeichnung": "Parkstraße" }, "geometry": { "type": "Point", "coordinates": [ 6.986346696319212, 50.824778558654323 ] } },
{ "type": "Feature", "properties": { "strassenschluessel": "05362000004000091", "bezeichnung": "Paulstraße" }, "geometry": { "type": "Point", "coordinates": [ 6.974245302695731, 50.820990572115008 ] } },
{ "type": "Feature", "properties": { "strassenschluessel": "05362000004000092", "bezeichnung": "Peterstraße" }, "geometry": { "type": "Point", "coordinates": [ 6.975378496302529, 50.820433181084454 ] } },
{ "type": "Feature", "properties": { "strassenschluessel": "05362000004000093", "bezeichnung": "Petersbergstraße" }, "geometry": { "type": "Point", "coordinates": [ 6.984793633564782, 50.813290487572161 ] } },
{ "type": "Feature", "properties": { "strassenschluessel": "05362000004000094", "bezeichnung": "Pfeilstraße" }, "geometry": { "type": "Point", "coordinates": [ 6.973525225955687, 50.823556805410043 ] } },
{ "type": "Feature", "properties": { "strassenschluessel": "05362000004000095", "bezeichnung": "Richardstraße" }, "geometry": { "type": "Point", "coordinates": [ 6.969504165138985, 50.822225999602153 ] } },
{ "type": "Feature", "properties": { "strassenschluessel": "05362000004000096", "bezeichnung": "Konrad-Adenauer-Straße" }, "geometry": { "type": "Point", "coordinates": [ 6.977301707548031, 50.824232674073606 ] } },
{ "type": "Feature", "properties": { "strassenschluessel": "05362000004000097", "bezeichnung": "Rodderweg" }, "geometry": { "type": "Point", "coordinates": [ 6.991097896354259, 50.821538899938119 ] } },
{ "type": "Feature", "properties": { "strassenschluessel": "05362000004000098", "bezeichnung": "Römerstraße" }, "geometry": { "type": "Point", "coordinates": [ 6.977214602610765, 50.827947909635867 ] } },
{ "type": "Feature", "properties": { "strassenschluessel": "05362000004000099", "bezeichnung": "Röntgenstraße" }, "geometry": null },
{ "type": "Feature", "properties": { "strassenschluessel": "05362000004000100", "bezeichnung": "Rotdornweg" }, "geometry": { "type": "Point", "coordinates": [ 6.970234526235051, 50.826247836316533 ] } },
{ "type": "Feature", "properties": { "strassenschluessel": "05362000004000101", "bezeichnung": "Saarlandstraße" }, "geometry": { "type": "Point", "coordinates": [ 6.97685744950422, 50.819604980713493 ] } },
{ "type": "Feature", "properties": { "strassenschluessel": "05362000004000103", "bezeichnung": "Schützenweg" }, "geometry": { "type": "Point", "coordinates": [ 6.974035572316891, 50.823016323367582 ] } },
{ "type": "Feature", "properties": { "strassenschluessel": "05362000004000104", "bezeichnung": "Schwarzdornweg" }, "geometry": { "type": "Point", "coordinates": [ 6.970922934934153, 50.825430351056418 ] } },
{ "type": "Feature", "properties": { "strassenschluessel": "05362000004000105", "bezeichnung": "Schwarzwaldstraße" }, "geometry": { "type": "Point", "coordinates": [ 6.989352600206024, 50.812153393491108 ] } },
{ "type": "Feature", "properties": { "strassenschluessel": "05362000004000106", "bezeichnung": "Sebastianusstraße" }, "geometry": { "type": "Point", "coordinates": [ 6.980202784241901, 50.826771333033129 ] } },
{ "type": "Feature", "properties": { "strassenschluessel": "05362000004000107", "bezeichnung": "Siegstraße" }, "geometry": { "type": "Point", "coordinates": [ 6.985689547489611, 50.81275137310223 ] } },
{ "type": "Feature", "properties": { "strassenschluessel": "05362000004000109", "bezeichnung": "Südstraße" }, "geometry": { "type": "Point", "coordinates": [ 6.986816189703635, 50.820927069487503 ] } },
{ "type": "Feature", "properties": { "strassenschluessel": "05362000004000110", "bezeichnung": "Taunusstraße" }, "geometry": { "type": "Point", "coordinates": [ 6.987828989300168, 50.813979483324225 ] } },
{ "type": "Feature", "properties": { "strassenschluessel": "05362000004000111", "bezeichnung": "Theodor-Körner-Straße" }, "geometry": { "type": "Point", "coordinates": [ 6.979368830147035, 50.819040033360231 ] } },
{ "type": "Feature", "properties": { "strassenschluessel": "05362000004000112", "bezeichnung": "Uferstraße" }, "geometry": { "type": "Point", "coordinates": [ 6.983749479055611, 50.826670319169885 ] } },
{ "type": "Feature", "properties": { "strassenschluessel": "05362000004000113", "bezeichnung": "Ulmenstraße" }, "geometry": { "type": "Point", "coordinates": [ 6.969558119881643, 50.827174307760991 ] } },
{ "type": "Feature", "properties": { "strassenschluessel": "05362000004000114", "bezeichnung": "Vorgebirgsstraße" }, "geometry": { "type": "Point", "coordinates": [ 6.993568344838135, 50.815243204610248 ] } },
{ "type": "Feature", "properties": { "strassenschluessel": "05362000004000115", "bezeichnung": "Weißdornweg" }, "geometry": { "type": "Point", "coordinates": [ 6.970701018191329, 50.826772527132597 ] } },
{ "type": "Feature", "properties": { "strassenschluessel": "05362000004000116", "bezeichnung": "Westerwaldstraße" }, "geometry": { "type": "Point", "coordinates": [ 6.98601704469153, 50.814787690589334 ] } },
{ "type": "Feature", "properties": { "strassenschluessel": "05362000004000117", "bezeichnung": "Westring" }, "geometry": { "type": "Point", "coordinates": [ 6.979843605828652, 50.82073831093858 ] } },
{ "type": "Feature", "properties": { "strassenschluessel": "05362000004000118", "bezeichnung": "Wilhelm-Rieländer-Straße" }, "geometry": null },
{ "type": "Feature", "properties": { "strassenschluessel": "05362000004000119", "bezeichnung": "Wilhelmstraße" }, "geometry": null },
{ "type": "Feature", "properties": { "strassenschluessel": "05362000004000120", "bezeichnung": "Wolkenburgweg" }, "geometry": { "type": "Point", "coordinates": [ 6.987790681006702, 50.812432005954626 ] } },
{ "type": "Feature", "properties": { "strassenschluessel": "05362000004000121", "bezeichnung": "Alfons-Müller-Platz" }, "geometry": { "type": "Point", "coordinates": [ 6.981530088924091, 50.824309647551196 ] } },
{ "type": "Feature", "properties": { "strassenschluessel": "05362000004000122", "bezeichnung": "Pontivystraße" }, "geometry": { "type": "Point", "coordinates": [ 6.982316042870732, 50.826292386937816 ] } },
{ "type": "Feature", "properties": { "strassenschluessel": "05362000004000123", "bezeichnung": "Keltenstraße" }, "geometry": { "type": "Point", "coordinates": [ 6.983580878235785, 50.823779825796542 ] } },
{ "type": "Feature", "properties": { "strassenschluessel": "05362000004000124", "bezeichnung": "Raiffeisenstraße" }, "geometry": null },
{ "type": "Feature", "properties": { "strassenschluessel": "05362000004000125", "bezeichnung": "Poststraße" }, "geometry": { "type": "Point", "coordinates": [ 6.982380273911657, 50.823918507643683 ] } },
{ "type": "Feature", "properties": { "strassenschluessel": "05362000004000126", "bezeichnung": "Mühlengasse" }, "geometry": { "type": "Point", "coordinates": [ 6.979794200719541, 50.828091234075139 ] } },
{ "type": "Feature", "properties": { "strassenschluessel": "05362000004000127", "bezeichnung": "Josef-Dietz-Straße" }, "geometry": { "type": "Point", "coordinates": [ 6.987651357068859, 50.822979497576164 ] } },
{ "type": "Feature", "properties": { "strassenschluessel": "05362000004000129", "bezeichnung": "Herseler Straße" }, "geometry": { "type": "Point", "coordinates": [ 6.992182871025127, 50.805188498471971 ] } },
{ "type": "Feature", "properties": { "strassenschluessel": "05362000004000130", "bezeichnung": "Widdiger Straße" }, "geometry": { "type": "Point", "coordinates": [ 6.99411038835359, 50.803758718082712 ] } },
{ "type": "Feature", "properties": { "strassenschluessel": "05362000004000131", "bezeichnung": "Eichsfelder Straße" }, "geometry": { "type": "Point", "coordinates": [ 6.987179045823908, 50.820569807754019 ] } },
{ "type": "Feature", "properties": { "strassenschluessel": "05362000004000132", "bezeichnung": "Dartmoorstraße" }, "geometry": null },
{ "type": "Feature", "properties": { "strassenschluessel": "05362000004000133", "bezeichnung": "Konstanzer Straße" }, "geometry": { "type": "Point", "coordinates": [ 6.963208790691821, 50.825273198690432 ] } },
{ "type": "Feature", "properties": { "strassenschluessel": "05362000004000134", "bezeichnung": "Traunsteiner Straße" }, "geometry": { "type": "Point", "coordinates": [ 6.962458145524471, 50.823970513575716 ] } },
{ "type": "Feature", "properties": { "strassenschluessel": "05362000004000135", "bezeichnung": "Überlinger Straße" }, "geometry": { "type": "Point", "coordinates": [ 6.961382056606636, 50.826301389139509 ] } },
{ "type": "Feature", "properties": { "strassenschluessel": "05362000004000136", "bezeichnung": "West-Devon-Straße" }, "geometry": { "type": "Point", "coordinates": [ 6.962791424638555, 50.828945139390648 ] } },
{ "type": "Feature", "properties": { "strassenschluessel": "05362000004000137", "bezeichnung": "Willy-Brandt-Straße" }, "geometry": { "type": "Point", "coordinates": [ 6.996153389147843, 50.81535577546834 ] } },
{ "type": "Feature", "properties": { "strassenschluessel": "05362000004000138", "bezeichnung": "Am Sioniterhof" }, "geometry": { "type": "Point", "coordinates": [ 6.98804194673022, 50.82248599556906 ] } },
{ "type": "Feature", "properties": { "strassenschluessel": "05362000004000139", "bezeichnung": "Am Bungert" }, "geometry": { "type": "Point", "coordinates": [ 6.974290311211778, 50.827854574245933 ] } },
{ "type": "Feature", "properties": { "strassenschluessel": "05362000004000140", "bezeichnung": "In den Bitzen" }, "geometry": null },
{ "type": "Feature", "properties": { "strassenschluessel": "05362000004000141", "bezeichnung": "Gotenstraße" }, "geometry": { "type": "Point", "coordinates": [ 6.982675313329196, 50.823094571623223 ] } },
{ "type": "Feature", "properties": { "strassenschluessel": "05362000004000142", "bezeichnung": "Albert-Einstein-Straße" }, "geometry": { "type": "Point", "coordinates": [ 6.990153976165444, 50.820523911972202 ] } },
{ "type": "Feature", "properties": { "strassenschluessel": "05362000004000143", "bezeichnung": "Theodor-Heuss-Straße" }, "geometry": null },
{ "type": "Feature", "properties": { "strassenschluessel": "05362000004000144", "bezeichnung": "Elsässer Straße" }, "geometry": { "type": "Point", "coordinates": [ 6.978305957577446, 50.819381775747857 ] } },
{ "type": "Feature", "properties": { "strassenschluessel": "05362000004000145", "bezeichnung": "Tavistockstraße" }, "geometry": null },
{ "type": "Feature", "properties": { "strassenschluessel": "05362000004000146", "bezeichnung": "Köcherweg" }, "geometry": { "type": "Point", "coordinates": [ 6.975362218548557, 50.822507558761608 ] } },
{ "type": "Feature", "properties": { "strassenschluessel": "05362000004000147", "bezeichnung": "Katharina-Kasper-Weg" }, "geometry": null },
{ "type": "Feature", "properties": { "strassenschluessel": "05362000004000148", "bezeichnung": "Otto-Wels-Platz" }, "geometry": null },
{ "type": "Feature", "properties": { "strassenschluessel": "05362000004000149", "bezeichnung": "Rheintalallee" }, "geometry": { "type": "Point", "coordinates": [ 6.980429456843646, 50.820855780739436 ] } },
{ "type": "Feature", "properties": { "strassenschluessel": "05362000004000150", "bezeichnung": "Zum Birkenwäldchen" }, "geometry": { "type": "Point", "coordinates": [ 6.980470520913725, 50.820542154916133 ] } },
{ "type": "Feature", "properties": { "strassenschluessel": "05362000004000151", "bezeichnung": "An den Hochgärten" }, "geometry": { "type": "Point", "coordinates": [ 6.981061300873337, 50.821276013902668 ] } },
{ "type": "Feature", "properties": { "strassenschluessel": "05362000004000152", "bezeichnung": "Am Birkenhang" }, "geometry": { "type": "Point", "coordinates": [ 6.980849920911934, 50.819907134596818 ] } },
{ "type": "Feature", "properties": { "strassenschluessel": "05362000004000153", "bezeichnung": "Zum Schlösschen" }, "geometry": { "type": "Point", "coordinates": [ 6.961495384299994, 50.828093797194214 ] } },
{ "type": "Feature", "properties": { "strassenschluessel": "05362000004000154", "bezeichnung": "Am Entenfang" }, "geometry": { "type": "Point", "coordinates": [ 6.960857994915844, 50.827441704738384 ] } },
{ "type": "Feature", "properties": { "strassenschluessel": "05362000004000155", "bezeichnung": "Auenweg" }, "geometry": { "type": "Point", "coordinates": [ 6.962180002447663, 50.827973963264178 ] } },
{ "type": "Feature", "properties": { "strassenschluessel": "05362000004000156", "bezeichnung": "Meersburger Straße" }, "geometry": { "type": "Point", "coordinates": [ 6.962854563871142, 50.826470551093927 ] } },
{ "type": "Feature", "properties": { "strassenschluessel": "05362000004000157", "bezeichnung": "Lindauer Straße" }, "geometry": { "type": "Point", "coordinates": [ 6.961335884758329, 50.826663981270123 ] } },
{ "type": "Feature", "properties": { "strassenschluessel": "05362000004000301", "bezeichnung": "Albert-Schweitzer-Straße" }, "geometry": { "type": "Point", "coordinates": [ 6.978789297711383, 50.812843926880362 ] } },
{ "type": "Feature", "properties": { "strassenschluessel": "05362000004000302", "bezeichnung": "Alfterstraße" }, "geometry": { "type": "Point", "coordinates": [ 6.977941617466565, 50.809423443784468 ] } },
{ "type": "Feature", "properties": { "strassenschluessel": "05362000004000303", "bezeichnung": "Am Dickopsbach" }, "geometry": { "type": "Point", "coordinates": [ 6.964097344437815, 50.814877556212387 ] } },
{ "type": "Feature", "properties": { "strassenschluessel": "05362000004000304", "bezeichnung": "Entenfanggelände" }, "geometry": null },
{ "type": "Feature", "properties": { "strassenschluessel": "05362000004000307", "bezeichnung": "Am Schmettenstück" }, "geometry": { "type": "Point", "coordinates": [ 6.969909729073491, 50.815581761994778 ] } },
{ "type": "Feature", "properties": { "strassenschluessel": "05362000004000308", "bezeichnung": "Amselweg" }, "geometry": { "type": "Point", "coordinates": [ 6.97924482714658, 50.806879994263461 ] } },
{ "type": "Feature", "properties": { "strassenschluessel": "05362000004000309", "bezeichnung": "An der Elsmaar" }, "geometry": { "type": "Point", "coordinates": [ 6.968909316510717, 50.808318396950526 ] } },
{ "type": "Feature", "properties": { "strassenschluessel": "05362000004000310", "bezeichnung": "Auf dem Eichholzer Acker" }, "geometry": { "type": "Point", "coordinates": [ 6.98307629949447, 50.805303265566081 ] } },
{ "type": "Feature", "properties": { "strassenschluessel": "05362000004000312", "bezeichnung": "Bachstelzenweg" }, "geometry": { "type": "Point", "coordinates": [ 6.981486753772275, 50.805745480983703 ] } },
{ "type": "Feature", "properties": { "strassenschluessel": "05362000004000313", "bezeichnung": "Bornheimer Weg" }, "geometry": { "type": "Point", "coordinates": [ 6.975041974444196, 50.806076851393556 ] } },
{ "type": "Feature", "properties": { "strassenschluessel": "05362000004000314", "bezeichnung": "Brandenburger Straße" }, "geometry": { "type": "Point", "coordinates": [ 6.965740005360421, 50.812106859104716 ] } },
{ "type": "Feature", "properties": { "strassenschluessel": "05362000004000315", "bezeichnung": "Breniger Straße" }, "geometry": { "type": "Point", "coordinates": [ 6.983428144589328, 50.808475523437004 ] } },
{ "type": "Feature", "properties": { "strassenschluessel": "05362000004000316", "bezeichnung": "Buchfinkenweg" }, "geometry": { "type": "Point", "coordinates": [ 6.981878518452172, 50.805350223755376 ] } },
{ "type": "Feature", "properties": { "strassenschluessel": "05362000004000318", "bezeichnung": "Dompfaffenweg" }, "geometry": { "type": "Point", "coordinates": [ 6.979547401069605, 50.804794473415981 ] } },
{ "type": "Feature", "properties": { "strassenschluessel": "05362000004000319", "bezeichnung": "Drosselweg" }, "geometry": { "type": "Point", "coordinates": [ 6.981843085383932, 50.806839246498505 ] } },
{ "type": "Feature", "properties": { "strassenschluessel": "05362000004000320", "bezeichnung": "Düsseldorfer Straße" }, "geometry": { "type": "Point", "coordinates": [ 6.970343346606809, 50.817194471368296 ] } },
{ "type": "Feature", "properties": { "strassenschluessel": "05362000004000321", "bezeichnung": "Eckdorfer Straße" }, "geometry": { "type": "Point", "coordinates": [ 6.982407296214429, 50.810534652235347 ] } },
{ "type": "Feature", "properties": { "strassenschluessel": "05362000004000322", "bezeichnung": "Eichendorffstraße" }, "geometry": { "type": "Point", "coordinates": [ 6.975736424670834, 50.814439987398757 ] } },
{ "type": "Feature", "properties": { "strassenschluessel": "05362000004000323", "bezeichnung": "Eichholzer Straße" }, "geometry": { "type": "Point", "coordinates": [ 6.970336965215021, 50.812690339930391 ] } },
{ "type": "Feature", "properties": { "strassenschluessel": "05362000004000324", "bezeichnung": "Ermlandweg" }, "geometry": { "type": "Point", "coordinates": [ 6.967902963281406, 50.809738141518146 ] } },
{ "type": "Feature", "properties": { "strassenschluessel": "05362000004000325", "bezeichnung": "Fasanenweg" }, "geometry": { "type": "Point", "coordinates": [ 6.976542881941617, 50.80888935476812 ] } },
{ "type": "Feature", "properties": { "strassenschluessel": "05362000004000326", "bezeichnung": "Finkenweg" }, "geometry": { "type": "Point", "coordinates": [ 6.972639339069242, 50.80620258502023 ] } },
{ "type": "Feature", "properties": { "strassenschluessel": "05362000004000327", "bezeichnung": "Friedhofsweg" }, "geometry": { "type": "Point", "coordinates": [ 6.973168525113031, 50.809074891864327 ] } },
{ "type": "Feature", "properties": { "strassenschluessel": "05362000004000328", "bezeichnung": "Fuchsweg" }, "geometry": { "type": "Point", "coordinates": [ 6.965771472262295, 50.810126188943052 ] } },
{ "type": "Feature", "properties": { "strassenschluessel": "05362000004000329", "bezeichnung": "Geibelstraße" }, "geometry": { "type": "Point", "coordinates": [ 6.976190783589539, 50.81187237462899 ] } },
{ "type": "Feature", "properties": { "strassenschluessel": "05362000004000330", "bezeichnung": "Gleiwitzer Straße" }, "geometry": { "type": "Point", "coordinates": [ 6.967937877010811, 50.804834888616526 ] } },
{ "type": "Feature", "properties": { "strassenschluessel": "05362000004000331", "bezeichnung": "Gottfried-Keller-Straße" }, "geometry": { "type": "Point", "coordinates": [ 6.977043312106509, 50.813082411635662 ] } },
{ "type": "Feature", "properties": { "strassenschluessel": "05362000004000332", "bezeichnung": "Grünberger Straße" }, "geometry": { "type": "Point", "coordinates": [ 6.969905652383805, 50.805730966992535 ] } },
{ "type": "Feature", "properties": { "strassenschluessel": "05362000004000333", "bezeichnung": "Heinrich-Heine-Straße" }, "geometry": { "type": "Point", "coordinates": [ 6.971917823771173, 50.818050640301237 ] } },
{ "type": "Feature", "properties": { "strassenschluessel": "05362000004000334", "bezeichnung": "Hemmericher Weg" }, "geometry": { "type": "Point", "coordinates": [ 6.979823449157929, 50.812357897453175 ] } },
{ "type": "Feature", "properties": { "strassenschluessel": "05362000004000335", "bezeichnung": "Herderstraße" }, "geometry": { "type": "Point", "coordinates": [ 6.974102697544695, 50.816322584810159 ] } },
{ "type": "Feature", "properties": { "strassenschluessel": "05362000004000336", "bezeichnung": "Hermann-Hesse-Straße" }, "geometry": { "type": "Point", "coordinates": [ 6.978069277309934, 50.813491815679889 ] } },
{ "type": "Feature", "properties": { "strassenschluessel": "05362000004000337", "bezeichnung": "Hermann-Löns-Straße" }, "geometry": { "type": "Point", "coordinates": [ 6.979754239764558, 50.813590933237343 ] } },
{ "type": "Feature", "properties": { "strassenschluessel": "05362000004000338", "bezeichnung": "Hessenweg" }, "geometry": { "type": "Point", "coordinates": [ 6.962009133263408, 50.808757615646556 ] } },
{ "type": "Feature", "properties": { "strassenschluessel": "05362000004000339", "bezeichnung": "Hinter den Hecken" }, "geometry": { "type": "Point", "coordinates": [ 6.972367022086005, 50.8152300617053 ] } },
{ "type": "Feature", "properties": { "strassenschluessel": "05362000004000340", "bezeichnung": "Im Blauen Garn" }, "geometry": { "type": "Point", "coordinates": [ 6.964332123906345, 50.822252119526361 ] } },
{ "type": "Feature", "properties": { "strassenschluessel": "05362000004000341", "bezeichnung": "Im Dich" }, "geometry": { "type": "Point", "coordinates": [ 6.983006554804542, 50.808667861907189 ] } },
{ "type": "Feature", "properties": { "strassenschluessel": "05362000004000342", "bezeichnung": "Im Stockental" }, "geometry": { "type": "Point", "coordinates": [ 6.969502313119112, 50.817963265718973 ] } },
{ "type": "Feature", "properties": { "strassenschluessel": "05362000004000343", "bezeichnung": "In der Flecht" }, "geometry": { "type": "Point", "coordinates": [ 6.974674603115282, 50.813672180198921 ] } },
{ "type": "Feature", "properties": { "strassenschluessel": "05362000004000344", "bezeichnung": "Kardorfer Straße" }, "geometry": { "type": "Point", "coordinates": [ 6.983026014157062, 50.811956975434448 ] } },
{ "type": "Feature", "properties": { "strassenschluessel": "05362000004000345", "bezeichnung": "Karlsbader Straße" }, "geometry": { "type": "Point", "coordinates": [ 6.966517720281617, 50.806137594812085 ] } },
{ "type": "Feature", "properties": { "strassenschluessel": "05362000004000346", "bezeichnung": "Keldenicher Straße" }, "geometry": { "type": "Point", "coordinates": [ 6.973696829500844, 50.817364260516364 ] } },
{ "type": "Feature", "properties": { "strassenschluessel": "05362000004000347", "bezeichnung": "Kleiststraße" }, "geometry": { "type": "Point", "coordinates": [ 6.977843880996939, 50.811943014149158 ] } },
{ "type": "Feature", "properties": { "strassenschluessel": "05362000004000349", "bezeichnung": "Klobbotzstraße" }, "geometry": { "type": "Point", "coordinates": [ 6.962446000544193, 50.812475705864507 ] } },
{ "type": "Feature", "properties": { "strassenschluessel": "05362000004000350", "bezeichnung": "Krefelder Straße" }, "geometry": { "type": "Point", "coordinates": [ 6.97087618113998, 50.817035052720357 ] } },
{ "type": "Feature", "properties": { "strassenschluessel": "05362000004000351", "bezeichnung": "Kuckucksweg" }, "geometry": { "type": "Point", "coordinates": [ 6.97804756422223, 50.805281546920014 ] } },
{ "type": "Feature", "properties": { "strassenschluessel": "05362000004000352", "bezeichnung": "Lauenburger Straße" }, "geometry": { "type": "Point", "coordinates": [ 6.968177857524573, 50.806013237172209 ] } },
{ "type": "Feature", "properties": { "strassenschluessel": "05362000004000353", "bezeichnung": "Lenaustraße" }, "geometry": { "type": "Point", "coordinates": [ 6.975157501325496, 50.810836427061425 ] } },
{ "type": "Feature", "properties": { "strassenschluessel": "05362000004000354", "bezeichnung": "Liegnitzer Straße" }, "geometry": { "type": "Point", "coordinates": [ 6.969086599484556, 50.805982306419303 ] } },
{ "type": "Feature", "properties": { "strassenschluessel": "05362000004000355", "bezeichnung": "Kleiberweg" }, "geometry": { "type": "Point", "coordinates": [ 6.979453942089301, 50.805481186169516 ] } },
{ "type": "Feature", "properties": { "strassenschluessel": "05362000004000356", "bezeichnung": "Masurenweg" }, "geometry": { "type": "Point", "coordinates": [ 6.968891779088087, 50.808980188710322 ] } },
{ "type": "Feature", "properties": { "strassenschluessel": "05362000004000357", "bezeichnung": "Meisenweg" }, "geometry": { "type": "Point", "coordinates": [ 6.979936181844652, 50.80493414747675 ] } },
{ "type": "Feature", "properties": { "strassenschluessel": "05362000004000358", "bezeichnung": "Mertener Straße" }, "geometry": { "type": "Point", "coordinates": [ 6.981021853576585, 50.811540659556641 ] } },
{ "type": "Feature", "properties": { "strassenschluessel": "05362000004000359", "bezeichnung": "Nachtigallenweg" }, "geometry": { "type": "Point", "coordinates": [ 6.978362054933495, 50.804553607372718 ] } },
{ "type": "Feature", "properties": { "strassenschluessel": "05362000004000360", "bezeichnung": "Neusser Straße" }, "geometry": { "type": "Point", "coordinates": [ 6.971767309390244, 50.816885055766953 ] } },
{ "type": "Feature", "properties": { "strassenschluessel": "05362000004000361", "bezeichnung": "Oberdorfstraße" }, "geometry": { "type": "Point", "coordinates": [ 6.969686389087665, 50.8119517135666 ] } },
{ "type": "Feature", "properties": { "strassenschluessel": "05362000004000362", "bezeichnung": "Oppelner Straße" }, "geometry": { "type": "Point", "coordinates": [ 6.970557761555604, 50.805844190949166 ] } },
{ "type": "Feature", "properties": { "strassenschluessel": "05362000004000363", "bezeichnung": "Pfälzer Weg" }, "geometry": { "type": "Point", "coordinates": [ 6.963085911731477, 50.808893456215955 ] } },
{ "type": "Feature", "properties": { "strassenschluessel": "05362000004000364", "bezeichnung": "Pfauenweg" }, "geometry": { "type": "Point", "coordinates": [ 6.982648127906838, 50.806531309472355 ] } },
{ "type": "Feature", "properties": { "strassenschluessel": "05362000004000365", "bezeichnung": "Pingsdorfer Straße" }, "geometry": { "type": "Point", "coordinates": [ 6.979049882052759, 50.81105821285967 ] } },
{ "type": "Feature", "properties": { "strassenschluessel": "05362000004000366", "bezeichnung": "Pommernstraße" }, "geometry": { "type": "Point", "coordinates": [ 6.970085629140181, 50.809081721774142 ] } },
{ "type": "Feature", "properties": { "strassenschluessel": "05362000004000367", "bezeichnung": "Pützstraße" }, "geometry": { "type": "Point", "coordinates": [ 6.972964938967835, 50.812694258610627 ] } },
{ "type": "Feature", "properties": { "strassenschluessel": "05362000004000368", "bezeichnung": "Rebhuhnweg" }, "geometry": { "type": "Point", "coordinates": [ 6.977124289678112, 50.80805832921024 ] } },
{ "type": "Feature", "properties": { "strassenschluessel": "05362000004000369", "bezeichnung": "Reichenberger Straße" }, "geometry": { "type": "Point", "coordinates": [ 6.967979076804916, 50.806966890325612 ] } },
{ "type": "Feature", "properties": { "strassenschluessel": "05362000004000370", "bezeichnung": "Rösberger Weg" }, "geometry": { "type": "Point", "coordinates": [ 6.980136737975692, 50.812614154872342 ] } },
{ "type": "Feature", "properties": { "strassenschluessel": "05362000004000371", "bezeichnung": "Roisdorfer Straße" }, "geometry": { "type": "Point", "coordinates": [ 6.979814814221996, 50.80984627807662 ] } },
{ "type": "Feature", "properties": { "strassenschluessel": "05362000004000372", "bezeichnung": "Rotkehlchenweg" }, "geometry": { "type": "Point", "coordinates": [ 6.981920483783207, 50.805727444436663 ] } },
{ "type": "Feature", "properties": { "strassenschluessel": "05362000004000373", "bezeichnung": "Samlandstraße" }, "geometry": { "type": "Point", "coordinates": [ 6.969780741766112, 50.809868941666529 ] } },
{ "type": "Feature", "properties": { "strassenschluessel": "05362000004000375", "bezeichnung": "Schneidemühler Straße" }, "geometry": null },
{ "type": "Feature", "properties": { "strassenschluessel": "05362000004000376", "bezeichnung": "Schulstraße" }, "geometry": { "type": "Point", "coordinates": [ 6.968067451230917, 50.810214124121046 ] } },
{ "type": "Feature", "properties": { "strassenschluessel": "05362000004000377", "bezeichnung": "Schwalbenweg" }, "geometry": { "type": "Point", "coordinates": [ 6.974732492434566, 50.808344440311743 ] } },
{ "type": "Feature", "properties": { "strassenschluessel": "05362000004000378", "bezeichnung": "Schwingelerweg" }, "geometry": { "type": "Point", "coordinates": [ 6.977751315735117, 50.813825292562363 ] } },
{ "type": "Feature", "properties": { "strassenschluessel": "05362000004000379", "bezeichnung": "Sechtemer Straße" }, "geometry": { "type": "Point", "coordinates": [ 6.965589355221358, 50.809751994561267 ] } },
{ "type": "Feature", "properties": { "strassenschluessel": "05362000004000380", "bezeichnung": "Siebengebirgsstraße" }, "geometry": { "type": "Point", "coordinates": [ 6.990499791095596, 50.803780905126082 ] } },
{ "type": "Feature", "properties": { "strassenschluessel": "05362000004000381", "bezeichnung": "Staffelsweg" }, "geometry": { "type": "Point", "coordinates": [ 6.972348182145627, 50.805707884668877 ] } },
{ "type": "Feature", "properties": { "strassenschluessel": "05362000004000382", "bezeichnung": "Starenweg" }, "geometry": { "type": "Point", "coordinates": [ 6.974645039317402, 50.807072214861464 ] } },
{ "type": "Feature", "properties": { "strassenschluessel": "05362000004000383", "bezeichnung": "Stemmlerweg" }, "geometry": { "type": "Point", "coordinates": [ 6.973454328774381, 50.811699293589527 ] } },
{ "type": "Feature", "properties": { "strassenschluessel": "05362000004000384", "bezeichnung": "Stieglitzweg" }, "geometry": { "type": "Point", "coordinates": [ 6.981659046145643, 50.805504898533336 ] } },
{ "type": "Feature", "properties": { "strassenschluessel": "05362000004000385", "bezeichnung": "Stolper Straße" }, "geometry": { "type": "Point", "coordinates": [ 6.97016667937188, 50.807101517892129 ] } },
{ "type": "Feature", "properties": { "strassenschluessel": "05362000004000386", "bezeichnung": "Sudermannweg" }, "geometry": { "type": "Point", "coordinates": [ 6.976690510140302, 50.811205655875675 ] } },
{ "type": "Feature", "properties": { "strassenschluessel": "05362000004000387", "bezeichnung": "Sudetenweg" }, "geometry": { "type": "Point", "coordinates": [ 6.96809832481216, 50.809442560126108 ] } },
{ "type": "Feature", "properties": { "strassenschluessel": "05362000004000388", "bezeichnung": "Talweg" }, "geometry": { "type": "Point", "coordinates": [ 6.969023465559256, 50.8146342022102 ] } },
{ "type": "Feature", "properties": { "strassenschluessel": "05362000004000390", "bezeichnung": "Thüringer Straße" }, "geometry": { "type": "Point", "coordinates": [ 6.965862271323535, 50.811363304931973 ] } },
{ "type": "Feature", "properties": { "strassenschluessel": "05362000004000391", "bezeichnung": "Trierer Weg" }, "geometry": { "type": "Point", "coordinates": [ 6.970785189910283, 50.815835183005262 ] } },
{ "type": "Feature", "properties": { "strassenschluessel": "05362000004000392", "bezeichnung": "Uhlandweg" }, "geometry": { "type": "Point", "coordinates": [ 6.976758910618251, 50.811627586973103 ] } },
{ "type": "Feature", "properties": { "strassenschluessel": "05362000004000393", "bezeichnung": "Unterdorfstraße" }, "geometry": { "type": "Point", "coordinates": [ 6.971232293268956, 50.813196608093506 ] } },
{ "type": "Feature", "properties": { "strassenschluessel": "05362000004000394", "bezeichnung": "Vogelsang" }, "geometry": { "type": "Point", "coordinates": [ 6.973964002186413, 50.810758318602737 ] } },
{ "type": "Feature", "properties": { "strassenschluessel": "05362000004000395", "bezeichnung": "Waldorfer Straße" }, "geometry": { "type": "Point", "coordinates": [ 6.980900677784926, 50.811465018561641 ] } },
{ "type": "Feature", "properties": { "strassenschluessel": "05362000004000396", "bezeichnung": "Wiesenweg" }, "geometry": { "type": "Point", "coordinates": [ 6.964985811380428, 50.814338019751375 ] } },
{ "type": "Feature", "properties": { "strassenschluessel": "05362000004000397", "bezeichnung": "Württemberger Weg" }, "geometry": { "type": "Point", "coordinates": [ 6.961802613159523, 50.808512105606809 ] } },
{ "type": "Feature", "properties": { "strassenschluessel": "05362000004000398", "bezeichnung": "Zaunkönigweg" }, "geometry": { "type": "Point", "coordinates": [ 6.982312097444165, 50.805865288752592 ] } },
{ "type": "Feature", "properties": { "strassenschluessel": "05362000004000399", "bezeichnung": "Zehntweg" }, "geometry": { "type": "Point", "coordinates": [ 6.973880651572849, 50.812599320257029 ] } },
{ "type": "Feature", "properties": { "strassenschluessel": "05362000004000400", "bezeichnung": "Zeisigweg" }, "geometry": { "type": "Point", "coordinates": [ 6.980254953532198, 50.804054216848002 ] } },
{ "type": "Feature", "properties": { "strassenschluessel": "05362000004000402", "bezeichnung": "Breslauer Straße" }, "geometry": { "type": "Point", "coordinates": [ 6.968714370837748, 50.806643443406074 ] } },
{ "type": "Feature", "properties": { "strassenschluessel": "05362000004000403", "bezeichnung": "Dikopshof" }, "geometry": null },
{ "type": "Feature", "properties": { "strassenschluessel": "05362000004000404", "bezeichnung": "Elsterweg" }, "geometry": { "type": "Point", "coordinates": [ 6.979841179548348, 50.805207338168529 ] } },
{ "type": "Feature", "properties": { "strassenschluessel": "05362000004000405", "bezeichnung": "Kiebitzweg" }, "geometry": { "type": "Point", "coordinates": [ 6.978487017567415, 50.805442556517043 ] } },
{ "type": "Feature", "properties": { "strassenschluessel": "05362000004000406", "bezeichnung": "Dohlenweg" }, "geometry": { "type": "Point", "coordinates": [ 6.978439279098692, 50.803361820769538 ] } },
{ "type": "Feature", "properties": { "strassenschluessel": "05362000004000407", "bezeichnung": "Rabenweg" }, "geometry": { "type": "Point", "coordinates": [ 6.97789726212976, 50.803288153341128 ] } },
{ "type": "Feature", "properties": { "strassenschluessel": "05362000004000408", "bezeichnung": "Wachtelweg" }, "geometry": { "type": "Point", "coordinates": [ 6.980071112053388, 50.803654661547014 ] } },
{ "type": "Feature", "properties": { "strassenschluessel": "05362000004000409", "bezeichnung": "Badorfer Straße" }, "geometry": { "type": "Point", "coordinates": [ 6.981297386237297, 50.808690337821268 ] } },
{ "type": "Feature", "properties": { "strassenschluessel": "05362000004000410", "bezeichnung": "Bussardweg" }, "geometry": { "type": "Point", "coordinates": [ 6.977611739365457, 50.806260776397245 ] } },
{ "type": "Feature", "properties": { "strassenschluessel": "05362000004000411", "bezeichnung": "Eulenweg" }, "geometry": { "type": "Point", "coordinates": [ 6.976498867110753, 50.805345938377222 ] } },
{ "type": "Feature", "properties": { "strassenschluessel": "05362000004000412", "bezeichnung": "Krähenweg" }, "geometry": { "type": "Point", "coordinates": [ 6.977520589984921, 50.805223212509041 ] } },
{ "type": "Feature", "properties": { "strassenschluessel": "05362000004000413", "bezeichnung": "Kranichweg" }, "geometry": { "type": "Point", "coordinates": [ 6.977461397909449, 50.803599600663915 ] } },
{ "type": "Feature", "properties": { "strassenschluessel": "05362000004000414", "bezeichnung": "Reiherweg" }, "geometry": { "type": "Point", "coordinates": [ 6.977476383689497, 50.803920062366387 ] } },
{ "type": "Feature", "properties": { "strassenschluessel": "05362000004000415", "bezeichnung": "Schnepfenweg" }, "geometry": { "type": "Point", "coordinates": [ 6.97755304478587, 50.80548724338572 ] } },
{ "type": "Feature", "properties": { "strassenschluessel": "05362000004000416", "bezeichnung": "Sperberweg" }, "geometry": { "type": "Point", "coordinates": [ 6.976408085787799, 50.804801013101311 ] } },
{ "type": "Feature", "properties": { "strassenschluessel": "05362000004000417", "bezeichnung": "Böcklinstraße" }, "geometry": { "type": "Point", "coordinates": [ 6.983673379748683, 50.807993408611516 ] } },
{ "type": "Feature", "properties": { "strassenschluessel": "05362000004000418", "bezeichnung": "Corinthstraße" }, "geometry": { "type": "Point", "coordinates": [ 6.98436552733915, 50.8080505045127 ] } },
{ "type": "Feature", "properties": { "strassenschluessel": "05362000004000419", "bezeichnung": "Cranachstraße" }, "geometry": { "type": "Point", "coordinates": [ 6.987664093707971, 50.805586311474805 ] } },
{ "type": "Feature", "properties": { "strassenschluessel": "05362000004000420", "bezeichnung": "Dürerstraße" }, "geometry": { "type": "Point", "coordinates": [ 6.986218750664571, 50.809614334937827 ] } },
{ "type": "Feature", "properties": { "strassenschluessel": "05362000004000421", "bezeichnung": "Feiningerweg" }, "geometry": { "type": "Point", "coordinates": [ 6.98485342672211, 50.80864960209999 ] } },
{ "type": "Feature", "properties": { "strassenschluessel": "05362000004000422", "bezeichnung": "Max-Ernst-Straße" }, "geometry": { "type": "Point", "coordinates": [ 6.984253857455021, 50.807665775483443 ] } },
{ "type": "Feature", "properties": { "strassenschluessel": "05362000004000423", "bezeichnung": "Rembrandtstraße" }, "geometry": { "type": "Point", "coordinates": [ 6.988269389166882, 50.807424101298452 ] } },
{ "type": "Feature", "properties": { "strassenschluessel": "05362000004000424", "bezeichnung": "Carl-Spitzweg-Straße" }, "geometry": { "type": "Point", "coordinates": [ 6.988156463163496, 50.804970754576487 ] } },
{ "type": "Feature", "properties": { "strassenschluessel": "05362000004000425", "bezeichnung": "Balthasar-Neumann-Weg" }, "geometry": { "type": "Point", "coordinates": [ 6.986720557162626, 50.80685354839455 ] } },
{ "type": "Feature", "properties": { "strassenschluessel": "05362000004000426", "bezeichnung": "Mathias-Grünewald-Weg" }, "geometry": { "type": "Point", "coordinates": [ 6.986946544618225, 50.807745229461055 ] } },
{ "type": "Feature", "properties": { "strassenschluessel": "05362000004000427", "bezeichnung": "Max-Liebermann-Straße" }, "geometry": { "type": "Point", "coordinates": [ 6.986977436601572, 50.807237984401098 ] } },
{ "type": "Feature", "properties": { "strassenschluessel": "05362000004000428", "bezeichnung": "Stefan-Lochner-Weg" }, "geometry": { "type": "Point", "coordinates": [ 6.985482511345122, 50.807599674156336 ] } },
{ "type": "Feature", "properties": { "strassenschluessel": "05362000004000429", "bezeichnung": "Wilhelm-Busch-Straße" }, "geometry": { "type": "Point", "coordinates": [ 6.988269529718543, 50.805286250834477 ] } },
{ "type": "Feature", "properties": { "strassenschluessel": "05362000004000430", "bezeichnung": "Vermeerweg" }, "geometry": { "type": "Point", "coordinates": [ 6.986571573438, 50.805717068695529 ] } },
{ "type": "Feature", "properties": { "strassenschluessel": "05362000004000431", "bezeichnung": "Essener Straße" }, "geometry": { "type": "Point", "coordinates": [ 6.968388435833384, 50.8200990809136 ] } },
{ "type": "Feature", "properties": { "strassenschluessel": "05362000004000432", "bezeichnung": "Brüsseler Straße" }, "geometry": { "type": "Point", "coordinates": [ 6.98263177926073, 50.804942925405555 ] } },
{ "type": "Feature", "properties": { "strassenschluessel": "05362000004000433", "bezeichnung": "Luxemburger Straße" }, "geometry": { "type": "Point", "coordinates": [ 6.98001490901424, 50.802868536375897 ] } },
{ "type": "Feature", "properties": { "strassenschluessel": "05362000004000434", "bezeichnung": "Reinhartweg" }, "geometry": { "type": "Point", "coordinates": [ 6.987525776243285, 50.806458187062283 ] } },
{ "type": "Feature", "properties": { "strassenschluessel": "05362000004000435", "bezeichnung": "Rottmannweg" }, "geometry": { "type": "Point", "coordinates": [ 6.987843934601422, 50.806459170840981 ] } },
{ "type": "Feature", "properties": { "strassenschluessel": "05362000004000436", "bezeichnung": "Rungeweg" }, "geometry": { "type": "Point", "coordinates": [ 6.987296647809264, 50.80621370876154 ] } },
{ "type": "Feature", "properties": { "strassenschluessel": "05362000004000437", "bezeichnung": "Aachener Straße" }, "geometry": { "type": "Point", "coordinates": [ 6.964243508313866, 50.819906892537212 ] } },
{ "type": "Feature", "properties": { "strassenschluessel": "05362000004000438", "bezeichnung": "Paul-Klee-Straße" }, "geometry": { "type": "Point", "coordinates": [ 6.989004230878749, 50.807422348451865 ] } },
{ "type": "Feature", "properties": { "strassenschluessel": "05362000004000439", "bezeichnung": "Käthe-Kollwitz-Straße" }, "geometry": { "type": "Point", "coordinates": [ 6.988149398959409, 50.807720899103437 ] } },
{ "type": "Feature", "properties": { "strassenschluessel": "05362000004000440", "bezeichnung": "Heinrich-Zille-Weg" }, "geometry": { "type": "Point", "coordinates": [ 6.988090055140709, 50.808201481269037 ] } },
{ "type": "Feature", "properties": { "strassenschluessel": "05362000004000441", "bezeichnung": "Hans-Holbein-Straße" }, "geometry": { "type": "Point", "coordinates": [ 6.986753037113505, 50.80958554192356 ] } },
{ "type": "Feature", "properties": { "strassenschluessel": "05362000004000443", "bezeichnung": "Duisburger Straße" }, "geometry": null },
{ "type": "Feature", "properties": { "strassenschluessel": "05362000004000444", "bezeichnung": "Emil-Nolde-Straße" }, "geometry": { "type": "Point", "coordinates": [ 6.989117625379349, 50.806412704630617 ] } },
{ "type": "Feature", "properties": { "strassenschluessel": "05362000004000445", "bezeichnung": "Fritz-Uhde-Weg" }, "geometry": { "type": "Point", "coordinates": [ 6.990029957104877, 50.805882627418093 ] } },
{ "type": "Feature", "properties": { "strassenschluessel": "05362000004000446", "bezeichnung": "Oskar-Kokoschka-Weg" }, "geometry": { "type": "Point", "coordinates": [ 6.988690217488311, 50.807265898679098 ] } },
{ "type": "Feature", "properties": { "strassenschluessel": "05362000004000447", "bezeichnung": "Sperlingsweg" }, "geometry": { "type": "Point", "coordinates": [ 6.976406263487887, 50.80648573272483 ] } },
{ "type": "Feature", "properties": { "strassenschluessel": "05362000004000448", "bezeichnung": "Beethovenweg" }, "geometry": null },
{ "type": "Feature", "properties": { "strassenschluessel": "05362000004000449", "bezeichnung": "Brahmsweg" }, "geometry": null },
{ "type": "Feature", "properties": { "strassenschluessel": "05362000004000450", "bezeichnung": "Händelweg" }, "geometry": { "type": "Point", "coordinates": [ 6.9709443831558, 50.807455525415058 ] } },
{ "type": "Feature", "properties": { "strassenschluessel": "05362000004000451", "bezeichnung": "Haydnweg" }, "geometry": { "type": "Point", "coordinates": [ 6.971767826700018, 50.807277846578387 ] } },
{ "type": "Feature", "properties": { "strassenschluessel": "05362000004000452", "bezeichnung": "Mozartweg" }, "geometry": null },
{ "type": "Feature", "properties": { "strassenschluessel": "05362000004000453", "bezeichnung": "Schubertweg" }, "geometry": { "type": "Point", "coordinates": [ 6.972080929509576, 50.807846329294961 ] } },
{ "type": "Feature", "properties": { "strassenschluessel": "05362000004000454", "bezeichnung": "Verdiweg" }, "geometry": null },
{ "type": "Feature", "properties": { "strassenschluessel": "05362000004000455", "bezeichnung": "Wagnerweg" }, "geometry": { "type": "Point", "coordinates": [ 6.97201886495849, 50.80871231864564 ] } },
{ "type": "Feature", "properties": { "strassenschluessel": "05362000004000456", "bezeichnung": "Detmolder Straße" }, "geometry": { "type": "Point", "coordinates": [ 6.965132040043942, 50.822462468949531 ] } },
{ "type": "Feature", "properties": { "strassenschluessel": "05362000004000457", "bezeichnung": "Remscheider Weg" }, "geometry": { "type": "Point", "coordinates": [ 6.966073305437665, 50.821241090017089 ] } },
{ "type": "Feature", "properties": { "strassenschluessel": "05362000004000458", "bezeichnung": "Biberweg" }, "geometry": { "type": "Point", "coordinates": [ 6.964678007020262, 50.811590660386528 ] } },
{ "type": "Feature", "properties": { "strassenschluessel": "05362000004000459", "bezeichnung": "Igelweg" }, "geometry": { "type": "Point", "coordinates": [ 6.963678853578749, 50.810542649565498 ] } },
{ "type": "Feature", "properties": { "strassenschluessel": "05362000004000460", "bezeichnung": "Kolpingstraße" }, "geometry": { "type": "Point", "coordinates": [ 6.962604576594618, 50.810874246249433 ] } },
{ "type": "Feature", "properties": { "strassenschluessel": "05362000004000461", "bezeichnung": "Bodelschwinghstraße" }, "geometry": { "type": "Point", "coordinates": [ 6.961488224605362, 50.811851635688562 ] } },
{ "type": "Feature", "properties": { "strassenschluessel": "05362000004000462", "bezeichnung": "Kettelerstraße" }, "geometry": { "type": "Point", "coordinates": [ 6.960008894607054, 50.812773568244985 ] } },
{ "type": "Feature", "properties": { "strassenschluessel": "05362000004000463", "bezeichnung": "Wichernstraße" }, "geometry": { "type": "Point", "coordinates": [ 6.962435235405102, 50.811539078464982 ] } },
{ "type": "Feature", "properties": { "strassenschluessel": "05362000004000464", "bezeichnung": "Böcklerstraße" }, "geometry": { "type": "Point", "coordinates": [ 6.962351876815839, 50.810108620759138 ] } },
{ "type": "Feature", "properties": { "strassenschluessel": "05362000004000465", "bezeichnung": "Marie-Juchacz-Straße" }, "geometry": { "type": "Point", "coordinates": [ 6.961034516595479, 50.808829485469104 ] } },
{ "type": "Feature", "properties": { "strassenschluessel": "05362000004000467", "bezeichnung": "Hans-Mock-Straße" }, "geometry": { "type": "Point", "coordinates": [ 6.980620564933623, 50.802734196175855 ] } },
{ "type": "Feature", "properties": { "strassenschluessel": "05362000004000468", "bezeichnung": "Richard-Schmieder-Weg" }, "geometry": { "type": "Point", "coordinates": [ 6.980917199331318, 50.802196539864219 ] } },
{ "type": "Feature", "properties": { "strassenschluessel": "05362000004000469", "bezeichnung": "Anton-Engels-Straße" }, "geometry": { "type": "Point", "coordinates": [ 6.984811182563464, 50.803560609047246 ] } },
{ "type": "Feature", "properties": { "strassenschluessel": "05362000004000470", "bezeichnung": "Martin-Reglin-Straße" }, "geometry": { "type": "Point", "coordinates": [ 6.981852169117164, 50.802924124967845 ] } },
{ "type": "Feature", "properties": { "strassenschluessel": "05362000004000471", "bezeichnung": "Heinrich-Nagel-Straße" }, "geometry": { "type": "Point", "coordinates": [ 6.983748256798036, 50.804128029153752 ] } },
{ "type": "Feature", "properties": { "strassenschluessel": "05362000004000472", "bezeichnung": "Josef-Gasten-Weg" }, "geometry": { "type": "Point", "coordinates": [ 6.98482847350348, 50.805081671537678 ] } },
{ "type": "Feature", "properties": { "strassenschluessel": "05362000004000473", "bezeichnung": "Willy-Kreutzer-Weg" }, "geometry": { "type": "Point", "coordinates": [ 6.984415999984531, 50.805996267153979 ] } },
{ "type": "Feature", "properties": { "strassenschluessel": "05362000004000474", "bezeichnung": "Franz-Boss-Straße" }, "geometry": { "type": "Point", "coordinates": [ 6.985993705524558, 50.803076891608171 ] } },
{ "type": "Feature", "properties": { "strassenschluessel": "05362000004000475", "bezeichnung": "Franz-Durant-Straße" }, "geometry": { "type": "Point", "coordinates": [ 6.983965694855184, 50.800884262824965 ] } },
{ "type": "Feature", "properties": { "strassenschluessel": "05362000004000476", "bezeichnung": "Josef-Klein-Straße" }, "geometry": { "type": "Point", "coordinates": [ 6.988406178143324, 50.803745728888074 ] } },
{ "type": "Feature", "properties": { "strassenschluessel": "05362000004000477", "bezeichnung": "Karl-Hasse-Weg" }, "geometry": { "type": "Point", "coordinates": [ 6.986210880771982, 50.80437280712075 ] } },
{ "type": "Feature", "properties": { "strassenschluessel": "05362000004000478", "bezeichnung": "Josef-Mathie-Weg" }, "geometry": { "type": "Point", "coordinates": [ 6.986213723513091, 50.803879944568628 ] } },
{ "type": "Feature", "properties": { "strassenschluessel": "05362000004000479", "bezeichnung": "Marianne-Andreas-Weg" }, "geometry": { "type": "Point", "coordinates": [ 6.986125369415743, 50.802215901952486 ] } },
{ "type": "Feature", "properties": { "strassenschluessel": "05362000004000480", "bezeichnung": "Max-von-Geyr-Straße" }, "geometry": { "type": "Point", "coordinates": [ 6.98686243920913, 50.804790158449123 ] } },
{ "type": "Feature", "properties": { "strassenschluessel": "05362000004000481", "bezeichnung": "Engelbert-Trump-Weg" }, "geometry": { "type": "Point", "coordinates": [ 6.98569090893515, 50.802941367114421 ] } },
{ "type": "Feature", "properties": { "strassenschluessel": "05362000004000482", "bezeichnung": "Eduard-Welty-Weg" }, "geometry": { "type": "Point", "coordinates": [ 6.984136393289575, 50.801704770257722 ] } },
{ "type": "Feature", "properties": { "strassenschluessel": "05362000004000483", "bezeichnung": "Ulrich-Römer-Weg" }, "geometry": { "type": "Point", "coordinates": [ 6.983364288031821, 50.801221965418414 ] } },
{ "type": "Feature", "properties": { "strassenschluessel": "05362000004000498", "bezeichnung": "Jülicher Straße" }, "geometry": { "type": "Point", "coordinates": [ 6.968512212885098, 50.81778323465447 ] } },
{ "type": "Feature", "properties": { "strassenschluessel": "05362000004000499", "bezeichnung": "Stolberger Straße" }, "geometry": { "type": "Point", "coordinates": [ 6.968314452882061, 50.818237958134645 ] } },
{ "type": "Feature", "properties": { "strassenschluessel": "05362000004000501", "bezeichnung": "Ahornweg" }, "geometry": { "type": "Point", "coordinates": [ 6.943360098743414, 50.834045621553585 ] } },
{ "type": "Feature", "properties": { "strassenschluessel": "05362000004000502", "bezeichnung": "Akazienweg" }, "geometry": { "type": "Point", "coordinates": [ 6.943485630767446, 50.834920191488436 ] } },
{ "type": "Feature", "properties": { "strassenschluessel": "05362000004000503", "bezeichnung": "Allerstraße" }, "geometry": { "type": "Point", "coordinates": [ 6.947930761428357, 50.826546273825286 ] } },
{ "type": "Feature", "properties": { "strassenschluessel": "05362000004000505", "bezeichnung": "Am Helmeshof" }, "geometry": { "type": "Point", "coordinates": [ 6.946928903696368, 50.829429302580557 ] } },
{ "type": "Feature", "properties": { "strassenschluessel": "05362000004000506", "bezeichnung": "Am Nordbahnhof" }, "geometry": { "type": "Point", "coordinates": [ 6.940908617185708, 50.837758208548401 ] } },
{ "type": "Feature", "properties": { "strassenschluessel": "05362000004000507", "bezeichnung": "Am Palmersdorfer Bach" }, "geometry": { "type": "Point", "coordinates": [ 6.944360498587931, 50.829951781280535 ] } },
{ "type": "Feature", "properties": { "strassenschluessel": "05362000004000508", "bezeichnung": "An den Benden" }, "geometry": { "type": "Point", "coordinates": [ 6.953736698293929, 50.830647277499217 ] } },
{ "type": "Feature", "properties": { "strassenschluessel": "05362000004000509", "bezeichnung": "An der alten Mühle" }, "geometry": { "type": "Point", "coordinates": [ 6.947266722887143, 50.828658847453838 ] } },
{ "type": "Feature", "properties": { "strassenschluessel": "05362000004000510", "bezeichnung": "Asternweg" }, "geometry": { "type": "Point", "coordinates": [ 6.953869807139966, 50.828809096999464 ] } },
{ "type": "Feature", "properties": { "strassenschluessel": "05362000004000511", "bezeichnung": "Bachstraße" }, "geometry": { "type": "Point", "coordinates": [ 6.95468130176258, 50.829137774834685 ] } },
{ "type": "Feature", "properties": { "strassenschluessel": "05362000004000512", "bezeichnung": "Barbarastraße" }, "geometry": { "type": "Point", "coordinates": [ 6.942958567442535, 50.830676008505677 ] } },
{ "type": "Feature", "properties": { "strassenschluessel": "05362000004000513", "bezeichnung": "Bergerstraße" }, "geometry": { "type": "Point", "coordinates": [ 6.949558022228076, 50.829261170207609 ] } },
{ "type": "Feature", "properties": { "strassenschluessel": "05362000004000514", "bezeichnung": "Brühler Straße" }, "geometry": { "type": "Point", "coordinates": [ 6.965317668010504, 50.831424261919423 ] } },
{ "type": "Feature", "properties": { "strassenschluessel": "05362000004000515", "bezeichnung": "Buchenstraße" }, "geometry": { "type": "Point", "coordinates": [ 6.943123541499845, 50.833578281270469 ] } },
{ "type": "Feature", "properties": { "strassenschluessel": "05362000004000516", "bezeichnung": "Eichenweg" }, "geometry": { "type": "Point", "coordinates": [ 6.942671283824764, 50.83585809908535 ] } },
{ "type": "Feature", "properties": { "strassenschluessel": "05362000004000517", "bezeichnung": "Elisabethstraße" }, "geometry": { "type": "Point", "coordinates": [ 6.945157459481254, 50.831812438910404 ] } },
{ "type": "Feature", "properties": { "strassenschluessel": "05362000004000518", "bezeichnung": "Emsstraße" }, "geometry": { "type": "Point", "coordinates": [ 6.945316319313341, 50.827662461747387 ] } },
{ "type": "Feature", "properties": { "strassenschluessel": "05362000004000519", "bezeichnung": "Entenfangstraße" }, "geometry": { "type": "Point", "coordinates": [ 6.95274191413633, 50.828833592068165 ] } },
{ "type": "Feature", "properties": { "strassenschluessel": "05362000004000520", "bezeichnung": "Erlenweg" }, "geometry": { "type": "Point", "coordinates": [ 6.941483068311701, 50.835927021493518 ] } },
{ "type": "Feature", "properties": { "strassenschluessel": "05362000004000521", "bezeichnung": "Espenweg" }, "geometry": { "type": "Point", "coordinates": [ 6.940544059000296, 50.835681991926037 ] } },
{ "type": "Feature", "properties": { "strassenschluessel": "05362000004000522", "bezeichnung": "Platanenweg" }, "geometry": { "type": "Point", "coordinates": [ 6.945012281677315, 50.835159677210363 ] } },
{ "type": "Feature", "properties": { "strassenschluessel": "05362000004000523", "bezeichnung": "Falkenweg" }, "geometry": { "type": "Point", "coordinates": [ 6.955792857363015, 50.827410758625732 ] } },
{ "type": "Feature", "properties": { "strassenschluessel": "05362000004000524", "bezeichnung": "Fuldastraße" }, "geometry": { "type": "Point", "coordinates": [ 6.949242062588532, 50.826680339608323 ] } },
{ "type": "Feature", "properties": { "strassenschluessel": "05362000004000525", "bezeichnung": "Gewerbestraße" }, "geometry": { "type": "Point", "coordinates": [ 6.949160470200586, 50.836779978182719 ] } },
{ "type": "Feature", "properties": { "strassenschluessel": "05362000004000526", "bezeichnung": "Godorfer Burg" }, "geometry": { "type": "Point", "coordinates": [ 6.937336596014107, 50.830901174287582 ] } },
{ "type": "Feature", "properties": { "strassenschluessel": "05362000004000527", "bezeichnung": "Godorfer Hof" }, "geometry": null },
{ "type": "Feature", "properties": { "strassenschluessel": "05362000004000528", "bezeichnung": "Godorfer Weg" }, "geometry": null },
{ "type": "Feature", "properties": { "strassenschluessel": "05362000004000529", "bezeichnung": "Gutenbergstraße" }, "geometry": { "type": "Point", "coordinates": [ 6.955970118144363, 50.83216819319783 ] } },
{ "type": "Feature", "properties": { "strassenschluessel": "05362000004000530", "bezeichnung": "Hagengasse" }, "geometry": { "type": "Point", "coordinates": [ 6.950583834599963, 50.830338979283539 ] } },
{ "type": "Feature", "properties": { "strassenschluessel": "05362000004000531", "bezeichnung": "Hagenstraße" }, "geometry": { "type": "Point", "coordinates": [ 6.950430519429942, 50.830931179371753 ] } },
{ "type": "Feature", "properties": { "strassenschluessel": "05362000004000532", "bezeichnung": "Hans-Sachs-Straße" }, "geometry": { "type": "Point", "coordinates": [ 6.950720441918161, 50.836422077034342 ] } },
{ "type": "Feature", "properties": { "strassenschluessel": "05362000004000533", "bezeichnung": "Hauptstraße" }, "geometry": { "type": "Point", "coordinates": [ 6.944815080351256, 50.83057502137703 ] } },
{ "type": "Feature", "properties": { "strassenschluessel": "05362000004000534", "bezeichnung": "Heinrichstraße" }, "geometry": null },
{ "type": "Feature", "properties": { "strassenschluessel": "05362000004000535", "bezeichnung": "Hitzelerstraße" }, "geometry": { "type": "Point", "coordinates": [ 6.939687176804852, 50.833447824124733 ] } },
{ "type": "Feature", "properties": { "strassenschluessel": "05362000004000536", "bezeichnung": "Im kleinen Mölchen" }, "geometry": { "type": "Point", "coordinates": [ 6.946446328099852, 50.828095579132842 ] } },
{ "type": "Feature", "properties": { "strassenschluessel": "05362000004000537", "bezeichnung": "Curiestraße" }, "geometry": { "type": "Point", "coordinates": [ 6.94389654200836, 50.84178084610712 ] } },
{ "type": "Feature", "properties": { "strassenschluessel": "05362000004000539", "bezeichnung": "Industriestraße" }, "geometry": { "type": "Point", "coordinates": [ 6.950609357507053, 50.835010689115926 ] } },
{ "type": "Feature", "properties": { "strassenschluessel": "05362000004000540", "bezeichnung": "Kapellenweg" }, "geometry": { "type": "Point", "coordinates": [ 6.951568173858297, 50.828837781249796 ] } },
{ "type": "Feature", "properties": { "strassenschluessel": "05362000004000541", "bezeichnung": "Kurfürstenstraße" }, "geometry": { "type": "Point", "coordinates": [ 6.957164976233481, 50.829212796365908 ] } },
{ "type": "Feature", "properties": { "strassenschluessel": "05362000004000542", "bezeichnung": "Lärchenweg" }, "geometry": { "type": "Point", "coordinates": [ 6.942073919482015, 50.83756098494068 ] } },
{ "type": "Feature", "properties": { "strassenschluessel": "05362000004000543", "bezeichnung": "Langenackerstraße" }, "geometry": { "type": "Point", "coordinates": [ 6.945265686332333, 50.833472564304195 ] } },
{ "type": "Feature", "properties": { "strassenschluessel": "05362000004000544", "bezeichnung": "Lindenstraße" }, "geometry": { "type": "Point", "coordinates": [ 6.939122072631858, 50.83623231783271 ] } },
{ "type": "Feature", "properties": { "strassenschluessel": "05362000004000545", "bezeichnung": "Lippestraße" }, "geometry": { "type": "Point", "coordinates": [ 6.945081420680752, 50.826994643403971 ] } },
{ "type": "Feature", "properties": { "strassenschluessel": "05362000004000546", "bezeichnung": "Mathias-Leyendecker-Straße" }, "geometry": { "type": "Point", "coordinates": [ 6.952035208004112, 50.827586203481061 ] } },
{ "type": "Feature", "properties": { "strassenschluessel": "05362000004000547", "bezeichnung": "Matthiasstraße" }, "geometry": { "type": "Point", "coordinates": [ 6.941280259108519, 50.831775505845663 ] } },
{ "type": "Feature", "properties": { "strassenschluessel": "05362000004000548", "bezeichnung": "Meschenicher Weg" }, "geometry": { "type": "Point", "coordinates": [ 6.942663956767241, 50.838611818641255 ] } },
{ "type": "Feature", "properties": { "strassenschluessel": "05362000004000549", "bezeichnung": "Nelkenweg" }, "geometry": { "type": "Point", "coordinates": [ 6.955185680383356, 50.829787191836509 ] } },
{ "type": "Feature", "properties": { "strassenschluessel": "05362000004000550", "bezeichnung": "Nikolausstraße" }, "geometry": { "type": "Point", "coordinates": [ 6.942756421114013, 50.831839999326554 ] } },
{ "type": "Feature", "properties": { "strassenschluessel": "05362000004000551", "bezeichnung": "Pappelweg" }, "geometry": null },
{ "type": "Feature", "properties": { "strassenschluessel": "05362000004000552", "bezeichnung": "Rosenstraße" }, "geometry": { "type": "Point", "coordinates": [ 6.957572118940579, 50.830154178115514 ] } },
{ "type": "Feature", "properties": { "strassenschluessel": "05362000004000553", "bezeichnung": "Sternenstraße" }, "geometry": { "type": "Point", "coordinates": [ 6.945869148622288, 50.832471025734485 ] } },
{ "type": "Feature", "properties": { "strassenschluessel": "05362000004000554", "bezeichnung": "Theodorstraße" }, "geometry": { "type": "Point", "coordinates": [ 6.941268748910676, 50.833211723152921 ] } },
{ "type": "Feature", "properties": { "strassenschluessel": "05362000004000555", "bezeichnung": "Tulpenweg" }, "geometry": { "type": "Point", "coordinates": [ 6.959187574498508, 50.828709772366402 ] } },
{ "type": "Feature", "properties": { "strassenschluessel": "05362000004000556", "bezeichnung": "Vochemer Straße" }, "geometry": { "type": "Point", "coordinates": [ 6.942116779454891, 50.834036806429381 ] } },
{ "type": "Feature", "properties": { "strassenschluessel": "05362000004000557", "bezeichnung": "Werrastraße" }, "geometry": { "type": "Point", "coordinates": [ 6.951032647906184, 50.827072086636811 ] } },
{ "type": "Feature", "properties": { "strassenschluessel": "05362000004000558", "bezeichnung": "Weserstraße" }, "geometry": { "type": "Point", "coordinates": [ 6.949701335419975, 50.82750808418573 ] } },
{ "type": "Feature", "properties": { "strassenschluessel": "05362000004000559", "bezeichnung": "Zehntfreihof" }, "geometry": null },
{ "type": "Feature", "properties": { "strassenschluessel": "05362000004000560", "bezeichnung": "Brigidastraße" }, "geometry": { "type": "Point", "coordinates": [ 6.945456118281332, 50.830156845353457 ] } },
{ "type": "Feature", "properties": { "strassenschluessel": "05362000004000561", "bezeichnung": "Lorenzhof" }, "geometry": null },
{ "type": "Feature", "properties": { "strassenschluessel": "05362000004000562", "bezeichnung": "Rodenkirchener Straße" }, "geometry": { "type": "Point", "coordinates": [ 6.96165806631597, 50.828605227954093 ] } },
{ "type": "Feature", "properties": { "strassenschluessel": "05362000004000563", "bezeichnung": "Peter-Henlein-Straße" }, "geometry": { "type": "Point", "coordinates": [ 6.951777245166418, 50.833399624987841 ] } },
{ "type": "Feature", "properties": { "strassenschluessel": "05362000004000564", "bezeichnung": "Auf dem Galberg" }, "geometry": { "type": "Point", "coordinates": [ 6.953993236102505, 50.82762325514242 ] } },
{ "type": "Feature", "properties": { "strassenschluessel": "05362000004000566", "bezeichnung": "Dahlienweg" }, "geometry": { "type": "Point", "coordinates": [ 6.956693771298855, 50.828799267990256 ] } },
{ "type": "Feature", "properties": { "strassenschluessel": "05362000004000567", "bezeichnung": "Berggeiststraße" }, "geometry": { "type": "Point", "coordinates": [ 6.938411493660164, 50.834736060007316 ] } },
{ "type": "Feature", "properties": { "strassenschluessel": "05362000004000568", "bezeichnung": "Keldenicher Weg" }, "geometry": { "type": "Point", "coordinates": [ 6.951389827359767, 50.82814173919261 ] } },
{ "type": "Feature", "properties": { "strassenschluessel": "05362000004000700", "bezeichnung": "Am Forst" }, "geometry": { "type": "Point", "coordinates": [ 7.002108835064912, 50.802970246828181 ] } },
{ "type": "Feature", "properties": { "strassenschluessel": "05362000004000701", "bezeichnung": "Alemannenweg" }, "geometry": { "type": "Point", "coordinates": [ 7.022119989270318, 50.802080965719028 ] } },
{ "type": "Feature", "properties": { "strassenschluessel": "05362000004000702", "bezeichnung": "Am Hohen Rain" }, "geometry": { "type": "Point", "coordinates": [ 7.023536677148683, 50.80329471197944 ] } },
{ "type": "Feature", "properties": { "strassenschluessel": "05362000004000703", "bezeichnung": "Am Mieler Berg" }, "geometry": { "type": "Point", "coordinates": [ 7.012552615080717, 50.804477514950854 ] } },
{ "type": "Feature", "properties": { "strassenschluessel": "05362000004000704", "bezeichnung": "Auf dem Radacker" }, "geometry": { "type": "Point", "coordinates": [ 7.002508748342999, 50.805150401048465 ] } },
{ "type": "Feature", "properties": { "strassenschluessel": "05362000004000705", "bezeichnung": "Auf der Trift" }, "geometry": { "type": "Point", "coordinates": [ 7.015604798671524, 50.804604300036345 ] } },
{ "type": "Feature", "properties": { "strassenschluessel": "05362000004000706", "bezeichnung": "Bolemer Weg" }, "geometry": { "type": "Point", "coordinates": [ 7.021257883887446, 50.804205679750467 ] } },
{ "type": "Feature", "properties": { "strassenschluessel": "05362000004000707", "bezeichnung": "Bröhlstraße" }, "geometry": { "type": "Point", "coordinates": [ 7.005659112598717, 50.803474583827558 ] } },
{ "type": "Feature", "properties": { "strassenschluessel": "05362000004000708", "bezeichnung": "Burgstraße" }, "geometry": { "type": "Point", "coordinates": [ 7.021381348440885, 50.803915500413844 ] } },
{ "type": "Feature", "properties": { "strassenschluessel": "05362000004000709", "bezeichnung": "Domhüllenweg" }, "geometry": { "type": "Point", "coordinates": [ 7.009877605058342, 50.804043145975612 ] } },
{ "type": "Feature", "properties": { "strassenschluessel": "05362000004000710", "bezeichnung": "Domskuhlweg" }, "geometry": { "type": "Point", "coordinates": [ 7.015769156182783, 50.805157036538169 ] } },
{ "type": "Feature", "properties": { "strassenschluessel": "05362000004000711", "bezeichnung": "Eburonenweg" }, "geometry": { "type": "Point", "coordinates": [ 7.024868083693118, 50.801117212959639 ] } },
{ "type": "Feature", "properties": { "strassenschluessel": "05362000004000712", "bezeichnung": "Ehlenstraße" }, "geometry": { "type": "Point", "coordinates": [ 7.003887726256549, 50.807269993803835 ] } },
{ "type": "Feature", "properties": { "strassenschluessel": "05362000004000713", "bezeichnung": "Frankenstraße" }, "geometry": { "type": "Point", "coordinates": [ 7.024546982431403, 50.802075837111367 ] } },
{ "type": "Feature", "properties": { "strassenschluessel": "05362000004000714", "bezeichnung": "Friesenweg" }, "geometry": { "type": "Point", "coordinates": [ 7.022099917117031, 50.802981002636436 ] } },
{ "type": "Feature", "properties": { "strassenschluessel": "05362000004000715", "bezeichnung": "Hennebüchelsweg" }, "geometry": null },
{ "type": "Feature", "properties": { "strassenschluessel": "05362000004000716", "bezeichnung": "Holzgasse" }, "geometry": { "type": "Point", "coordinates": [ 7.02148113544827, 50.80465938617477 ] } },
{ "type": "Feature", "properties": { "strassenschluessel": "05362000004000717", "bezeichnung": "Im Kaninsberg" }, "geometry": { "type": "Point", "coordinates": [ 7.023255625805461, 50.803850914663897 ] } },
{ "type": "Feature", "properties": { "strassenschluessel": "05362000004000718", "bezeichnung": "In der Mohle" }, "geometry": { "type": "Point", "coordinates": [ 7.010192407870118, 50.80555067703019 ] } },
{ "type": "Feature", "properties": { "strassenschluessel": "05362000004000719", "bezeichnung": "Jägerstraße" }, "geometry": { "type": "Point", "coordinates": [ 7.00628213164287, 50.804897403753486 ] } },
{ "type": "Feature", "properties": { "strassenschluessel": "05362000004000720", "bezeichnung": "Jagdweg" }, "geometry": { "type": "Point", "coordinates": [ 7.006306740213719, 50.804367067746284 ] } },
{ "type": "Feature", "properties": { "strassenschluessel": "05362000004000721", "bezeichnung": "Carl-von-Joest-Straße" }, "geometry": { "type": "Point", "coordinates": [ 7.006082480812798, 50.806013208599857 ] } },
{ "type": "Feature", "properties": { "strassenschluessel": "05362000004000722", "bezeichnung": "Kirchstraße" }, "geometry": { "type": "Point", "coordinates": [ 7.025007115896101, 50.807350469937788 ] } },
{ "type": "Feature", "properties": { "strassenschluessel": "05362000004000723", "bezeichnung": "Rheinstraße" }, "geometry": { "type": "Point", "coordinates": [ 7.026596739346985, 50.80508812353942 ] } },
{ "type": "Feature", "properties": { "strassenschluessel": "05362000004000724", "bezeichnung": "Sachsenweg" }, "geometry": { "type": "Point", "coordinates": [ 7.020454786800501, 50.80267359607064 ] } },
{ "type": "Feature", "properties": { "strassenschluessel": "05362000004000725", "bezeichnung": "Schmiedegasse" }, "geometry": { "type": "Point", "coordinates": [ 7.018488389444228, 50.807928090879045 ] } },
{ "type": "Feature", "properties": { "strassenschluessel": "05362000004000726", "bezeichnung": "St.-Thomas-Weg" }, "geometry": { "type": "Point", "coordinates": [ 7.024786048696114, 50.806389625308114 ] } },
{ "type": "Feature", "properties": { "strassenschluessel": "05362000004000727", "bezeichnung": "Tannenweg" }, "geometry": { "type": "Point", "coordinates": [ 7.008487505885831, 50.804368595143302 ] } },
{ "type": "Feature", "properties": { "strassenschluessel": "05362000004000728", "bezeichnung": "Ubierweg" }, "geometry": { "type": "Point", "coordinates": [ 7.024055830861552, 50.802449630416341 ] } },
{ "type": "Feature", "properties": { "strassenschluessel": "05362000004000729", "bezeichnung": "Urfelder Straße" }, "geometry": { "type": "Point", "coordinates": [ 7.00721775850699, 50.803454369347776 ] } },
{ "type": "Feature", "properties": { "strassenschluessel": "05362000004000730", "bezeichnung": "Waldstraße" }, "geometry": { "type": "Point", "coordinates": [ 7.004255287177821, 50.803635906049095 ] } },
{ "type": "Feature", "properties": { "strassenschluessel": "05362000004000731", "bezeichnung": "Weidenweg" }, "geometry": { "type": "Point", "coordinates": [ 7.025379841425951, 50.809686669772574 ] } },
{ "type": "Feature", "properties": { "strassenschluessel": "05362000004000732", "bezeichnung": "Försterweg" }, "geometry": { "type": "Point", "coordinates": [ 7.005278442808026, 50.804840694903319 ] } },
{ "type": "Feature", "properties": { "strassenschluessel": "05362000004000734", "bezeichnung": "Pützgasse" }, "geometry": null },
{ "type": "Feature", "properties": { "strassenschluessel": "05362000004000735", "bezeichnung": "Fichtenweg" }, "geometry": { "type": "Point", "coordinates": [ 7.006903058725024, 50.804865934610319 ] } },
{ "type": "Feature", "properties": { "strassenschluessel": "05362000004000736", "bezeichnung": "Kiefernweg" }, "geometry": { "type": "Point", "coordinates": [ 7.004668963357402, 50.805726033817848 ] } },
{ "type": "Feature", "properties": { "strassenschluessel": "05362000004000737", "bezeichnung": "Am Zinnwald" }, "geometry": { "type": "Point", "coordinates": [ 7.023848850386811, 50.806024795550101 ] } },
{ "type": "Feature", "properties": { "strassenschluessel": "05362000004000738", "bezeichnung": "Dietkirchener Straße" }, "geometry": { "type": "Point", "coordinates": [ 7.023655392041359, 50.80671581737726 ] } },
{ "type": "Feature", "properties": { "strassenschluessel": "05362000004000739", "bezeichnung": "Moosweg" }, "geometry": null },
{ "type": "Feature", "properties": { "strassenschluessel": "05362000004000740", "bezeichnung": "Am Hagen" }, "geometry": { "type": "Point", "coordinates": [ 7.011180502842915, 50.80505666954511 ] } },
{ "type": "Feature", "properties": { "strassenschluessel": "05362000004000741", "bezeichnung": "Am Eulenflug" }, "geometry": { "type": "Point", "coordinates": [ 7.010445194899593, 50.804970449890668 ] } },
{ "type": "Feature", "properties": { "strassenschluessel": "05362000004000742", "bezeichnung": "An der Meile" }, "geometry": { "type": "Point", "coordinates": [ 7.012235640502996, 50.804317561804858 ] } },
{ "type": "Feature", "properties": { "strassenschluessel": "05362000004000743", "bezeichnung": "Josef-Kuth-Weg" }, "geometry": { "type": "Point", "coordinates": [ 7.011320833099298, 50.807498105702493 ] } },
{ "type": "Feature", "properties": { "strassenschluessel": "05362000004000744", "bezeichnung": "Am Felde" }, "geometry": { "type": "Point", "coordinates": [ 7.000875569677504, 50.80354448213938 ] } },
{ "type": "Feature", "properties": { "strassenschluessel": "05362000004000745", "bezeichnung": "Christian-Bernartz-Weg" }, "geometry": null },
{ "type": "Feature", "properties": { "strassenschluessel": "05362000004099990", "bezeichnung": "Wesseling" }, "geometry": { "type": "Point", "coordinates": [ 7.025148672378237, 50.800601408022992 ] } }
]
}
